[{"business_status":"OPERATIONAL","formatted_address":"Krzywe Koło 1/3, 00-270 Warszawa","geometry":{"location":{"lat":52.2506807,"lng":21.0113577},"viewport":{"northeast":{"lat":52.25186147989272,"lng":21.01244387989272},"southwest":{"lat":52.24916182010728,"lng":21.00974422010728}}},"icon":"https://maps.gstatic.com/mapfiles/place_api/icons/v1/png_71/restaurant-71.png","icon_background_color":"#FF9E67","icon_mask_base_uri":"https://maps.gstatic.com/mapfiles/place_api/icons/v2/restaurant_pinlet","name":"Sambal restauracja indonezyjska","opening_hours":{"open_now":true},"photos":[{"height":1152,"html_attributions":["<a href=\"https://maps.google.com/maps/contrib/114419766692785960654\">A Google User</a>"],"photo_reference":"AeJbb3fNSGJPayMzas7dB4xEyzCe9GN7949-vUVHW0LavcdkOnIWID3mxlH8CCV8jkU3FXZu0IFYlTsqPMEawg4hq2gyN8lirplonD90Qgu_wy5Ax9_sQ4b6nOTg1voLVSj-XeFtnsvL8-nYrqDY8c7wjs2F98T-Zb6Dy5k2WzLkgranbQJ7","width":2048}],"place_id":"ChIJzfsnBm_MHkcRK8E-c3q915w","plus_code":{"compound_code":"7226+7G Warsaw","global_code":"9G437226+7G"},"price_level":2,"rating":4.6,"reference":"ChIJzfsnBm_MHkcRK8E-c3q915w","types":["restaurant","food","point_of_interest","establishment"],"user_ratings_total":686},{"business_status":"OPERATIONAL","formatted_address":"Ząbkowska, 03-736 Warszawa","geometry":{"location":{"lat":52.2542427,"lng":21.04341},"viewport":{"northeast":{"lat":52.25559252989272,"lng":21.04475982989272},"southwest":{"lat":52.25289287010727,"lng":21.04206017010728}}},"icon":"https://maps.gstatic.com/mapfiles/place_api/icons/v1/png_71/restaurant-71.png","icon_background_color":"#FF9E67","icon_mask_base_uri":"https://maps.gstatic.com/mapfiles/place_api/icons/v2/restaurant_pinlet","name":"Nanh kuchnia wietnamska , chińska , tajska","place_id":"ChIJcX1SQPjNHkcRcsyuhl1F15M","plus_code":{"compound_code":"723V+M9 Warsaw","global_code":"9G43723V+M9"},"rating":0,"reference":"ChIJcX1SQPjNHkcRcsyuhl1F15M","types":["restaurant","food","point_of_interest","establishment"],"user_ratings_total":0}]