[{"business_status":"OPERATIONAL","formatted_address":"Tamka 47, 00-355 Warszawa","geometry":{"location":{"lat":52.2363636,"lng":21.0212474},"viewport":{"northeast":{"lat":52.23777412989273,"lng":21.02258877989273},"southwest":{"lat":52.23507447010728,"lng":21.01988912010728}}},"icon":"https://maps.gstatic.com/mapfiles/place_api/icons/v1/png_71/restaurant-71.png","icon_background_color":"#FF9E67","icon_mask_base_uri":"https://maps.gstatic.com/mapfiles/place_api/icons/v2/restaurant_pinlet","name":"Pizza u Tomka","opening_hours":{"open_now":false},"photos":[{"height":2160,"html_attributions":["<a href=\"https://maps.google.com/maps/contrib/114052462308414741443\">Małgorzata Smogorzwska</a>"],"photo_reference":"AeJbb3eEhcZkGdUtDp1ka0eyuXI5sU4aY16P_ma71cD69edLfPfl15jxWDqchbT5kXak96L0GqdQwExJfxjCZx4yPonP0ywGuIqKgZV1w6HfaxzBVIbCBgHlT7DD-57eTOZBPf4FLY6l33nSUwghYKlTQF_qvo3K_6irB-v0NedShKqh9g9V","width":3840}],"place_id":"ChIJSeI2cnjNHkcR2mRfjOWTUE0","plus_code":{"compound_code":"62PC+GF Warsaw","global_code":"9G4362PC+GF"},"rating":5,"reference":"ChIJSeI2cnjNHkcR2mRfjOWTUE0","types":["restaurant","point_of_interest","food","establishment"],"user_ratings_total":15},{"business_status":"OPERATIONAL","formatted_address":"Osmańczyka 22/159, 01-494 Warszawa","geometry":{"location":{"lat":52.2605,"lng":20.9321969},"viewport":{"northeast":{"lat":52.26186837989273,"lng":20.93327592989272},"southwest":{"lat":52.25916872010728,"lng":20.93057627010728}}},"icon":"https://maps.gstatic.com/mapfiles/place_api/icons/v1/png_71/restaurant-71.png","icon_background_color":"#FF9E67","icon_mask_base_uri":"https://maps.gstatic.com/mapfiles/place_api/icons/v2/restaurant_pinlet","name":"Afera Pizzera","opening_hours":{"open_now":true},"photos":[{"height":2604,"html_attributions":["<a href=\"https://maps.google.com/maps/contrib/110759533831092679014\">A Google User</a>"],"photo_reference":"AeJbb3fMZw24iSrsnFYx9EICKcSHYkCgChuFhjm10judoI0uT8MJNTpBjpbNvrGs6iCB-EXxgWv0foO9Woks-pTViJMYxEBJ0n2sATxUmTtkqjBOUCBz_OV2nMhUUyUm0wFeyxSsYyGPKf5Pua7VTTM3p50W7eX35_k2PxDDbga8kSb-OxyG","width":4624}],"place_id":"ChIJYxyiF-jLHkcRm67lAsp-9sY","plus_code":{"compound_code":"7W6J+6V Warsaw","global_code":"9G427W6J+6V"},"rating":4.9,"reference":"ChIJYxyiF-jLHkcRm67lAsp-9sY","types":["restaurant","meal_delivery","meal_takeaway","store","food","point_of_interest","establishment"],"user_ratings_total":197},{"business_status":"OPERATIONAL","formatted_address":"Jutrzenki 119, 02-231 Warszawa","geometry":{"location":{"lat":52.1942919,"lng":20.927544},"viewport":{"northeast":{"lat":52.19560342989272,"lng":20.92920797989272},"southwest":{"lat":52.19290377010728,"lng":20.92650832010728}}},"icon":"https://maps.gstatic.com/mapfiles/place_api/icons/v1/png_71/restaurant-71.png","icon_background_color":"#FF9E67","icon_mask_base_uri":"https://maps.gstatic.com/mapfiles/place_api/icons/v2/restaurant_pinlet","name":"Pizzeria Due Monti","opening_hours":{"open_now":true},"photos":[{"height":1732,"html_attributions":["<a href=\"https://maps.google.com/maps/contrib/111069744875455580155\">Jędrzej Joachimczak</a>"],"photo_reference":"AeJbb3fymTdbtZhJLhbYDM-q9-gZVrG5bi1GNkIRx6TYUbDJTEVJIf5EWwhI2ogjxICEZRyKN_CMuW4qLI0xK9HdNziGi8jeMlID5tgMIBbG-Xgr-8apnj9ulg-JQv2blDMWi-NWt6hFxwCBYs1vo8K76IvY3tjwhmX08Fgxj7255z6VORlf","width":1536}],"place_id":"ChIJ9VR-ceU1GUcRBX1APdKdHpc","plus_code":{"compound_code":"5WVH+P2 Warsaw","global_code":"9G425WVH+P2"},"rating":4.9,"reference":"ChIJ9VR-ceU1GUcRBX1APdKdHpc","types":["restaurant","food","point_of_interest","establishment"],"user_ratings_total":152},{"business_status":"OPERATIONAL","formatted_address":"Jana Ostroroga 27, 01-163 Warszawa","geometry":{"location":{"lat":52.2466873,"lng":20.965867},"viewport":{"northeast":{"lat":52.24806337989271,"lng":20.96737822989272},"southwest":{"lat":52.24536372010727,"lng":20.96467857010727}}},"icon":"https://maps.gstatic.com/mapfiles/place_api/icons/v1/png_71/restaurant-71.png","icon_background_color":"#FF9E67","icon_mask_base_uri":"https://maps.gstatic.com/mapfiles/place_api/icons/v2/restaurant_pinlet","name":"Pizza Republic","opening_hours":{"open_now":true},"photos":[{"height":4012,"html_attributions":["<a href=\"https://maps.google.com/maps/contrib/115177087829443378884\">A Google User</a>"],"photo_reference":"AeJbb3eNcT-xYugHuC8EjAaD218-qTbwJIZE5UN5moowSFPckAZRJTYuME-2QEamRw4hki_gYTJvW_E0Z7Ot3EMeNIgJHHqQ2WAxmxJHLhliOmC-CS9HyweFioFpJvbeeOnil9TITpiTXLdR9kExcl8vWO0a1C2BlFsL5INuqQGug0u5pnK0","width":6018}],"place_id":"ChIJkf04pV_LHkcR1Oiz4zlseS0","plus_code":{"compound_code":"6XW8+M8 Warsaw","global_code":"9G426XW8+M8"},"price_level":1,"rating":4.9,"reference":"ChIJkf04pV_LHkcR1Oiz4zlseS0","types":["restaurant","food","point_of_interest","establishment"],"user_ratings_total":143},{"business_status":"OPERATIONAL","formatted_address":"Chmielna 13, 00-021 Warszawa","geometry":{"location":{"lat":52.23269939999999,"lng":21.0167133},"viewport":{"northeast":{"lat":52.23396527989272,"lng":21.01745352989272},"southwest":{"lat":52.23126562010728,"lng":21.01475387010728}}},"icon":"https://maps.gstatic.com/mapfiles/place_api/icons/v1/png_71/restaurant-71.png","icon_background_color":"#FF9E67","icon_mask_base_uri":"https://maps.gstatic.com/mapfiles/place_api/icons/v2/restaurant_pinlet","name":"Pizza na Chmielnej","opening_hours":{"open_now":true},"photos":[{"height":3024,"html_attributions":["<a href=\"https://maps.google.com/maps/contrib/113347621447436395962\">Mateusz Pankiewicz</a>"],"photo_reference":"AeJbb3cbVMr9-n09jsPc5MlfQbZgz_Ywkk_Fw0agYHiwezL_viZWRwS7qE7NJjenlMkMBQ56kSaHhsuRsOdxfpDLeVafH_bXKFqGcQQcYGdeNuukn7xu6SYtu4AWxT6c98Aj3EZPsnT56psNjkOOBgWpwGvJX8nz7WE9Mzs2Qjv3Eii__sZE","width":4032}],"place_id":"ChIJsZtLYl_NHkcRjrcqH6zalnY","plus_code":{"compound_code":"62M8+3M Warsaw","global_code":"9G4362M8+3M"},"price_level":1,"rating":4.8,"reference":"ChIJsZtLYl_NHkcRjrcqH6zalnY","types":["restaurant","food","point_of_interest","establishment"],"user_ratings_total":804},{"business_status":"OPERATIONAL","formatted_address":"Powstańców Śląskich 104/213, 01-466 Warszawa","geometry":{"location":{"lat":52.2543903,"lng":20.9186826},"viewport":{"northeast":{"lat":52.25574012989272,"lng":20.92003242989272},"southwest":{"lat":52.25304047010728,"lng":20.91733277010728}}},"icon":"https://maps.gstatic.com/mapfiles/place_api/icons/v1/png_71/restaurant-71.png","icon_background_color":"#FF9E67","icon_mask_base_uri":"https://maps.gstatic.com/mapfiles/place_api/icons/v2/restaurant_pinlet","name":"PULCINELLA PIZZERIA ITALIANA","opening_hours":{"open_now":true},"photos":[{"height":3024,"html_attributions":["<a href=\"https://maps.google.com/maps/contrib/112871175506096948915\">Jarosław Żądło</a>"],"photo_reference":"AeJbb3d463FHn5kHKuYmLf2ARb1oogE5PVPXqAAQ1BNef3Y-0sjBf0ocBkhv4cgndckpZzKYTT7VUkj9oRZ1n2NPvOIxEkUyEJLbSzg9mtofx3lokzsxkKvMV0ecNsf3k3ol1xrLeRjB4VKWiOj1pmPphQjNu55_C37AM7wz8srzQYJsynIF","width":4032}],"place_id":"ChIJ4UnANajLHkcR4JBhdpfE7jg","plus_code":{"compound_code":"7W39+QF Warsaw","global_code":"9G427W39+QF"},"rating":4.8,"reference":"ChIJ4UnANajLHkcR4JBhdpfE7jg","types":["restaurant","food","point_of_interest","establishment"],"user_ratings_total":189},{"business_status":"OPERATIONAL","formatted_address":"Senatorska 28, 00-096 Warszawa","geometry":{"location":{"lat":52.2431333,"lng":21.0049905},"viewport":{"northeast":{"lat":52.24443562989271,"lng":21.00625057989272},"southwest":{"lat":52.24173597010727,"lng":21.00355092010727}}},"icon":"https://maps.gstatic.com/mapfiles/place_api/icons/v1/png_71/restaurant-71.png","icon_background_color":"#FF9E67","icon_mask_base_uri":"https://maps.gstatic.com/mapfiles/place_api/icons/v2/restaurant_pinlet","name":"Casa di Tuzza - Pizza Neapolitańska Warszawa","opening_hours":{"open_now":true},"photos":[{"height":4032,"html_attributions":["<a href=\"https://maps.google.com/maps/contrib/110696552143319219732\">Jakub Zowczak</a>"],"photo_reference":"AeJbb3dZjEepTn5poRejRXdw1EOLEBItkdPG8RcDC1VIv5oq8CcgTMjIlJYqp23w2TMY_fMJWYt4v-t9n8uwv-3rLiIRJigLQWsAf8MVHPsikSCtL_yzDmRGM_iMWWLc0mUR0lKexYJY9Q-AG1UeAx-pXARoKsKn62iLlJxtCf9yPxjQFF7g","width":3024}],"place_id":"ChIJm-INiqrNHkcR5S57V44J02s","plus_code":{"compound_code":"62V3+7X Warsaw","global_code":"9G4362V3+7X"},"price_level":2,"rating":4.7,"reference":"ChIJm-INiqrNHkcR5S57V44J02s","types":["restaurant","food","point_of_interest","establishment"],"user_ratings_total":1292},{"business_status":"OPERATIONAL","formatted_address":"Jedności 2, 05-506 Lesznowola","geometry":{"location":{"lat":52.0911537,"lng":20.9340763},"viewport":{"northeast":{"lat":52.09250357989272,"lng":20.93531337989272},"southwest":{"lat":52.08980392010728,"lng":20.93261372010728}}},"icon":"https://maps.gstatic.com/mapfiles/place_api/icons/v1/png_71/restaurant-71.png","icon_background_color":"#FF9E67","icon_mask_base_uri":"https://maps.gstatic.com/mapfiles/place_api/icons/v2/restaurant_pinlet","name":"Restauracja La Nostra","opening_hours":{"open_now":true},"photos":[{"height":2268,"html_attributions":["<a href=\"https://maps.google.com/maps/contrib/104417049209585607624\">Joanna X</a>"],"photo_reference":"AeJbb3exDS54HSl73pbk3BGuEoqBKNHKYnxPJg_cz9lbzAVCsbBf33t0oNN7bij75WSt19jik47DVo_noFEhxhfcinnkZfx9UbkmPOnLgi8-5GGmtmOyZEY94FcMbocj-G_hfvUAeNiwSqhKo7YKLvNTt02RLESHWUomJTbWIGo2NffotU02","width":4032}],"place_id":"ChIJhRfms6AxGUcR30uAqNUJK3s","plus_code":{"compound_code":"3WRM+FJ Lesznowola","global_code":"9G423WRM+FJ"},"price_level":2,"rating":4.7,"reference":"ChIJhRfms6AxGUcR30uAqNUJK3s","types":["restaurant","meal_delivery","point_of_interest","food","establishment"],"user_ratings_total":457},{"business_status":"OPERATIONAL","formatted_address":"Żelazna 51/53, 00-841 Warszawa","geometry":{"location":{"lat":52.231974,"lng":20.9907126},"viewport":{"northeast":{"lat":52.23350352989272,"lng":20.9929926},"southwest":{"lat":52.23080387010728,"lng":20.9899526}}},"icon":"https://maps.gstatic.com/mapfiles/place_api/icons/v1/png_71/restaurant-71.png","icon_background_color":"#FF9E67","icon_mask_base_uri":"https://maps.gstatic.com/mapfiles/place_api/icons/v2/restaurant_pinlet","name":"Bocca Ristorante • Pizzeria","opening_hours":{"open_now":true},"photos":[{"height":4032,"html_attributions":["<a href=\"https://maps.google.com/maps/contrib/114753559959434185008\">A Google User</a>"],"photo_reference":"AeJbb3fwSXcKq3kPYH03MliyxOo0BdjGbjQ-mgdckbbHOFVY4XUCjivMohzhJUhIEZcElNLS7FJt-6Lt_l-WCpC707V1LG2VETaG8RMruBat5iX_OSJ2K-h4RI_-nF3Y-OFGBwXayIr39811I-emgRz6tuBWFFohhB9vAXGOWpheA90CluWW","width":3024}],"place_id":"ChIJvUSBQf7NHkcRC-k1Thi9N0c","plus_code":{"compound_code":"6XJR+Q7 Warsaw","global_code":"9G426XJR+Q7"},"rating":4.7,"reference":"ChIJvUSBQf7NHkcRC-k1Thi9N0c","types":["restaurant","food","point_of_interest","establishment"],"user_ratings_total":360},{"business_status":"OPERATIONAL","formatted_address":"Ignacego Krasickiego 79a, 05-500 Nowa Iwiczna","geometry":{"location":{"lat":52.0891943,"lng":20.9940249},"viewport":{"northeast":{"lat":52.09053737989272,"lng":20.99528292989272},"southwest":{"lat":52.08783772010727,"lng":20.99258327010728}}},"icon":"https://maps.gstatic.com/mapfiles/place_api/icons/v1/png_71/restaurant-71.png","icon_background_color":"#FF9E67","icon_mask_base_uri":"https://maps.gstatic.com/mapfiles/place_api/icons/v2/restaurant_pinlet","name":"Zakręcona pizza","opening_hours":{"open_now":true},"photos":[{"height":3456,"html_attributions":["<a href=\"https://maps.google.com/maps/contrib/101562053800782233677\">Andrzej L.</a>"],"photo_reference":"AeJbb3eAOXc_4j-LSO94TvjsM4zSQTGV1424FF7OTFofEEx4C312Ui4o1_O9Ilm8mbLQ0D6AJE0vjWZUjXV5_5ARUcsOEFhTfAP3qUqJE1NFYZcZ2ezbMUy0RrslRVF_RPPHx0Kq0qvVYnXRYAtpqR3iD1020MSoflQgh5iCnaGug2jJNv03","width":4608}],"place_id":"ChIJUz8FPuExGUcRz85JokHYVtI","plus_code":{"compound_code":"3XQV+MJ Nowa Iwiczna","global_code":"9G423XQV+MJ"},"rating":4.7,"reference":"ChIJUz8FPuExGUcRz85JokHYVtI","types":["restaurant","point_of_interest","food","establishment"],"user_ratings_total":115},{"business_status":"OPERATIONAL","formatted_address":"Zbocze 16, 02-493 Warszawa","geometry":{"location":{"lat":52.201368,"lng":20.9245939},"viewport":{"northeast":{"lat":52.20260112989271,"lng":20.92613972989272},"southwest":{"lat":52.19990147010727,"lng":20.92344007010728}}},"icon":"https://maps.gstatic.com/mapfiles/place_api/icons/v1/png_71/restaurant-71.png","icon_background_color":"#FF9E67","icon_mask_base_uri":"https://maps.gstatic.com/mapfiles/place_api/icons/v2/restaurant_pinlet","name":"Tre Orsi Pizza","opening_hours":{"open_now":true},"photos":[{"height":1960,"html_attributions":["<a href=\"https://maps.google.com/maps/contrib/112852820627149498214\">Al Capone</a>"],"photo_reference":"AeJbb3e2axP4eX6QYRxnaOZkzLEVSUWca3wV-53HUOf0ggFly_XVGu-6EUhTVSYIvVrokEjSHUo8ss7lA9qh5AdRfyivlL1XigJTH8y1HwjqAIEie_RXPZaa-ZGppXvesMHodpgA-343EyXpJBx_zbJFFU_ma1ZcN94IFPDuusZG6-_iav-l","width":4032}],"place_id":"ChIJx12DLrE0GUcR6rvrTfnNThQ","plus_code":{"compound_code":"6W2F+GR Warsaw","global_code":"9G426W2F+GR"},"price_level":2,"rating":4.6,"reference":"ChIJx12DLrE0GUcR6rvrTfnNThQ","types":["restaurant","food","point_of_interest","establishment"],"user_ratings_total":2284},{"business_status":"OPERATIONAL","formatted_address":"Warszawska 58c/lok 34, 02-496 Warszawa","geometry":{"location":{"lat":52.1954861,"lng":20.8630135},"viewport":{"northeast":{"lat":52.19692882989273,"lng":20.86442722989272},"southwest":{"lat":52.19422917010728,"lng":20.86172757010728}}},"icon":"https://maps.gstatic.com/mapfiles/place_api/icons/v1/png_71/restaurant-71.png","icon_background_color":"#FF9E67","icon_mask_base_uri":"https://maps.gstatic.com/mapfiles/place_api/icons/v2/restaurant_pinlet","name":"Calabria - Restauracja Trattoria Pizzeria Ursus","opening_hours":{"open_now":true},"photos":[{"height":809,"html_attributions":["<a href=\"https://maps.google.com/maps/contrib/115605449024187845415\">Calabria</a>"],"photo_reference":"AeJbb3f3JolJUdKsQTsNoGRRygWJmXnCxDsnYLyzvFYddG-kH97VuphT-uI07n-tgsuQF6bUDmuAXGP9fMSak6BKmVwmWjl2kgdD6TUKYW8h3loDoJQvgtuZQGycJGgILE1wsOaBbz-zkJUg9-n4K1Rnd1EGoRCtPDgQKY4yZknKMKWBn30a","width":1440}],"place_id":"ChIJDaZlvSvSHkcRNZVL6bhXswQ","plus_code":{"compound_code":"5VW7+56 Warsaw","global_code":"9G425VW7+56"},"price_level":2,"rating":4.6,"reference":"ChIJDaZlvSvSHkcRNZVL6bhXswQ","types":["restaurant","meal_delivery","meal_takeaway","point_of_interest","food","establishment"],"user_ratings_total":1042},{"business_status":"OPERATIONAL","formatted_address":"Stanisława Augusta Poniatowskiego 7, 05-080 Izabelin C","geometry":{"location":{"lat":52.29438680000001,"lng":20.8131161},"viewport":{"northeast":{"lat":52.29570522989272,"lng":20.81460287989272},"southwest":{"lat":52.29300557010728,"lng":20.81190322010728}}},"icon":"https://maps.gstatic.com/mapfiles/place_api/icons/v1/png_71/restaurant-71.png","icon_background_color":"#FF9E67","icon_mask_base_uri":"https://maps.gstatic.com/mapfiles/place_api/icons/v2/restaurant_pinlet","name":"Pizzeria Mięta","opening_hours":{"open_now":true},"photos":[{"height":2304,"html_attributions":["<a href=\"https://maps.google.com/maps/contrib/108296625609904839029\">Gospoda u Pajączka</a>"],"photo_reference":"AeJbb3dQOPuhnpqNKKnDE4DevA3ZVS7EANRCwhyCkv-rQ_pMjaF1kvWOYE-zmRXjQl0yNCqceP8oS9Ro_joRRtvb2cqT6JGobAbd50aHwlZk3yXttX6ZVunwck5MhTMFMNLE_gZTuZAt0zZT8OwDMNyfv57gCvtksnGBxxQ9_D_er8B2brtz","width":3456}],"place_id":"ChIJRWTS2kq0HkcRQPNGnR2t5Bg","plus_code":{"compound_code":"7RV7+Q6 Izabelin C","global_code":"9G427RV7+Q6"},"price_level":2,"rating":4.6,"reference":"ChIJRWTS2kq0HkcRQPNGnR2t5Bg","types":["restaurant","point_of_interest","food","establishment"],"user_ratings_total":892},{"business_status":"OPERATIONAL","formatted_address":"Burakowska 15, 01-066 Warszawa","geometry":{"location":{"lat":52.255138,"lng":20.9782873},"viewport":{"northeast":{"lat":52.25656232989272,"lng":20.97985187989272},"southwest":{"lat":52.25386267010727,"lng":20.97715222010727}}},"icon":"https://maps.gstatic.com/mapfiles/place_api/icons/v1/png_71/restaurant-71.png","icon_background_color":"#FF9E67","icon_mask_base_uri":"https://maps.gstatic.com/mapfiles/place_api/icons/v2/restaurant_pinlet","name":"Tutti Colori - restauracja włoska, pizza Wola Warszawa","opening_hours":{"open_now":true},"photos":[{"height":4032,"html_attributions":["<a href=\"https://maps.google.com/maps/contrib/100563636548345480703\">Kamil Wójtowicz</a>"],"photo_reference":"AeJbb3fHqzfcKjEo1dI1ikB3CfaZP9Ffkdz-3nzQMYdtBa0BhNqe9LGKRqu7jyvAQphBvrhvritWVtfFYmbyAgBjPcCSdl6sbBq4xVS2rIEsAyFn5TOtQaeDO6TBxQ5kVXj6NA1lHCUlhAryLn7F-K7QJ9oHrm1kyGwBsloLx5-TYjcHCUYQ","width":3024}],"place_id":"ChIJRSv0jo_LHkcRdTH7JbyMFdA","plus_code":{"compound_code":"7X4H+38 Warsaw","global_code":"9G427X4H+38"},"price_level":2,"rating":4.6,"reference":"ChIJRSv0jo_LHkcRdTH7JbyMFdA","types":["meal_delivery","meal_takeaway","bar","restaurant","food","point_of_interest","establishment"],"user_ratings_total":648},{"business_status":"OPERATIONAL","formatted_address":"Kolska 11, 01-045 Warszawa","geometry":{"location":{"lat":52.2506618,"lng":20.9765748},"viewport":{"northeast":{"lat":52.25206132989271,"lng":20.97792372989272},"southwest":{"lat":52.24936167010727,"lng":20.97522407010728}}},"icon":"https://maps.gstatic.com/mapfiles/place_api/icons/v1/png_71/restaurant-71.png","icon_background_color":"#FF9E67","icon_mask_base_uri":"https://maps.gstatic.com/mapfiles/place_api/icons/v2/restaurant_pinlet","name":"Casa Mia Pizza Napoletana","opening_hours":{"open_now":true},"photos":[{"height":1200,"html_attributions":["<a href=\"https://maps.google.com/maps/contrib/116304546600352266389\">Olga Zakharchenko</a>"],"photo_reference":"AeJbb3f3nRUq6Lf0i5KCdP_b2RY74GIcG1tD-K2U7aDpXY1zaHVhpnTcNj2teWN78Wn3CB5XHBdeVHE8ZMsm3A-Ojg2ZfHJpekluJXo5BE9PZV7AgerhpSJO2qysNEKg7kPZPCBrCI70IO6SIXQ93A3nZ8KdEGpGs3lf-nxowARITFzoimcm","width":1600}],"place_id":"ChIJMQ1z45vLHkcRNLr66qoOpG0","plus_code":{"compound_code":"7X2G+7J Warsaw","global_code":"9G427X2G+7J"},"price_level":2,"rating":4.6,"reference":"ChIJMQ1z45vLHkcRNLr66qoOpG0","types":["meal_delivery","meal_takeaway","restaurant","food","point_of_interest","establishment"],"user_ratings_total":522},{"business_status":"OPERATIONAL","formatted_address":"Jasnodworska 3c, 01-745 Warszawa","geometry":{"location":{"lat":52.2601924,"lng":20.959673},"viewport":{"northeast":{"lat":52.26153992989272,"lng":20.96102062989272},"southwest":{"lat":52.25884027010728,"lng":20.95832097010728}}},"icon":"https://maps.gstatic.com/mapfiles/place_api/icons/v1/png_71/restaurant-71.png","icon_background_color":"#FF9E67","icon_mask_base_uri":"https://maps.gstatic.com/mapfiles/place_api/icons/v2/restaurant_pinlet","name":"Coco Pizza Żoliborz","opening_hours":{"open_now":true},"photos":[{"height":2785,"html_attributions":["<a href=\"https://maps.google.com/maps/contrib/112677872261593165158\">A Google User</a>"],"photo_reference":"AeJbb3cB6Kf7dM4HgN2onEageeS_bIsXzySiI91uMfGz68sv2qrRNkVivmnRPO2Tjwz5vA33UJ6-EfbATo6RV_hKgo1YLsOtpqb_1LRpnzvbfZv87BW24glWVVlSnLJTDI0irKZnldGCP_mFe0NIyHwA9aGNqV-Qj0xjFcyeMwJ9ftUb6vbo","width":2782}],"place_id":"ChIJiyvzOlrLHkcRA3B8e-6sxz8","plus_code":{"compound_code":"7X65+3V Warsaw","global_code":"9G427X65+3V"},"rating":4.6,"reference":"ChIJiyvzOlrLHkcRA3B8e-6sxz8","types":["restaurant","food","point_of_interest","establishment"],"user_ratings_total":493},{"business_status":"OPERATIONAL","formatted_address":"Bohaterów Warszawy 14, 02-495 Warszawa","geometry":{"location":{"lat":52.1942785,"lng":20.889624},"viewport":{"northeast":{"lat":52.19557322989272,"lng":20.89091817989272},"southwest":{"lat":52.19287357010727,"lng":20.88821852010728}}},"icon":"https://maps.gstatic.com/mapfiles/place_api/icons/v1/png_71/restaurant-71.png","icon_background_color":"#FF9E67","icon_mask_base_uri":"https://maps.gstatic.com/mapfiles/place_api/icons/v2/restaurant_pinlet","name":"Ristorante pizzeria da Gianni","opening_hours":{"open_now":true},"photos":[{"height":3432,"html_attributions":["<a href=\"https://maps.google.com/maps/contrib/100342782979872413578\">A Google User</a>"],"photo_reference":"AeJbb3eu_m1g6VVGikoksuENbgBJLvBCPCXPZ8UEx23nyq09vD22RQp8DYXuO02g1Hd41BxhJHIOBoK7OveCAIADJH4Cpwu6VNj9o-zW0QkPVBPru8dwlLYOrhpm3mUV4tJzRa_cwzEwyzzTwazVgQAS1ALNWBbZVWGo5_7RNlk_SUVBjxdq","width":2746}],"place_id":"ChIJBR73CmU1GkcRujl_Cxkn-Dk","plus_code":{"compound_code":"5VVQ+PR Warsaw","global_code":"9G425VVQ+PR"},"price_level":2,"rating":4.6,"reference":"ChIJBR73CmU1GkcRujl_Cxkn-Dk","types":["meal_delivery","meal_takeaway","restaurant","point_of_interest","food","establishment"],"user_ratings_total":400},{"business_status":"OPERATIONAL","formatted_address":"al. Jerozolimskie 4, 00-374 Warszawa","geometry":{"location":{"lat":52.2328395,"lng":21.024126},"viewport":{"northeast":{"lat":52.23405837989272,"lng":21.02557077989272},"southwest":{"lat":52.23135872010727,"lng":21.02287112010728}}},"icon":"https://maps.gstatic.com/mapfiles/place_api/icons/v1/png_71/restaurant-71.png","icon_background_color":"#FF9E67","icon_mask_base_uri":"https://maps.gstatic.com/mapfiles/place_api/icons/v2/restaurant_pinlet","name":"Pizza pod Palmą","opening_hours":{"open_now":true},"photos":[{"height":420,"html_attributions":["<a href=\"https://maps.google.com/maps/contrib/104280877835132911128\">A Google User</a>"],"photo_reference":"AeJbb3dfaVuI9ptouTu7LF546evvv5oeGhy-FDNSrb4mLQ5FgJ6asWzFksOG3cVCH5HtYyGBt_z8U_U9R5H5k43hWquRqruQGHAbdW0mXXquUYEzpq3G-nL6I0XXj7eX_kNTcB3Uktgcpmhlh_Qy2sjkvpfiOT_XZitsEqLZQ_NZOOEGuhNc","width":630}],"place_id":"ChIJHUtMOgzNHkcRjcK53OD9qlI","plus_code":{"compound_code":"62MF+4M Warsaw","global_code":"9G4362MF+4M"},"rating":4.6,"reference":"ChIJHUtMOgzNHkcRjcK53OD9qlI","types":["restaurant","food","point_of_interest","establishment"],"user_ratings_total":245},{"business_status":"OPERATIONAL","formatted_address":"Klaudyny 26A, 01-684 Warszawa","geometry":{"location":{"lat":52.282843,"lng":20.9739429},"viewport":{"northeast":{"lat":52.28432657989271,"lng":20.97512752989272},"southwest":{"lat":52.28162692010727,"lng":20.97242787010728}}},"icon":"https://maps.gstatic.com/mapfiles/place_api/icons/v1/png_71/restaurant-71.png","icon_background_color":"#FF9E67","icon_mask_base_uri":"https://maps.gstatic.com/mapfiles/place_api/icons/v2/restaurant_pinlet","name":"Pizza Boxz","opening_hours":{"open_now":true},"photos":[{"height":553,"html_attributions":["<a href=\"https://maps.google.com/maps/contrib/108522028364558479835\">A Google User</a>"],"photo_reference":"AeJbb3fsrP_ZVFCFg6qM9uOSyu3xohckSahR8Sa0325F1oKVRKF7kibR94CrYUEKAxfQ9pIkxA72mTtVgZoCdKV_LNfeZQEj4TJAApgftXlP2g8-Eg1LM-Y3gOxRtlERRFK64M67yBHBp-RyGGXQn-JoPH0YgKcQNa4wqM1ioDKSKgI4p9uG","width":1024}],"place_id":"ChIJSdfDY8TLHkcRGql6oR29uTY","plus_code":{"compound_code":"7XMF+4H Warsaw","global_code":"9G427XMF+4H"},"rating":4.6,"reference":"ChIJSdfDY8TLHkcRGql6oR29uTY","types":["meal_takeaway","restaurant","food","point_of_interest","establishment"],"user_ratings_total":89},{"business_status":"OPERATIONAL","formatted_address":"Aleja Komisji Edukacji Narodowej 24, 02-722 Warszawa","geometry":{"location":{"lat":52.1341699,"lng":21.0638884},"viewport":{"northeast":{"lat":52.13542482989272,"lng":21.06499152989272},"southwest":{"lat":52.13272517010728,"lng":21.06229187010727}}},"icon":"https://maps.gstatic.com/mapfiles/place_api/icons/v1/png_71/restaurant-71.png","icon_background_color":"#FF9E67","icon_mask_base_uri":"https://maps.gstatic.com/mapfiles/place_api/icons/v2/restaurant_pinlet","name":"Basilia","opening_hours":{"open_now":true},"photos":[{"height":794,"html_attributions":["<a href=\"https://maps.google.com/maps/contrib/114067065185343506466\">Mateusz R</a>"],"photo_reference":"AeJbb3d2sLBHg7CfJORAnEgGR35aMWUjNivMUBiOVyb-oL2IyU7_wPMbhHnSiX7egnKrH4YLpunjAaX95f5WVlVf7z7-X7MNEtijnQR1z71Ok1fheeGkabgFW6wq9I-IiMCc2gO3cB3dZZNhcXfcUHx5SVa06CqbEHuooPUlivAAFoFTcNw","width":1171}],"place_id":"ChIJjackt54tGUcRX5M2OVfZhwQ","plus_code":{"compound_code":"43M7+MH Warsaw","global_code":"9G4343M7+MH"},"price_level":2,"rating":4.5,"reference":"ChIJjackt54tGUcRX5M2OVfZhwQ","types":["restaurant","food","point_of_interest","establishment"],"user_ratings_total":1546},{"business_status":"OPERATIONAL","formatted_address":"Złota 8, 00-019 Warszawa","geometry":{"location":{"lat":52.2331209,"lng":21.0110848},"viewport":{"northeast":{"lat":52.23436107989271,"lng":21.01248797989272},"southwest":{"lat":52.23166142010727,"lng":21.00978832010728}}},"icon":"https://maps.gstatic.com/mapfiles/place_api/icons/v1/png_71/restaurant-71.png","icon_background_color":"#FF9E67","icon_mask_base_uri":"https://maps.gstatic.com/mapfiles/place_api/icons/v2/restaurant_pinlet","name":"Włoski Strajk - Pizza Napoletana Warszawa","opening_hours":{"open_now":true},"photos":[{"height":3933,"html_attributions":["<a href=\"https://maps.google.com/maps/contrib/113916032411302695820\">A Google User</a>"],"photo_reference":"AeJbb3fnlfjA9Yf4SiW2CNXKTZjk3ith8_1pVSzcSIe0T044lNudqmAWmC2Hao0raM2-pa0bGq_6uVudcMvlERrMBoQZ2PZUe8RvDkQeI5SwX0cMsF61g19AJeD0B2nErZtlfI6j0cVT-kQjSUzqJVDiFkOiZwl6K5B5pL9Ji_av-59z-wf7","width":3147}],"place_id":"ChIJ2XzO137NHkcRg148R3v1AGk","plus_code":{"compound_code":"62M6+6C Warsaw","global_code":"9G4362M6+6C"},"price_level":2,"rating":4.5,"reference":"ChIJ2XzO137NHkcRg148R3v1AGk","types":["restaurant","food","point_of_interest","establishment"],"user_ratings_total":899},{"business_status":"OPERATIONAL","formatted_address":"Kwitnąca 6A, 01-926 Warszawa","geometry":{"location":{"lat":52.2740839,"lng":20.917165},"viewport":{"northeast":{"lat":52.27552152989272,"lng":20.91841002989272},"southwest":{"lat":52.27282187010728,"lng":20.91571037010728}}},"icon":"https://maps.gstatic.com/mapfiles/place_api/icons/v1/png_71/restaurant-71.png","icon_background_color":"#FF9E67","icon_mask_base_uri":"https://maps.gstatic.com/mapfiles/place_api/icons/v2/restaurant_pinlet","name":"Lolo Rosso","opening_hours":{"open_now":true},"photos":[{"height":1065,"html_attributions":["<a href=\"https://maps.google.com/maps/contrib/107828329789597484328\">Lolo Rosso</a>"],"photo_reference":"AeJbb3fIrwny9E7-kO8OaGzDFpkSdhnOHW5qKWfqG4FRTZi0mEMyXjujqJRC0KabwYl-35t0Q_wNiw1ms4Zs1HmPdhrbFN7iYZPF1lyAsGnUsDLCOspln02h_hiERFz0Hv8BRI8N28iV_EAM4Hf9jCM9oyXy1KY9iX-k3thV_yrQFzu3xa_Z","width":1598}],"place_id":"ChIJJ7LpADjKHkcRTwqcNI2HefQ","plus_code":{"compound_code":"7WF8+JV Warsaw","global_code":"9G427WF8+JV"},"price_level":2,"rating":4.5,"reference":"ChIJJ7LpADjKHkcRTwqcNI2HefQ","types":["meal_delivery","meal_takeaway","restaurant","food","point_of_interest","establishment"],"user_ratings_total":829},{"business_status":"OPERATIONAL","formatted_address":"lok uż. 2, Igańska 26, 04-083 Warszawa","geometry":{"location":{"lat":52.242706,"lng":21.0891999},"viewport":{"northeast":{"lat":52.24403092989272,"lng":21.09042047989272},"southwest":{"lat":52.24133127010728,"lng":21.08772082010728}}},"icon":"https://maps.gstatic.com/mapfiles/place_api/icons/v1/png_71/restaurant-71.png","icon_background_color":"#FF9E67","icon_mask_base_uri":"https://maps.gstatic.com/mapfiles/place_api/icons/v2/restaurant_pinlet","name":"Pizza i Pasta","opening_hours":{"open_now":true},"photos":[{"height":3006,"html_attributions":["<a href=\"https://maps.google.com/maps/contrib/109569968695291375686\">70MA52</a>"],"photo_reference":"AeJbb3emieLX2ZfOQ9zortExLZ0Am8GlmU3GOyYj9aivDMeqz0k8zkPVzAt2xOcv_BKaIFe_cn7EIbiaTrlTRnPLPyU8WyL_JXBhfSa6WNhmfJ2IAgJQYtJZnxrXdAg5K3wJL6aw1V9--9buwIb5m1uaiELcczjZS_wIkuwNhDF52GNQLAUs","width":5344}],"place_id":"ChIJO77RC-zNHkcRjtBcLefkPtI","plus_code":{"compound_code":"63VQ+3M Warsaw","global_code":"9G4363VQ+3M"},"price_level":2,"rating":4.5,"reference":"ChIJO77RC-zNHkcRjtBcLefkPtI","types":["restaurant","meal_delivery","meal_takeaway","point_of_interest","food","establishment"],"user_ratings_total":743},{"business_status":"OPERATIONAL","formatted_address":"Stanisława Staszica 1D/lok 1, 05-800 Pruszków","geometry":{"location":{"lat":52.1618833,"lng":20.7876456},"viewport":{"northeast":{"lat":52.16321522989273,"lng":20.78905702989272},"southwest":{"lat":52.16051557010729,"lng":20.78635737010728}}},"icon":"https://maps.gstatic.com/mapfiles/place_api/icons/v1/png_71/restaurant-71.png","icon_background_color":"#FF9E67","icon_mask_base_uri":"https://maps.gstatic.com/mapfiles/place_api/icons/v2/restaurant_pinlet","name":"Pizza 24 Pruszków","opening_hours":{"open_now":true},"photos":[{"height":1960,"html_attributions":["<a href=\"https://maps.google.com/maps/contrib/117950220294191627813\">Alexander Matuszelański</a>"],"photo_reference":"AeJbb3cdkAbdYV_gvpvTrNdwgzh-3XvMCpySD8Hwk0I52LiCSlOc7NTMywTjDUgKCG03DhUMmmHxvRJSJrXrt7x3YRY7U22sVVgy06Ye8awjK3JTpZu68I3FarkeoqKTspxqHtvf2h6c4YdjyomD1b-wQzV5icauoZfuKcxRZmVEgeXuGdEs","width":4032}],"place_id":"ChIJc7ejD-81GUcRGbv0na-4TBI","plus_code":{"compound_code":"5Q6Q+Q3 Pruszków","global_code":"9G425Q6Q+Q3"},"rating":4.5,"reference":"ChIJc7ejD-81GUcRGbv0na-4TBI","types":["meal_delivery","restaurant","point_of_interest","food","establishment"],"user_ratings_total":657},{"business_status":"OPERATIONAL","formatted_address":"Powsińska 18A, 02-920 Warszawa","geometry":{"location":{"lat":52.1813098,"lng":21.0702408},"viewport":{"northeast":{"lat":52.18260747989272,"lng":21.07147547989272},"southwest":{"lat":52.17990782010727,"lng":21.06877582010727}}},"icon":"https://maps.gstatic.com/mapfiles/place_api/icons/v1/png_71/restaurant-71.png","icon_background_color":"#FF9E67","icon_mask_base_uri":"https://maps.gstatic.com/mapfiles/place_api/icons/v2/restaurant_pinlet","name":"Segment Restauracja Pizzeria","opening_hours":{"open_now":true},"photos":[{"height":3025,"html_attributions":["<a href=\"https://maps.google.com/maps/contrib/114424631199093327179\">Segment Restauracja Pizzeria</a>"],"photo_reference":"AeJbb3fuLZQVtJoWkDePfVJ2equmooisYx3-CwcowGcTZxjOw5rWGDPzGPiVnkKRBbH4yK6K9CBN1VzMEBO423r1nIlUPPtQUgVcjFhd-nHopAxjaplHL2wHhqNoHJsakr3czCrlt4DLwLocksfaeu_WfRokNfs9GebMWZsQ9rGaiEFNclQq","width":3024}],"place_id":"ChIJx-QP26oyGUcReUx3-Srtb6I","plus_code":{"compound_code":"53JC+G3 Warsaw","global_code":"9G4353JC+G3"},"price_level":2,"rating":4.5,"reference":"ChIJx-QP26oyGUcReUx3-Srtb6I","types":["restaurant","food","point_of_interest","establishment"],"user_ratings_total":580},{"business_status":"OPERATIONAL","formatted_address":"ul, Stefana Starzyńskiego 4, 05-090 Dawidy","geometry":{"location":{"lat":52.1317608,"lng":20.979648},"viewport":{"northeast":{"lat":52.13311052989271,"lng":20.98116312989272},"southwest":{"lat":52.13041087010727,"lng":20.97846347010728}}},"icon":"https://maps.gstatic.com/mapfiles/place_api/icons/v1/png_71/restaurant-71.png","icon_background_color":"#FF9E67","icon_mask_base_uri":"https://maps.gstatic.com/mapfiles/place_api/icons/v2/restaurant_pinlet","name":"\"Picanto\" Pizza & Restaurant","opening_hours":{"open_now":true},"photos":[{"height":3120,"html_attributions":["<a href=\"https://maps.google.com/maps/contrib/105146249096498703047\">Adrian Zdziechowicz</a>"],"photo_reference":"AeJbb3evBBUNzuvi6zAeJzb6NKxBSE2rV9AdKDmv0N7F3JOXG-5CMmHM6tItYOVWNJcXvJ9E538-sHZHxy_A18YLdFmNvW8gX0HraDDyT6MHdXTDjmoPiDvq-yWFtQ5YBLKWiKxEMsr03iExHT2w6gkZVH5ILn3yw8UNdza_T5GOWavp4Tkx","width":4160}],"place_id":"ChIJnwcJ3jcyGUcR2Qi2OuzQeNo","plus_code":{"compound_code":"4XJH+PR Dawidy","global_code":"9G424XJH+PR"},"price_level":2,"rating":4.5,"reference":"ChIJnwcJ3jcyGUcR2Qi2OuzQeNo","types":["restaurant","food","point_of_interest","establishment"],"user_ratings_total":577},{"business_status":"OPERATIONAL","formatted_address":"Dobra 56/66 Wejście z rogu Lipowej i, Wybrzeże Kościuszkowskie, 00-920 Warszawa","geometry":{"location":{"lat":52.2425621,"lng":21.026288},"viewport":{"northeast":{"lat":52.24393872989272,"lng":21.02774947989272},"southwest":{"lat":52.24123907010728,"lng":21.02504982010728}}},"icon":"https://maps.gstatic.com/mapfiles/place_api/icons/v1/png_71/restaurant-71.png","icon_background_color":"#FF9E67","icon_mask_base_uri":"https://maps.gstatic.com/mapfiles/place_api/icons/v2/restaurant_pinlet","name":"Boscaiola Pizzeria","opening_hours":{"open_now":true},"photos":[{"height":3024,"html_attributions":["<a href=\"https://maps.google.com/maps/contrib/105223577658778309184\">Karel Moric</a>"],"photo_reference":"AeJbb3fyJMITwPOpb-el5AKpsPcoO9JbZ20VrivYrPT2NuDJKUsj9IqgTSMDkJnCMIg1hFZ94vLaIcif6UA6-1RdqApfCnksJkn5xMXleQ2qBdpXhLydHpzFiWkGob0Zr4OyvNOSKfOy_W1WFjyvpnQVdK9rAitSzx_FORJjMtGeQtpuLF0Y","width":4032}],"place_id":"ChIJeVVmeFzMHkcRb-mGBoK1_k8","plus_code":{"compound_code":"62VG+2G Warsaw","global_code":"9G4362VG+2G"},"price_level":2,"rating":4.4,"reference":"ChIJeVVmeFzMHkcRb-mGBoK1_k8","types":["restaurant","food","point_of_interest","establishment"],"user_ratings_total":1029},{"business_status":"OPERATIONAL","formatted_address":"Złota 65, 00-819 Warszawa","geometry":{"location":{"lat":52.2298802,"lng":20.9983514},"viewport":{"northeast":{"lat":52.23123907989272,"lng":20.99950932989272},"southwest":{"lat":52.22853942010728,"lng":20.99680967010728}}},"icon":"https://maps.gstatic.com/mapfiles/place_api/icons/v1/png_71/restaurant-71.png","icon_background_color":"#FF9E67","icon_mask_base_uri":"https://maps.gstatic.com/mapfiles/place_api/icons/v2/restaurant_pinlet","name":"Pizzeria Złota","opening_hours":{"open_now":true},"photos":[{"height":1908,"html_attributions":["<a href=\"https://maps.google.com/maps/contrib/114266951619368447866\">Piotr Pilżys</a>"],"photo_reference":"AeJbb3fULL3pFy9e-JCX32kJBMw5j5qzHBK_y2k_L_aGYJ5NMLVsUxk1tyTitRibWzsEu59HcLBVyU_3T_3hzAIdEThozPsMcx6MQKNLxOWexmwZcfhd1jFfx72Hu29s8WHkZVk468vMKqa_PwflUHuOtXazu3Y5XVY3aj0iLVJjZozllVLp","width":4032}],"place_id":"ChIJpyyYDo7MHkcRrAAgay5toys","plus_code":{"compound_code":"6XHX+X8 Warsaw","global_code":"9G426XHX+X8"},"price_level":2,"rating":4.4,"reference":"ChIJpyyYDo7MHkcRrAAgay5toys","types":["restaurant","food","point_of_interest","establishment"],"user_ratings_total":1012},{"business_status":"OPERATIONAL","formatted_address":"Zawiszy 14, 01-167 Warszawa","geometry":{"location":{"lat":52.2435276,"lng":20.9630171},"viewport":{"northeast":{"lat":52.24482602989271,"lng":20.96436972989272},"southwest":{"lat":52.24212637010727,"lng":20.96167007010728}}},"icon":"https://maps.gstatic.com/mapfiles/place_api/icons/v1/png_71/restaurant-71.png","icon_background_color":"#FF9E67","icon_mask_base_uri":"https://maps.gstatic.com/mapfiles/place_api/icons/v2/restaurant_pinlet","name":"Papryczka Pizza & Restaurant Makarony Pizza Wola","opening_hours":{"open_now":true},"photos":[{"height":2322,"html_attributions":["<a href=\"https://maps.google.com/maps/contrib/104136671284117738999\">Justyna Truszczyńska</a>"],"photo_reference":"AeJbb3dzJ5XOYnWd6M82te4hrzN5-yz_9DxC4tJB7nSxuUWKQpWACwhOcEbZqRLodexxdIr6h82ADwl4MpggglbdL_EGqXEIZDHmF3K6IMWoh_mPJMV6ucPBeURrOrNDJun7g-h-tuoUwmQ3gbRPGaXAhhclKZGAsvf9GDaXTWFxHHFGXno2","width":4128}],"place_id":"ChIJHYRgAnfLHkcRuUH6UNuZF8I","plus_code":{"compound_code":"6XV7+C6 Warsaw","global_code":"9G426XV7+C6"},"price_level":2,"rating":4.4,"reference":"ChIJHYRgAnfLHkcRuUH6UNuZF8I","types":["restaurant","food","point_of_interest","establishment"],"user_ratings_total":784},{"business_status":"OPERATIONAL","formatted_address":"Konstantego Ildefonsa Gałczyńskiego 3, 00-362 Warszawa","geometry":{"location":{"lat":52.2343546,"lng":21.019766},"viewport":{"northeast":{"lat":52.23571977989272,"lng":21.02118827989272},"southwest":{"lat":52.23302012010728,"lng":21.01848862010728}}},"icon":"https://maps.gstatic.com/mapfiles/place_api/icons/v1/png_71/restaurant-71.png","icon_background_color":"#FF9E67","icon_mask_base_uri":"https://maps.gstatic.com/mapfiles/place_api/icons/v2/restaurant_pinlet","name":"Doppio Cuore","opening_hours":{"open_now":true},"photos":[{"height":1836,"html_attributions":["<a href=\"https://maps.google.com/maps/contrib/103421554063810551375\">A Google User</a>"],"photo_reference":"AeJbb3eOHwHzCe43R3anqxJscbPNCBJPSb_JMyoxmxv6r9rh_0ZnxuC0_0cvWZwiQygrtGY5gIfXGgI65XtafpvmBUDFFjCX6U6AhxQLLwebRV_LBW5WeF_xN8SE6vNcMIYfuAGWqAb6v1OplZhPCzfRnZgChGaxrV9UaCIhYv-5HwQvl4Sp","width":3264}],"place_id":"ChIJ31Wg2PXMHkcRZ0GYNjSSMC0","plus_code":{"compound_code":"62M9+PW Warsaw","global_code":"9G4362M9+PW"},"price_level":2,"rating":4.4,"reference":"ChIJ31Wg2PXMHkcRZ0GYNjSSMC0","types":["bar","restaurant","food","point_of_interest","establishment"],"user_ratings_total":446},{"business_status":"OPERATIONAL","formatted_address":"Obywatelska 1/U9, 02-409 Warszawa","geometry":{"location":{"lat":52.2049015,"lng":20.8930964},"viewport":{"northeast":{"lat":52.20619607989272,"lng":20.89485422989272},"southwest":{"lat":52.20349642010728,"lng":20.89215457010728}}},"icon":"https://maps.gstatic.com/mapfiles/place_api/icons/v1/png_71/restaurant-71.png","icon_background_color":"#FF9E67","icon_mask_base_uri":"https://maps.gstatic.com/mapfiles/place_api/icons/v2/restaurant_pinlet","name":"Semola","opening_hours":{"open_now":true},"photos":[{"height":2736,"html_attributions":["<a href=\"https://maps.google.com/maps/contrib/103844438090029592677\">Pawel Serwa</a>"],"photo_reference":"AeJbb3d8bNV-wQMfaszRLC9WEslgZrEGC_t9oosLdd2-qrL86_w4TjOhp72qxR2w1gf1do0xMB2ZSbOO1azWPW6IAw7_Bufh-AUr2kchyBeFVYb89ChnHeg4U3mjilfSeG4taWqBF2pFs8iB9y7Rdse_VrdWIQ0UipcDcYWa-A0HK00klAjW","width":3648}],"place_id":"ChIJr6yvsvY1GUcRe8WBcyWwlBg","plus_code":{"compound_code":"6V3V+X6 Warsaw","global_code":"9G426V3V+X6"},"rating":4.4,"reference":"ChIJr6yvsvY1GUcRe8WBcyWwlBg","types":["restaurant","food","point_of_interest","establishment"],"user_ratings_total":378},{"business_status":"OPERATIONAL","formatted_address":"Pory 55, 02-757 Warszawa","geometry":{"location":{"lat":52.1838563,"lng":21.0440775},"viewport":{"northeast":{"lat":52.18521862989272,"lng":21.04556452989272},"southwest":{"lat":52.18251897010727,"lng":21.04286487010728}}},"icon":"https://maps.gstatic.com/mapfiles/place_api/icons/v1/png_71/restaurant-71.png","icon_background_color":"#FF9E67","icon_mask_base_uri":"https://maps.gstatic.com/mapfiles/place_api/icons/v2/restaurant_pinlet","name":"PIZZA WORKSHOP","opening_hours":{"open_now":true},"photos":[{"height":2237,"html_attributions":["<a href=\"https://maps.google.com/maps/contrib/117173877382831935695\">A Google User</a>"],"photo_reference":"AeJbb3dX4mWxlWyMpQ4bQQyUrtQeaYFheNkwv2fuwxFFXTiRmP_fwnfbBmkUjzv53jLEZRsRRe1EO9lZvBocev7Ngx9wCS59CWYEq7qw16Lv_ASmsuyesDTt4yezo9nU3NVLwanp3EQUWialQybuWQUO3UnqFyZ9KPxjqKHAKTFTiUBAO73J","width":3975}],"place_id":"ChIJcYOlcE0zGUcRWAyeuYyB7pw","plus_code":{"compound_code":"52MV+GJ Warsaw","global_code":"9G4352MV+GJ"},"price_level":2,"rating":4.4,"reference":"ChIJcYOlcE0zGUcRWAyeuYyB7pw","types":["restaurant","point_of_interest","food","establishment"],"user_ratings_total":339},{"business_status":"OPERATIONAL","formatted_address":"Haberbuscha i Schielego 2, 00-864 Warszawa","geometry":{"location":{"lat":52.2349336,"lng":20.9876588},"viewport":{"northeast":{"lat":52.23621267989273,"lng":20.98856482989272},"southwest":{"lat":52.23351302010729,"lng":20.98586517010728}}},"icon":"https://maps.gstatic.com/mapfiles/place_api/icons/v1/png_71/restaurant-71.png","icon_background_color":"#FF9E67","icon_mask_base_uri":"https://maps.gstatic.com/mapfiles/place_api/icons/v2/restaurant_pinlet","name":"Pizza Lecentano","opening_hours":{"open_now":true},"photos":[{"height":540,"html_attributions":["<a href=\"https://maps.google.com/maps/contrib/102728297963199608572\">A Google User</a>"],"photo_reference":"AeJbb3fyy0MNtVFTIyYj2y6H3UqCz4Z4AM3HAYrdQClRKVnavZZKhGvspTGtqFsoFgFQ-IIfRGZzFX_4ZhLf6gmq_1kDbUa7YRArM74KwDwBaYy48xFUwKEzqMwUfja5CrS9VuYOxX3dMq8-yzJIjkjRbyTOoMvfreSMNrJSUbUk6LAuR-Kn","width":812}],"place_id":"ChIJU5mUssDNHkcRwOBixghc7i0","plus_code":{"compound_code":"6XMQ+X3 Warsaw","global_code":"9G426XMQ+X3"},"rating":4.4,"reference":"ChIJU5mUssDNHkcRwOBixghc7i0","types":["restaurant","point_of_interest","food","establishment"],"user_ratings_total":321},{"business_status":"OPERATIONAL","formatted_address":"Kłobucka 8b, 02-699 Warszawa","geometry":{"location":{"lat":52.1628991,"lng":20.9943313},"viewport":{"northeast":{"lat":52.16424892989272,"lng":20.99568112989272},"southwest":{"lat":52.16154927010727,"lng":20.99298147010728}}},"icon":"https://maps.gstatic.com/mapfiles/place_api/icons/v1/png_71/restaurant-71.png","icon_background_color":"#FF9E67","icon_mask_base_uri":"https://maps.gstatic.com/mapfiles/place_api/icons/v2/restaurant_pinlet","name":"Włoski Strajk - Pizza Napoletana Kłobucka 8b","opening_hours":{"open_now":true},"photos":[{"height":1996,"html_attributions":["<a href=\"https://maps.google.com/maps/contrib/107820008478384682926\">A Google User</a>"],"photo_reference":"AeJbb3cmvjz4rOI2oj8uy7Cw7TcvPSf3MjoBm6Nzvf3Q4ZeMzaQkMAn-iUTyYyRnl4qtb8VzwweWMQvGzbqSrMcTBwGsEt4yVkqevhF7ceqUGSKYT5_N_a67sDn9vErQ3S0XT36YhDh1NFnVrOr12tMdI2jB78O_RM7t1sRYVSdD1ZNLQetH","width":3000}],"place_id":"ChIJ2ZHdrt8zGUcRBMGdX5qcAD0","plus_code":{"compound_code":"5X7V+5P Warsaw","global_code":"9G425X7V+5P"},"rating":4.4,"reference":"ChIJ2ZHdrt8zGUcRBMGdX5qcAD0","types":["restaurant","food","point_of_interest","establishment"],"user_ratings_total":113},{"business_status":"OPERATIONAL","formatted_address":"1 Sierpnia 46, 02-134 Warszawa","geometry":{"location":{"lat":52.1958909,"lng":20.9638173},"viewport":{"northeast":{"lat":52.19727232989272,"lng":20.96501362989272},"southwest":{"lat":52.19457267010728,"lng":20.96231397010728}}},"icon":"https://maps.gstatic.com/mapfiles/place_api/icons/v1/png_71/restaurant-71.png","icon_background_color":"#FF9E67","icon_mask_base_uri":"https://maps.gstatic.com/mapfiles/place_api/icons/v2/restaurant_pinlet","name":"Piccola Italia","opening_hours":{"open_now":true},"photos":[{"height":1365,"html_attributions":["<a href=\"https://maps.google.com/maps/contrib/105036628805368111317\">Piccola Italia</a>"],"photo_reference":"AeJbb3dma9PAtVKvvHXvmw_8FG0Va0A0CCPEk3Sm1ZQRsBtmCKT3EpyGg1fuD1tJBQa2qhwo_fyOC9Rcb21Hq9xrfY-nq8KbsQGskwraGEER3zDaDhSljZdQln3oun98Ld3EhGzN9j_D_7ZGz1R8mMj5R9hRj6bi5M0ed9xqvgh1DbztTHso","width":2048}],"place_id":"ChIJo7sXBE4zGUcRIsyIR9CshUE","plus_code":{"compound_code":"5XW7+9G Warsaw","global_code":"9G425XW7+9G"},"price_level":2,"rating":4.3,"reference":"ChIJo7sXBE4zGUcRIsyIR9CshUE","types":["night_club","bar","restaurant","point_of_interest","food","establishment"],"user_ratings_total":1348},{"business_status":"OPERATIONAL","formatted_address":"Jana Kilińskiego 1, 00-257 Warszawa","geometry":{"location":{"lat":52.2492403,"lng":21.0091613},"viewport":{"northeast":{"lat":52.25063042989272,"lng":21.01054522989272},"southwest":{"lat":52.24793077010728,"lng":21.00784557010728}}},"icon":"https://maps.gstatic.com/mapfiles/place_api/icons/v1/png_71/restaurant-71.png","icon_background_color":"#FF9E67","icon_mask_base_uri":"https://maps.gstatic.com/mapfiles/place_api/icons/v2/restaurant_pinlet","name":"Pizzeria UFO","opening_hours":{"open_now":true},"photos":[{"height":3472,"html_attributions":["<a href=\"https://maps.google.com/maps/contrib/105949933112124671949\">embayment</a>"],"photo_reference":"AeJbb3eypvbAnVMNKA3Ojocnshxp7RsguBr9PsD82Hil72sT0qV56BQZfAjOjPyQRLedED6F7q8o_ieUwizk3zFiWF3uXJFU3NDzEthELZgkEoZUi2hoUCnDKalHpc9Q10W0DnLSBI9MWtAygOiPV2hlNKMwkGOlQ9xB49q1iFby17uoUSmi","width":4624}],"place_id":"ChIJ_5K5h2_MHkcRpfy2X24DmXc","plus_code":{"compound_code":"62X5+MM Warsaw","global_code":"9G4362X5+MM"},"price_level":2,"rating":4.3,"reference":"ChIJ_5K5h2_MHkcRpfy2X24DmXc","types":["restaurant","point_of_interest","food","establishment"],"user_ratings_total":727},{"business_status":"OPERATIONAL","formatted_address":"Przemysłowa 31/33, 00-450 Warszawa","geometry":{"location":{"lat":52.2227706,"lng":21.0367254},"viewport":{"northeast":{"lat":52.22419787989273,"lng":21.03805912989272},"southwest":{"lat":52.22149822010728,"lng":21.03535947010728}}},"icon":"https://maps.gstatic.com/mapfiles/place_api/icons/v1/png_71/restaurant-71.png","icon_background_color":"#FF9E67","icon_mask_base_uri":"https://maps.gstatic.com/mapfiles/place_api/icons/v2/restaurant_pinlet","name":"Da Gusto","opening_hours":{"open_now":true},"photos":[{"height":3024,"html_attributions":["<a href=\"https://maps.google.com/maps/contrib/109312866657268714085\">Troudy Jason</a>"],"photo_reference":"AeJbb3cs97CYQrDPDGXS5QQ34JISA24Mtk7j6mHhH4Bp7BIrdTOncbuze5JVrWHjrMWOfUmgb960pyAyBHs9pqZld8jH5F1AhbDQNPEYSVa6rEqWvfqupXNGOGxW1gGfI4Fi59GJkNFb6CWaqozVxs_mCLrL2FAsg5rF9nc8fttiDQlPwF2z","width":4032}],"place_id":"ChIJBdM0X_3MHkcRhdSeVPuz4_c","plus_code":{"compound_code":"62FP+4M Warsaw","global_code":"9G4362FP+4M"},"price_level":2,"rating":4.3,"reference":"ChIJBdM0X_3MHkcRhdSeVPuz4_c","types":["meal_delivery","meal_takeaway","store","restaurant","point_of_interest","food","establishment"],"user_ratings_total":713},{"business_status":"OPERATIONAL","formatted_address":"Nowoursynowska 143 J, 02-776 Warszawa","geometry":{"location":{"lat":52.1517703,"lng":21.0591009},"viewport":{"northeast":{"lat":52.15316662989272,"lng":21.06054717989272},"southwest":{"lat":52.15046697010727,"lng":21.05784752010728}}},"icon":"https://maps.gstatic.com/mapfiles/place_api/icons/v1/png_71/restaurant-71.png","icon_background_color":"#FF9E67","icon_mask_base_uri":"https://maps.gstatic.com/mapfiles/place_api/icons/v2/restaurant_pinlet","name":"Nowoursynowska","opening_hours":{"open_now":true},"photos":[{"height":4000,"html_attributions":["<a href=\"https://maps.google.com/maps/contrib/114217950119386150707\">A Google User</a>"],"photo_reference":"AeJbb3ejs9u39FKBW6Ao10kDSWxpiDGB9zUMWgKKG22xqJGvOYSZfuRLAoV58myG1ARJoSmIYItC5_dMzNY_ZnY2TO_9YS0FqHL-jj-yhszuMPDpAZtAzWhOFO_Fl5itY_7oCA72oMT6_qok7_PMMPBcqXED0p4j_VAM0R9KvWMDs-2qmPnz","width":2250}],"place_id":"ChIJr5Z1pWQtGUcRS7kOVaJm-HI","plus_code":{"compound_code":"5325+PJ Warsaw","global_code":"9G435325+PJ"},"price_level":2,"rating":4.3,"reference":"ChIJr5Z1pWQtGUcRS7kOVaJm-HI","types":["restaurant","meal_delivery","meal_takeaway","food","point_of_interest","establishment"],"user_ratings_total":686},{"business_status":"OPERATIONAL","formatted_address":"1 Praskiego Pułku 2, 05-075 Warszawa","geometry":{"location":{"lat":52.25370179999999,"lng":21.223818},"viewport":{"northeast":{"lat":52.25510217989272,"lng":21.22515967989272},"southwest":{"lat":52.25240252010727,"lng":21.22246002010728}}},"icon":"https://maps.gstatic.com/mapfiles/place_api/icons/v1/png_71/restaurant-71.png","icon_background_color":"#FF9E67","icon_mask_base_uri":"https://maps.gstatic.com/mapfiles/place_api/icons/v2/restaurant_pinlet","name":"Pizza \"Klimat\"","opening_hours":{"open_now":true},"photos":[{"height":7000,"html_attributions":["<a href=\"https://maps.google.com/maps/contrib/100702228504273314502\">Karolina Kuchta</a>"],"photo_reference":"AeJbb3cL68ePLN-ZC3MgCgn-704tBPqASpjPPP93ljnrL3trfaSBMnvQ8NVgJUTktkWzrUma2yE8DCenXl7KYj2C0BAao69adHn036tAw9DnKsRZblmopb2BQXCbTFCu0Wo9KTjWkjj_D5j-zDasnM7Qdi76HWmIZO6nOn3nnzGCcREe2sHR","width":4667}],"place_id":"ChIJI1nAfm_RHkcRYaSSdJjpz7s","plus_code":{"compound_code":"763F+FG Warsaw","global_code":"9G43763F+FG"},"price_level":1,"rating":4.3,"reference":"ChIJI1nAfm_RHkcRYaSSdJjpz7s","types":["restaurant","meal_delivery","bar","point_of_interest","food","establishment"],"user_ratings_total":583},{"business_status":"OPERATIONAL","formatted_address":"Kobiałka 48 a, 03-044 Warszawa","geometry":{"location":{"lat":52.3605811,"lng":21.0457209},"viewport":{"northeast":{"lat":52.36211357989271,"lng":21.04698852989272},"southwest":{"lat":52.35941392010727,"lng":21.04428887010728}}},"icon":"https://maps.gstatic.com/mapfiles/place_api/icons/v1/png_71/restaurant-71.png","icon_background_color":"#FF9E67","icon_mask_base_uri":"https://maps.gstatic.com/mapfiles/place_api/icons/v2/restaurant_pinlet","name":"Szkutnia Pizzeria Restauracja","opening_hours":{"open_now":true},"photos":[{"height":4312,"html_attributions":["<a href=\"https://maps.google.com/maps/contrib/108779931470916867895\">Jan Gorczyca</a>"],"photo_reference":"AeJbb3d4EDKBCwr4oZGSBRefQEEDQ4hgbQ7CGdKL2GM-f91qukpqRsomr8SB5JnUsuDfnZDr0ss24jxNoHqxwJkgdpnRb3BpANhaVDfKxuzKx3qMfMsVn3BYIbv2FRy6XRNt_paOkT_JuO8I5qBz-nYTSMqEtlV7g2JorkAjebvC7Cevz-Mf","width":5760}],"place_id":"ChIJcyCqpqHIHkcRXucMiZ7oVDo","plus_code":{"compound_code":"926W+67 Warsaw","global_code":"9G43926W+67"},"price_level":2,"rating":4.3,"reference":"ChIJcyCqpqHIHkcRXucMiZ7oVDo","types":["restaurant","food","point_of_interest","establishment"],"user_ratings_total":489},{"business_status":"OPERATIONAL","formatted_address":"Lwowska 20A, 05-819 Piastów","geometry":{"location":{"lat":52.182756,"lng":20.8415867},"viewport":{"northeast":{"lat":52.18406857989272,"lng":20.84292017989272},"southwest":{"lat":52.18136892010727,"lng":20.84022052010728}}},"icon":"https://maps.gstatic.com/mapfiles/place_api/icons/v1/png_71/restaurant-71.png","icon_background_color":"#FF9E67","icon_mask_base_uri":"https://maps.gstatic.com/mapfiles/place_api/icons/v2/restaurant_pinlet","name":"Palermo Pizza & Pasta","opening_hours":{"open_now":true},"photos":[{"height":3244,"html_attributions":["<a href=\"https://maps.google.com/maps/contrib/108480196689460102144\">A Google User</a>"],"photo_reference":"AeJbb3f2HZ6N4ZJNZg6HeR9DdW9wZYEOK20t2OVIDHGjn3G4ggCtwWOFrOjvL7xT-Aksj9L-sV-F545F9_kJZRHXw3SJSZG0UDIlqbAPnsQK186pgL7bmBOqQ5GzZjDr9jDuhXG81y83BvZZVoBcVjmOKEIwuoIsTcSjuA7CL_qEu0uMQK0g","width":5388}],"place_id":"ChIJ7S5Yngk1GUcRLFFuUw0D0cU","plus_code":{"compound_code":"5RMR+4J Piastów","global_code":"9G425RMR+4J"},"price_level":2,"rating":4.3,"reference":"ChIJ7S5Yngk1GUcRLFFuUw0D0cU","types":["bar","restaurant","food","point_of_interest","establishment"],"user_ratings_total":351},{"business_status":"OPERATIONAL","formatted_address":"Wilhelma Konrada Roentgena 22, 02-781 Warszawa","geometry":{"location":{"lat":52.1456646,"lng":21.0262643},"viewport":{"northeast":{"lat":52.14691317989272,"lng":21.02779602989272},"southwest":{"lat":52.14421352010728,"lng":21.02509637010728}}},"icon":"https://maps.gstatic.com/mapfiles/place_api/icons/v1/png_71/restaurant-71.png","icon_background_color":"#FF9E67","icon_mask_base_uri":"https://maps.gstatic.com/mapfiles/place_api/icons/v2/restaurant_pinlet","name":"Bazyliana","opening_hours":{"open_now":true},"photos":[{"height":1152,"html_attributions":["<a href=\"https://maps.google.com/maps/contrib/112271513782984065393\">Mateusz Sikorski</a>"],"photo_reference":"AeJbb3dXad3ebhTq_hfZFUBvyQVjA92lgRvZHlLvsvaPJPmNhx0LkIqr4T5SQWO4yeApefg6cd4G9mYtXt9gAVkvtNUPDbjEfZGQ6AqgBLxQzluXUW-bdSRkaBTsdxIHqubJCUgnjg3-9DH0iBZ0FRDvsaD-LCY_GA3dsebwd6Lx38uTJClu","width":2048}],"place_id":"ChIJqW54ZHwtGUcRB62w3GwwkjI","plus_code":{"compound_code":"42WG+7G Warsaw","global_code":"9G4342WG+7G"},"price_level":1,"rating":4.3,"reference":"ChIJqW54ZHwtGUcRB62w3GwwkjI","types":["restaurant","point_of_interest","food","establishment"],"user_ratings_total":169},{"business_status":"OPERATIONAL","formatted_address":"Radiowa 14, 01-485 Warszawa","geometry":{"location":{"lat":52.2496995,"lng":20.9200266},"viewport":{"northeast":{"lat":52.25096487989273,"lng":20.92147242989272},"southwest":{"lat":52.24826522010729,"lng":20.91877277010728}}},"icon":"https://maps.gstatic.com/mapfiles/place_api/icons/v1/png_71/restaurant-71.png","icon_background_color":"#FF9E67","icon_mask_base_uri":"https://maps.gstatic.com/mapfiles/place_api/icons/v2/restaurant_pinlet","name":"Hallo Pizza Bemowo","opening_hours":{"open_now":true},"photos":[{"height":1333,"html_attributions":["<a href=\"https://maps.google.com/maps/contrib/112432597998546701648\">A Google User</a>"],"photo_reference":"AeJbb3cIwmS-6v9BR7a7gVpduVFkx9ndeYVi8EGBnwglWRb0m4IraljYy8fPtAvjfTfASXJZs5v9CDXqDas9Vjp_o6suS_at1bY5GE8tW1jJFOhxrmFUlZzFYPS_cOj0mVYWsVt_DI7fNIYO9v4pCfG49C2oj9t8SXEw7YXvgDMKkUa5Zwyx","width":2000}],"place_id":"ChIJSzyBkMnLHkcRPuiBWnSTUmc","plus_code":{"compound_code":"6WXC+V2 Warsaw","global_code":"9G426WXC+V2"},"rating":4.3,"reference":"ChIJSzyBkMnLHkcRPuiBWnSTUmc","types":["restaurant","point_of_interest","food","establishment"],"user_ratings_total":151},{"business_status":"OPERATIONAL","formatted_address":"al. Jana Pawła II 45A, 01-008 Warszawa","geometry":{"location":{"lat":52.2438541,"lng":20.9913124},"viewport":{"northeast":{"lat":52.24524892989273,"lng":20.99279372989272},"southwest":{"lat":52.24254927010729,"lng":20.99009407010728}}},"icon":"https://maps.gstatic.com/mapfiles/place_api/icons/v1/png_71/restaurant-71.png","icon_background_color":"#FF9E67","icon_mask_base_uri":"https://maps.gstatic.com/mapfiles/place_api/icons/v2/restaurant_pinlet","name":"Chicago's Pizza Muranów Wola Śródmieście Ochota Powiśle Centrum Żoliborz","opening_hours":{"open_now":true},"photos":[{"height":1600,"html_attributions":["<a href=\"https://maps.google.com/maps/contrib/107666008167859704969\">A Google User</a>"],"photo_reference":"AeJbb3cgNv4KGIcrQsUCZ_UhSZ_oRJbku4E9egUuO6Kfbj9kflpysfHma5Ra1Bl3PKmi38vNBwGSQ02iukdpTceqENrXrL7qoQqsMZncKS4VB8dl4ZEayxQ9n3hRIfAc6AB3OIFICpScpNruEJqbd0iOyFT7-EX_dgmRDZgvJdzHhRqR8lEE","width":2400}],"place_id":"ChIJdSSnimbNHkcREK--TaQNfvw","plus_code":{"compound_code":"6XVR+GG Warsaw","global_code":"9G426XVR+GG"},"rating":4.3,"reference":"ChIJdSSnimbNHkcREK--TaQNfvw","types":["meal_takeaway","restaurant","food","point_of_interest","establishment"],"user_ratings_total":110},{"business_status":"OPERATIONAL","formatted_address":"Wolska 50 A/7, 01-187 Warszawa","geometry":{"location":{"lat":52.23427299999999,"lng":20.9681244},"viewport":{"northeast":{"lat":52.23559002989272,"lng":20.96917297989272},"southwest":{"lat":52.23289037010727,"lng":20.96647332010728}}},"icon":"https://maps.gstatic.com/mapfiles/place_api/icons/v1/png_71/restaurant-71.png","icon_background_color":"#FF9E67","icon_mask_base_uri":"https://maps.gstatic.com/mapfiles/place_api/icons/v2/restaurant_pinlet","name":"Grandfather's Pizzeria","opening_hours":{"open_now":true},"photos":[{"height":2322,"html_attributions":["<a href=\"https://maps.google.com/maps/contrib/115141672402738533414\">Marcin Orski</a>"],"photo_reference":"AeJbb3c8pyWnx0ETvc2twsXO4BgzkTUz_A2jPzt9YWXUiOjGn3Zr3MP4pt3rRHFQdsD47s3pZOdiR6zSPcPNWoJ0Qsfgvzkwu6NxKh-zMC9nR0g98zjNtAIztg0_nP7St4AVWHF8OjLLnsELnSKT7QHAB76nw7oKRGsY2dOh-1g1urnyUI9d","width":4128}],"place_id":"ChIJxeS6tHzLHkcRTxlUekMNCeU","plus_code":{"compound_code":"6XM9+P6 Warsaw","global_code":"9G426XM9+P6"},"price_level":1,"rating":4.2,"reference":"ChIJxeS6tHzLHkcRTxlUekMNCeU","types":["restaurant","point_of_interest","food","establishment"],"user_ratings_total":1104},{"business_status":"OPERATIONAL","formatted_address":"Ząbkowska 5, 03-736 Warszawa","geometry":{"location":{"lat":52.2529493,"lng":21.0390727},"viewport":{"northeast":{"lat":52.25425622989273,"lng":21.04046942989272},"southwest":{"lat":52.25155657010728,"lng":21.03776977010728}}},"icon":"https://maps.gstatic.com/mapfiles/place_api/icons/v1/png_71/restaurant-71.png","icon_background_color":"#FF9E67","icon_mask_base_uri":"https://maps.gstatic.com/mapfiles/place_api/icons/v2/restaurant_pinlet","name":"Pausa Włoska","opening_hours":{"open_now":true},"photos":[{"height":3120,"html_attributions":["<a href=\"https://maps.google.com/maps/contrib/117339864437768557329\">Jeremi Kwiatkowski</a>"],"photo_reference":"AeJbb3dbj0v8Y--F8we7p8A_iKfVJb_9eQ1xoEtZxTaiqdWmcEX3neVZhPg7l81G6WmFpZU6nwwVH2s8uonQ65E1Nv3wBR03rTVoaBXedf_WFm2xD3AkvrNWKl_rFlYV6IAyTsdAws6tA5i8012BbxTrwmzb9BYgiGBCtrLPeoNPWcj_ZQQ3","width":4160}],"place_id":"ChIJfwFTCkfMHkcRpyPs9GEeXlw","plus_code":{"compound_code":"723Q+5J Warsaw","global_code":"9G43723Q+5J"},"price_level":2,"rating":4.2,"reference":"ChIJfwFTCkfMHkcRpyPs9GEeXlw","types":["meal_delivery","meal_takeaway","store","restaurant","point_of_interest","food","establishment"],"user_ratings_total":981},{"business_status":"OPERATIONAL","formatted_address":"Powstańców Śląskich 46, 01-381 Warszawa","geometry":{"location":{"lat":52.2322864,"lng":20.9153264},"viewport":{"northeast":{"lat":52.23361132989272,"lng":20.91651897989273},"southwest":{"lat":52.23091167010728,"lng":20.91381932010728}}},"icon":"https://maps.gstatic.com/mapfiles/place_api/icons/v1/png_71/restaurant-71.png","icon_background_color":"#FF9E67","icon_mask_base_uri":"https://maps.gstatic.com/mapfiles/place_api/icons/v2/restaurant_pinlet","name":"Arabella","opening_hours":{"open_now":true},"photos":[{"height":2240,"html_attributions":["<a href=\"https://maps.google.com/maps/contrib/105039423095760007207\">Malik Muslimov</a>"],"photo_reference":"AeJbb3f7vx2QWBreCEEaogqB7oyn6DOpIbtrn9Hn6yQcaiqTZ8vPY6ZkBP0pcJNcQK1zogwIe4TEIMP4rApcsY_D2cp4lwd0D6Qruk4CH1CsCnmT6wa7-gmd6tfpoZruwqdHnHEvB6MzG06vrWmNWAXqmjdM5u58arQkkp9p2QDJcQsdHXs1","width":3968}],"place_id":"ChIJpc8oEiLLHkcRDm7UaWkw9Dg","plus_code":{"compound_code":"6WJ8+W4 Warsaw","global_code":"9G426WJ8+W4"},"price_level":2,"rating":4.2,"reference":"ChIJpc8oEiLLHkcRDm7UaWkw9Dg","types":["restaurant","food","point_of_interest","establishment"],"user_ratings_total":626},{"business_status":"OPERATIONAL","formatted_address":"Karola Dickensa 17A, 02-382 Warszawa","geometry":{"location":{"lat":52.2065744,"lng":20.9690809},"viewport":{"northeast":{"lat":52.20798527989272,"lng":20.97048782989272},"southwest":{"lat":52.20528562010728,"lng":20.96778817010728}}},"icon":"https://maps.gstatic.com/mapfiles/place_api/icons/v1/png_71/restaurant-71.png","icon_background_color":"#FF9E67","icon_mask_base_uri":"https://maps.gstatic.com/mapfiles/place_api/icons/v2/restaurant_pinlet","name":"Pizzeria na Dickensa","opening_hours":{"open_now":true},"photos":[{"height":673,"html_attributions":["<a href=\"https://maps.google.com/maps/contrib/104158280914919559990\">A Google User</a>"],"photo_reference":"AeJbb3cLcnTD9WgZgO6vPSRsuw-aGPCxPbaP0atM2q-sUK_iV2tQtzQ2SyJZQHsse52dALYItEVIkgZcITZQuGcj4ZtPIHckGI_Nh3q0d6IlmIwc98Gw7hjg4Nt_hvuIguWJizf92oqq7XeARIcYui11vboe5Su_oMKP2njQsU2mjs_qYEuj","width":1024}],"place_id":"ChIJm8Tzda7MHkcRrDKon45yass","plus_code":{"compound_code":"6X49+JJ Warsaw","global_code":"9G426X49+JJ"},"price_level":1,"rating":4.2,"reference":"ChIJm8Tzda7MHkcRrDKon45yass","types":["bar","restaurant","food","store","point_of_interest","establishment"],"user_ratings_total":578},{"business_status":"OPERATIONAL","formatted_address":"Świętokrzyska 32, 00-116 Warszawa","geometry":{"location":{"lat":52.23452899999999,"lng":21.0038},"viewport":{"northeast":{"lat":52.23596597989272,"lng":21.00513657989272},"southwest":{"lat":52.23326632010727,"lng":21.00243692010728}}},"icon":"https://maps.gstatic.com/mapfiles/place_api/icons/v1/png_71/restaurant-71.png","icon_background_color":"#FF9E67","icon_mask_base_uri":"https://maps.gstatic.com/mapfiles/place_api/icons/v2/restaurant_pinlet","name":"Mamma Mia never closed 24/365","opening_hours":{"open_now":true},"photos":[{"height":4032,"html_attributions":["<a href=\"https://maps.google.com/maps/contrib/100923241201702489895\">Maciej Sobolewski</a>"],"photo_reference":"AeJbb3erheGPYHD6sR-VRl2uVzVSno5Ggsib-hSXt1Xs4CG9jChfNcPURBqMH4aFARY9dGA12FPyL6WyjoddbQjKT1Xl-aXg1HMdPu1b-W2wfJuD4LRU1rEhvgyNwOySNC8NmBDaoh3a0Hmu84cU_YHKYFr2aN5RgWixLlvchMIr1Y-OlIpW","width":3024}],"place_id":"ChIJ42gR64vMHkcRmji1Df7LfoU","plus_code":{"compound_code":"62M3+RG Warsaw","global_code":"9G4362M3+RG"},"price_level":2,"rating":4.1,"reference":"ChIJ42gR64vMHkcRmji1Df7LfoU","types":["restaurant","food","point_of_interest","establishment"],"user_ratings_total":2338},{"business_status":"OPERATIONAL","formatted_address":"Zygmunta Krasińskiego 10, 01-618 Warszawa","geometry":{"location":{"lat":52.2697473,"lng":20.9885541},"viewport":{"northeast":{"lat":52.27080802989273,"lng":20.98924127989272},"southwest":{"lat":52.26810837010728,"lng":20.98654162010728}}},"icon":"https://maps.gstatic.com/mapfiles/place_api/icons/v1/png_71/restaurant-71.png","icon_background_color":"#FF9E67","icon_mask_base_uri":"https://maps.gstatic.com/mapfiles/place_api/icons/v2/restaurant_pinlet","name":"Pepperoni Ristorante Pizzeria w Warszawie","opening_hours":{"open_now":true},"photos":[{"height":2730,"html_attributions":["<a href=\"https://maps.google.com/maps/contrib/111112260759929685589\">Nina Lipa</a>"],"photo_reference":"AeJbb3f64GsnhRnYeUiATj39rBUdzBWvObe5e2HgLhXYbC990xmU-jz2mgOl0Mymp6DzeVt9cCQNVkgmxuInpSIwjbV_HpqlKiTVwkpH5FdkZpDKfq79ZnRi7urNiTCPJTBLghaCxlPksEU5Dgi6mabBJTqWgSllnApmnxH6bItOEaU-WtSB","width":4096}],"place_id":"ChIJj0YoHfLLHkcRZ1QfdCjmZIE","plus_code":{"compound_code":"7X9Q+VC Warsaw","global_code":"9G427X9Q+VC"},"price_level":2,"rating":4.1,"reference":"ChIJj0YoHfLLHkcRZ1QfdCjmZIE","types":["restaurant","food","point_of_interest","establishment"],"user_ratings_total":1535},{"business_status":"OPERATIONAL","formatted_address":"gen. Stanisława Skalskiego 3, 03-982 Warszawa","geometry":{"location":{"lat":52.22948640000001,"lng":21.0788006},"viewport":{"northeast":{"lat":52.23097167989272,"lng":21.08026322989272},"southwest":{"lat":52.22827202010728,"lng":21.07756357010727}}},"icon":"https://maps.gstatic.com/mapfiles/place_api/icons/v1/png_71/restaurant-71.png","icon_background_color":"#FF9E67","icon_mask_base_uri":"https://maps.gstatic.com/mapfiles/place_api/icons/v2/restaurant_pinlet","name":"Pizzeria z Nowolipek","opening_hours":{"open_now":true},"photos":[{"height":3264,"html_attributions":["<a href=\"https://maps.google.com/maps/contrib/114843724176708399525\">Maciej Lasota</a>"],"photo_reference":"AeJbb3fBor6WtzJ2xs0RTXas1iZ5QGdXA6A79LdMTym65oQgu3YX7Fws5hGv_wVG3-m9f-TsVkb8A-ezuV9iXhoYP-57Vw0xXdTLhfD1h5E7rcuBzOM-05NpSpAWmBQfBTRTjdTUYmjzUvIJRiB7RRBpYaA40YaJGY3msr0173qamVG8ugGA","width":4896}],"place_id":"ChIJ6VLQRZ_NHkcRPtWxJ9HcSRk","plus_code":{"compound_code":"63HH+QG Warsaw","global_code":"9G4363HH+QG"},"price_level":2,"rating":4.1,"reference":"ChIJ6VLQRZ_NHkcRPtWxJ9HcSRk","types":["meal_delivery","meal_takeaway","restaurant","food","point_of_interest","establishment"],"user_ratings_total":735},{"business_status":"OPERATIONAL","formatted_address":"Odkryta 4, 03-140 Warszawa","geometry":{"location":{"lat":52.3248088,"lng":20.9383985},"viewport":{"northeast":{"lat":52.32610442989272,"lng":20.93972727989273},"southwest":{"lat":52.32340477010728,"lng":20.93702762010728}}},"icon":"https://maps.gstatic.com/mapfiles/place_api/icons/v1/png_71/restaurant-71.png","icon_background_color":"#FF9E67","icon_mask_base_uri":"https://maps.gstatic.com/mapfiles/place_api/icons/v2/restaurant_pinlet","name":"FABRYKA PIZZY","opening_hours":{"open_now":true},"photos":[{"height":600,"html_attributions":["<a href=\"https://maps.google.com/maps/contrib/110216717822100406958\">A Google User</a>"],"photo_reference":"AeJbb3fd5vlDCtvS7YYicSts9pmcE4BxEwZcZmZ2jwzNco3UhNG-bkwnONsZs06Eb5q5yDog5GDR64ftLlHGfkfBbVpN5oUFY8yUHny-BYq2Hjvvp-HccZwkgVqgE0SkSqJgSUi8Fvj3EtPxws3nJJY1DTZxC7LPPUpxrgVQw7LJfn3yNvD1","width":900}],"place_id":"ChIJ4YtH3sbJHkcRCP7TbNVTHgg","plus_code":{"compound_code":"8WFQ+W9 Warsaw","global_code":"9G428WFQ+W9"},"price_level":2,"rating":4.1,"reference":"ChIJ4YtH3sbJHkcRCP7TbNVTHgg","types":["meal_delivery","meal_takeaway","restaurant","food","point_of_interest","establishment"],"user_ratings_total":595},{"business_status":"OPERATIONAL","formatted_address":"Zgoda 8e, 05-500 Piaseczno","geometry":{"location":{"lat":52.0753875,"lng":21.029732},"viewport":{"northeast":{"lat":52.07672717989271,"lng":21.03090812989272},"southwest":{"lat":52.07402752010727,"lng":21.02820847010728}}},"icon":"https://maps.gstatic.com/mapfiles/place_api/icons/v1/png_71/restaurant-71.png","icon_background_color":"#FF9E67","icon_mask_base_uri":"https://maps.gstatic.com/mapfiles/place_api/icons/v2/restaurant_pinlet","name":"La Favola Pizzeria & Ristorante","opening_hours":{"open_now":true},"photos":[{"height":3096,"html_attributions":["<a href=\"https://maps.google.com/maps/contrib/111165769370973946270\">Marek Kubasik</a>"],"photo_reference":"AeJbb3cMDZxZhFD-dpLEy-lyDmZiCZh8f4claNo4gU3oaEK6xIiQTsaFYdK0IaVwW8LAW1o4doOcLrrzAovbZ2JrsZtCboRv67r7Kd0JkOW9zsnhGklO7NczTgclC9-BL9rRGsghF-yTCcU6vrq3CSe8Jl_2Meu1ICxr7qyJxyGBBc_HOOnr","width":5504}],"place_id":"ChIJwWMRm63MHkcRnzFH3r0RKyI","plus_code":{"compound_code":"32GH+5V Piaseczno","global_code":"9G4332GH+5V"},"price_level":2,"rating":4.1,"reference":"ChIJwWMRm63MHkcRnzFH3r0RKyI","types":["meal_delivery","meal_takeaway","restaurant","food","store","point_of_interest","establishment"],"user_ratings_total":560},{"business_status":"OPERATIONAL","formatted_address":"Złota 7, 00-019 Warszawa","geometry":{"location":{"lat":52.2328291,"lng":21.011891},"viewport":{"northeast":{"lat":52.23422182989272,"lng":21.01321227989272},"southwest":{"lat":52.23152217010728,"lng":21.01051262010728}}},"icon":"https://maps.gstatic.com/mapfiles/place_api/icons/v1/png_71/restaurant-71.png","icon_background_color":"#FF9E67","icon_mask_base_uri":"https://maps.gstatic.com/mapfiles/place_api/icons/v2/restaurant_pinlet","name":"Bite Żółwie - Pizza","opening_hours":{"open_now":true},"photos":[{"height":768,"html_attributions":["<a href=\"https://maps.google.com/maps/contrib/114953493001304979094\">A Google User</a>"],"photo_reference":"AeJbb3el303RCNFle486_q1_2ydnT6iVBrRPY4NKgC6Ar5MRurXaSvMOiHKtUu7Wpjxgj5FStb53Ri4F-7t46lixaUqaQUGG7OSymVShbaRGmJ-SUgxcvCWz9OCNq1OfP6jaP98Nc8cNruXsWyLcIsd958n5TEZbUfqLgtvtoCgUslVBAi8","width":1152}],"place_id":"ChIJdU37m5jNHkcR14WSrwUtjmo","plus_code":{"compound_code":"62M6+4Q Warsaw","global_code":"9G4362M6+4Q"},"price_level":2,"rating":4.1,"reference":"ChIJdU37m5jNHkcR14WSrwUtjmo","types":["restaurant","meal_takeaway","food","point_of_interest","establishment"],"user_ratings_total":267},{"business_status":"OPERATIONAL","formatted_address":"Dominika Merliniego 4, 02-511 Warszawa","geometry":{"location":{"lat":52.1955116,"lng":21.0259786},"viewport":{"northeast":{"lat":52.19685952989272,"lng":21.02719307989272},"southwest":{"lat":52.19415987010728,"lng":21.02449342010728}}},"icon":"https://maps.gstatic.com/mapfiles/place_api/icons/v1/png_71/restaurant-71.png","icon_background_color":"#FF9E67","icon_mask_base_uri":"https://maps.gstatic.com/mapfiles/place_api/icons/v2/restaurant_pinlet","name":"Baretto Pizza & Burger","opening_hours":{"open_now":true},"photos":[{"height":3456,"html_attributions":["<a href=\"https://maps.google.com/maps/contrib/106262487577113479151\">A Google User</a>"],"photo_reference":"AeJbb3cuKwl_4K3PfP2z5uSAtNrRcddDokI0dYW4-Kdt4PN1g6lhMBlNNo5rnXmxyVgWAXhhgAy9ulO6NC8eIUvgRXfBL9zQ-SgzehHkf46oNhomqZ9jt1zJm88mjiUN3AxO7P_pNDrfvsy3LbCuIT-JxLP-L3pV1aGEV1BEE4BV1Xq2L9H_","width":3456}],"place_id":"ChIJ_365EVHNHkcRIGHdy3FMSpM","plus_code":{"compound_code":"52WG+69 Warsaw","global_code":"9G4352WG+69"},"rating":4.1,"reference":"ChIJ_365EVHNHkcRIGHdy3FMSpM","types":["restaurant","point_of_interest","food","establishment"],"user_ratings_total":43},{"business_status":"OPERATIONAL","formatted_address":"aleja \"Solidarności\" 68A, 00-240 Warszawa","geometry":{"location":{"lat":52.2450213,"lng":21.0016456},"viewport":{"northeast":{"lat":52.24624587989273,"lng":21.00312012989273},"southwest":{"lat":52.24354622010728,"lng":21.00042047010728}}},"icon":"https://maps.gstatic.com/mapfiles/place_api/icons/v1/png_71/restaurant-71.png","icon_background_color":"#FF9E67","icon_mask_base_uri":"https://maps.gstatic.com/mapfiles/place_api/icons/v2/restaurant_pinlet","name":"Pizza Hut Warszawa Gruba Kaśka","opening_hours":{"open_now":true},"photos":[{"height":1082,"html_attributions":["<a href=\"https://maps.google.com/maps/contrib/110559788773662688093\">Pizza Hut</a>"],"photo_reference":"AeJbb3djxTv2ghHuv2t1qpn4Y6Vbr4q61usYdVb4JtxP9Tq0igWFm3MAw0zLqvmNk-vfud4-wq5kazMgtUmBqC1dV2ujejqgyPIdmMH-KrRl9J2MLmqM1DAcRzukV0z6rcBz_l4Ja8JmLwQUoclF2RnUDqfwS8Hpd0VCZtgmYLlF4FCpjiCi","width":1923}],"place_id":"ChIJ_13uqnzMHkcROSLyWw1qGm4","plus_code":{"compound_code":"62W2+2M Warsaw","global_code":"9G4362W2+2M"},"price_level":2,"rating":4,"reference":"ChIJ_13uqnzMHkcROSLyWw1qGm4","types":["meal_delivery","meal_takeaway","restaurant","point_of_interest","food","establishment"],"user_ratings_total":2376},{"business_status":"OPERATIONAL","formatted_address":"Konstantego Ildefonsa Gałczyńskiego 3, 00-362 Warszawa","geometry":{"location":{"lat":52.2341869,"lng":21.0197901},"viewport":{"northeast":{"lat":52.23555667989272,"lng":21.02124147989272},"southwest":{"lat":52.23285702010728,"lng":21.01854182010728}}},"icon":"https://maps.gstatic.com/mapfiles/place_api/icons/v1/png_71/restaurant-71.png","icon_background_color":"#FF9E67","icon_mask_base_uri":"https://maps.gstatic.com/mapfiles/place_api/icons/v2/restaurant_pinlet","name":"Pub Pizzeria Da-Nando Restauracja Włoska","opening_hours":{"open_now":true},"place_id":"ChIJK3PZdfbMHkcR8skIgq66Ymo","plus_code":{"compound_code":"62M9+MW Warsaw","global_code":"9G4362M9+MW"},"rating":4,"reference":"ChIJK3PZdfbMHkcR8skIgq66Ymo","types":["restaurant","food","point_of_interest","establishment"],"user_ratings_total":4},{"business_status":"OPERATIONAL","formatted_address":"Grójecka 118, 02-367 Warszawa","geometry":{"location":{"lat":52.207288,"lng":20.972227},"viewport":{"northeast":{"lat":52.20852232989272,"lng":20.97393142989272},"southwest":{"lat":52.20582267010727,"lng":20.97123177010728}}},"icon":"https://maps.gstatic.com/mapfiles/place_api/icons/v1/png_71/restaurant-71.png","icon_background_color":"#FF9E67","icon_mask_base_uri":"https://maps.gstatic.com/mapfiles/place_api/icons/v2/restaurant_pinlet","name":"Amarant Restauracja, Pizza & Bar","opening_hours":{"open_now":true},"photos":[{"height":2448,"html_attributions":["<a href=\"https://maps.google.com/maps/contrib/102455588702147270252\">Jack Mantykiewicz</a>"],"photo_reference":"AeJbb3ez3YERJ5h9RB5Vqm1heAUcF2TjOvbztH37ZBN1-AGCpqSx9Pw-8nYLDHpF9tztLA4nBrrB1fM4jXdu0Tgp08rGr382UPE25nJZhK4p5TkVv7_BSjWLqpEbfbqAiF32SyD3z4tIu588_d-dH07A-CzhFF_3TygszzQcqF-FvJ7qDJ8H","width":3264}],"place_id":"ChIJcaP8H67MHkcRhT1u5Yaoh4U","plus_code":{"compound_code":"6X4C+WV Warsaw","global_code":"9G426X4C+WV"},"rating":3.9,"reference":"ChIJcaP8H67MHkcRhT1u5Yaoh4U","types":["restaurant","night_club","bar","food","point_of_interest","establishment"],"user_ratings_total":469},{"business_status":"OPERATIONAL","formatted_address":"Aleja Komisji Edukacji Narodowej 60, 02-777 Warszawa","geometry":{"location":{"lat":52.1494839,"lng":21.0467406},"viewport":{"northeast":{"lat":52.15070617989272,"lng":21.04788857989272},"southwest":{"lat":52.14800652010727,"lng":21.04518892010728}}},"icon":"https://maps.gstatic.com/mapfiles/place_api/icons/v1/png_71/restaurant-71.png","icon_background_color":"#FF9E67","icon_mask_base_uri":"https://maps.gstatic.com/mapfiles/place_api/icons/v2/restaurant_pinlet","name":"Pizza Eataliano","opening_hours":{"open_now":true},"photos":[{"height":3024,"html_attributions":["<a href=\"https://maps.google.com/maps/contrib/104629533321660199458\">A Google User</a>"],"photo_reference":"AeJbb3fYwDko0N3JimGjZs_8_6FSQLnmmfns6qY91q48BF87PQqxFj8QAAJqnagGm-bYpTEgXfFtcp_6CkqcSMiYCuNq-1i3QY6fUY8OJ_QJq5kC3ssiiK_EY5WjYFH_51eizFfQD6ssoUPBG3qnFw-8-DCdHG1taRKvKcm4_Gq2f6PYSn1p","width":4032}],"place_id":"ChIJW70AZ4IyGUcRERYBsLnWLPE","plus_code":{"compound_code":"42XW+QM Warsaw","global_code":"9G4342XW+QM"},"price_level":2,"rating":3.8,"reference":"ChIJW70AZ4IyGUcRERYBsLnWLPE","types":["restaurant","food","point_of_interest","establishment"],"user_ratings_total":523}]