[{"business_status":"OPERATIONAL","formatted_address":"Warszawska 14, 31-155 Kraków","geometry":{"location":{"lat":50.0697899,"lng":19.9433735},"viewport":{"northeast":{"lat":50.07112567989272,"lng":19.94484987989272},"southwest":{"lat":50.06842602010727,"lng":19.94215022010728}}},"icon":"https://maps.gstatic.com/mapfiles/place_api/icons/v1/png_71/restaurant-71.png","icon_background_color":"#FF9E67","icon_mask_base_uri":"https://maps.gstatic.com/mapfiles/place_api/icons/v2/restaurant_pinlet","name":"Kebab Soltan","opening_hours":{"open_now":true},"photos":[{"height":4032,"html_attributions":["<a href=\"https://maps.google.com/maps/contrib/107358757657488916409\">K Kasperek</a>"],"photo_reference":"AeJbb3fDLa9NtKPA38jcY-R9FER-o3zm3ykjE6RCZShClBOLSWBejwKiXP44Ay4S3Tqlt5_zRsnZugr_2KVAvl_TVBD5zAj51w5Bez-uSmtVJrEN7MHiGLIjQJS4M7_HLKmuPV1lMgASNJxpWaAX75AXq1dZ8iZGYI1Wo9wgjBHsKj-rrHtB","width":3024}],"place_id":"ChIJo0hapaBbFkcRkSIujCO1yaM","plus_code":{"compound_code":"3W9V+W8 Kraków","global_code":"9F2X3W9V+W8"},"price_level":1,"rating":4.9,"reference":"ChIJo0hapaBbFkcRkSIujCO1yaM","types":["restaurant","food","point_of_interest","establishment"],"user_ratings_total":758},{"business_status":"OPERATIONAL","formatted_address":"Konfederacka 4, 30-306 Kraków","geometry":{"location":{"lat":50.0500243,"lng":19.9268974},"viewport":{"northeast":{"lat":50.05123447989272,"lng":19.92802667989272},"southwest":{"lat":50.04853482010727,"lng":19.92532702010728}}},"icon":"https://maps.gstatic.com/mapfiles/place_api/icons/v1/png_71/restaurant-71.png","icon_background_color":"#FF9E67","icon_mask_base_uri":"https://maps.gstatic.com/mapfiles/place_api/icons/v2/restaurant_pinlet","name":"Kebab u Rudego","opening_hours":{"open_now":true},"photos":[{"height":4000,"html_attributions":["<a href=\"https://maps.google.com/maps/contrib/118027664849721922958\">Leszek Kasperczyk</a>"],"photo_reference":"AeJbb3fWfCJ5JRSFABxZv10Gf1eUYJW2C7TQFpg4PAhBhpuZaZPc1w1yFPnC6IJZhh-u2J2dBqqPaRPvrHzMYirSd7NK_BdXb54WwlIcb11c82Gegp-fOJy8hs8AsQtOdFy6tuu0frXnxScDZKzpnx20rZK-YyotFSYGDeC9PM72Vs5_6XYz","width":3000}],"place_id":"ChIJc8VxPUZbFkcR8uBXbdln6aI","plus_code":{"compound_code":"3W2G+2Q Kraków","global_code":"9F2X3W2G+2Q"},"rating":4.9,"reference":"ChIJc8VxPUZbFkcR8uBXbdln6aI","types":["restaurant","food","point_of_interest","establishment"],"user_ratings_total":747},{"business_status":"OPERATIONAL","formatted_address":"Brzegi 601/2, 32-002 Brzegi","geometry":{"location":{"lat":50.0334727,"lng":20.0882254},"viewport":{"northeast":{"lat":50.03487552989272,"lng":20.08967122989272},"southwest":{"lat":50.03217587010728,"lng":20.08697157010727}}},"icon":"https://maps.gstatic.com/mapfiles/place_api/icons/v1/png_71/restaurant-71.png","icon_background_color":"#FF9E67","icon_mask_base_uri":"https://maps.gstatic.com/mapfiles/place_api/icons/v2/restaurant_pinlet","name":"Laziz Kebab","opening_hours":{"open_now":true},"photos":[{"height":9248,"html_attributions":["<a href=\"https://maps.google.com/maps/contrib/102960707525876846766\">Łukasz Proszek</a>"],"photo_reference":"AeJbb3cKBftIz1v14B8kLCBurAnwALrl2-w3iNKTyJX7CjzTAf4_ECvCnzep5LKe4YNVKdFPe0BAhjBi7q21IxHF5Vre9N1P2RKgzVtFdD2cImMczkqKzemgsoj45a6_weIR0luh86-eafRULO0g_WY8sdT_g91a4OGtiWNkxTV-I1O7ncdr","width":6936}],"place_id":"ChIJI6Gpk4tFFkcRw8WaEG9pmNE","plus_code":{"compound_code":"23MQ+97 Brzegi","global_code":"9G2223MQ+97"},"rating":4.8,"reference":"ChIJI6Gpk4tFFkcRw8WaEG9pmNE","types":["restaurant","food","point_of_interest","establishment"],"user_ratings_total":41},{"business_status":"OPERATIONAL","formatted_address":"Popielidów 40B, 31-625 Kraków","geometry":{"location":{"lat":50.0987275,"lng":20.015864},"viewport":{"northeast":{"lat":50.10003802989272,"lng":20.01730092989272},"southwest":{"lat":50.09733837010728,"lng":20.01460127010727}}},"icon":"https://maps.gstatic.com/mapfiles/place_api/icons/v1/png_71/restaurant-71.png","icon_background_color":"#FF9E67","icon_mask_base_uri":"https://maps.gstatic.com/mapfiles/place_api/icons/v2/restaurant_pinlet","name":"Anatolia Kebab i Pizza","opening_hours":{"open_now":true},"photos":[{"height":2025,"html_attributions":["<a href=\"https://maps.google.com/maps/contrib/106047790424754455084\">Piotr Garcarz</a>"],"photo_reference":"AeJbb3dfrTW6C9Q4EUlOsdDMOtj0RUYCsv8KGDWMHGGfU5GhNrAozTIrXvtrYRjN79ECqBex8Ig-9eRDhQiUuAZ6YhxGhZ7p6pPQpDCWIEGdkJreuz91mZ14lkdOTQmEIzAl526Qy095i158r8k5H0fSbnmdl61LzuTspu_6kYWxmNIqshfD","width":2268}],"place_id":"ChIJvyi6bVZFFkcRPPwGREN_MN8","plus_code":{"compound_code":"32X8+F8 Kraków","global_code":"9G2232X8+F8"},"price_level":1,"rating":4.7,"reference":"ChIJvyi6bVZFFkcRPPwGREN_MN8","types":["restaurant","food","point_of_interest","establishment"],"user_ratings_total":441},{"business_status":"OPERATIONAL","formatted_address":"Przewóz 41a, 30-716 Kraków","geometry":{"location":{"lat":50.041036,"lng":19.993014},"viewport":{"northeast":{"lat":50.04244462989273,"lng":19.99438257989272},"southwest":{"lat":50.03974497010729,"lng":19.99168292010728}}},"icon":"https://maps.gstatic.com/mapfiles/place_api/icons/v1/png_71/restaurant-71.png","icon_background_color":"#FF9E67","icon_mask_base_uri":"https://maps.gstatic.com/mapfiles/place_api/icons/v2/restaurant_pinlet","name":"Burger & Kebab | Przewóz","opening_hours":{"open_now":false},"photos":[{"height":500,"html_attributions":["<a href=\"https://maps.google.com/maps/contrib/100290637060882135557\">A Google User</a>"],"photo_reference":"AeJbb3com6WqQX2Y_g1w2SYqEMsQ8bUlSdTw6raNfh5qT440X-2RM6aZZqEl8p8Cq8iRvu4rR-5GneqTyt18n7GIRu4y8g6Yhr_VANEX6xcEFE97CWXc2sMLuwnQoCaZ6yXVeEwLRYpaJpAisvlS1tvS-Y42k-ti_-im_pInYZvS45VKYdeJ","width":500}],"place_id":"ChIJVWWOvnhFFkcRI4dSSssHGug","plus_code":{"compound_code":"2XRV+C6 Kraków","global_code":"9F2X2XRV+C6"},"price_level":1,"rating":4.7,"reference":"ChIJVWWOvnhFFkcRI4dSSssHGug","types":["bar","meal_takeaway","restaurant","food","point_of_interest","establishment"],"user_ratings_total":377},{"business_status":"OPERATIONAL","formatted_address":"Zakopiańska 70 A, 30-001 Kraków","geometry":{"location":{"lat":50.0103675,"lng":19.9293764},"viewport":{"northeast":{"lat":50.01190102989272,"lng":19.93023182989272},"southwest":{"lat":50.00920137010728,"lng":19.92753217010728}}},"icon":"https://maps.gstatic.com/mapfiles/place_api/icons/v1/png_71/restaurant-71.png","icon_background_color":"#FF9E67","icon_mask_base_uri":"https://maps.gstatic.com/mapfiles/place_api/icons/v2/restaurant_pinlet","name":"Habibi","opening_hours":{"open_now":true},"photos":[{"height":4032,"html_attributions":["<a href=\"https://maps.google.com/maps/contrib/117415757721192121103\">Adam Schwarz</a>"],"photo_reference":"AeJbb3fiPmKM646ICBEknaPXvDEOPyeNpemqLkLeLOmcyKgrLCwzCTlJIH5bZ7kLjciIuN9wL84LgbcdWv-aFs79ujLdu9Xgb-za2nkHTjA7XvK3iHcxzB608oBmhjYCOQ9X3-yp0J_hGAKDm7U0TdFtvehasglix1BF8YRCj3Ioi4_1qzcE","width":3024}],"place_id":"ChIJtzPqGLlcFkcRwHdC1RZQfwE","plus_code":{"compound_code":"2W6H+4Q Kraków","global_code":"9F2X2W6H+4Q"},"price_level":1,"rating":4.7,"reference":"ChIJtzPqGLlcFkcRwHdC1RZQfwE","types":["restaurant","food","point_of_interest","establishment"],"user_ratings_total":359},{"business_status":"OPERATIONAL","formatted_address":"Ujastek 11, 31-752 Kraków","geometry":{"location":{"lat":50.0860695,"lng":20.0669957},"viewport":{"northeast":{"lat":50.08708682989272,"lng":20.06804622989272},"southwest":{"lat":50.08438717010728,"lng":20.06534657010728}}},"icon":"https://maps.gstatic.com/mapfiles/place_api/icons/v1/png_71/restaurant-71.png","icon_background_color":"#FF9E67","icon_mask_base_uri":"https://maps.gstatic.com/mapfiles/place_api/icons/v2/restaurant_pinlet","name":"Stacja Kebab ul. Ujastek 11 teren Transbudu","opening_hours":{"open_now":true},"photos":[{"height":2560,"html_attributions":["<a href=\"https://maps.google.com/maps/contrib/100478618652751645496\">A Google User</a>"],"photo_reference":"AeJbb3czL3U8qhcbLU_I_NB9bRUHBU-Im9CreGmPDeHM9lU2DSmdL6Fiimw45xnQCAEgousaJixIjP0kF8wPllV5VsQYHjTvXPC94fV06j99xE4LARmlIHo-S2CxiC-1kddN61lzL-xUGvRrwvD96nlo704DOda3KbR54akDSV49d0VBKHRv","width":1605}],"place_id":"ChIJE2-avc9FFkcRraaXglHdDUI","plus_code":{"compound_code":"33P8+CQ Kraków","global_code":"9G2233P8+CQ"},"rating":4.7,"reference":"ChIJE2-avc9FFkcRraaXglHdDUI","types":["restaurant","food","point_of_interest","establishment"],"user_ratings_total":23},{"business_status":"OPERATIONAL","formatted_address":"Na Błonie 17B, 30-147 Kraków","geometry":{"location":{"lat":50.078264,"lng":19.880786},"viewport":{"northeast":{"lat":50.07957877989272,"lng":19.88182267989272},"southwest":{"lat":50.07687912010728,"lng":19.87912302010728}}},"icon":"https://maps.gstatic.com/mapfiles/place_api/icons/v1/png_71/restaurant-71.png","icon_background_color":"#FF9E67","icon_mask_base_uri":"https://maps.gstatic.com/mapfiles/place_api/icons/v2/restaurant_pinlet","name":"KEBAB DOBRA SZAMA","opening_hours":{"open_now":true},"photos":[{"height":3024,"html_attributions":["<a href=\"https://maps.google.com/maps/contrib/103650088204301391293\">A Google User</a>"],"photo_reference":"AeJbb3fJ8cYjmTu-RZzs5Gj_TvyV7CsBfx1rM4WuLZZ6RNPkpEbZDWdGM9uQvSzzjnbTACUuasMVvYhi8xBVY4nrtqBaoTo-Dc1TPCRiRrqzHJfaUUdnN4Y2w5nuuNKgVFSSJQ4EoQXFEySEzKc0skyJkx4WC03TcbwdCD42cidjtoPK7CGV","width":4032}],"place_id":"ChIJkSZiGFpbFkcRboBaEglSFwA","plus_code":{"compound_code":"3VHJ+88 Kraków","global_code":"9F2X3VHJ+88"},"price_level":2,"rating":4.6,"reference":"ChIJkSZiGFpbFkcRboBaEglSFwA","types":["restaurant","food","point_of_interest","establishment"],"user_ratings_total":499},{"business_status":"OPERATIONAL","formatted_address":"Wrocławska 31, 30-011 Kraków","geometry":{"location":{"lat":50.0769594,"lng":19.9271032},"viewport":{"northeast":{"lat":50.07827842989272,"lng":19.92842152989272},"southwest":{"lat":50.07557877010728,"lng":19.92572187010727}}},"icon":"https://maps.gstatic.com/mapfiles/place_api/icons/v1/png_71/restaurant-71.png","icon_background_color":"#FF9E67","icon_mask_base_uri":"https://maps.gstatic.com/mapfiles/place_api/icons/v2/restaurant_pinlet","name":"Maas Kebab","opening_hours":{"open_now":true},"photos":[{"height":2048,"html_attributions":["<a href=\"https://maps.google.com/maps/contrib/111324784249581496214\">Jagoda Milanowska</a>"],"photo_reference":"AeJbb3eMBRY48fqbusoXWL8w-cb-Vi4EJ2XXUdivli9pJCvFuTD7wzglWxR2zT-pl4-A60wyvYOmP84rRokVv4qlib-DjArf_-C0dkXZpOlBga9cbXtCTeYEFIuZgw1hlPqZHPHX4BObNCJE6bgZt2AwzE_-ZDJytF8e0ZRNyRiUCBPBCMKh","width":922}],"place_id":"ChIJNdQVCKBbFkcRfwavn4nppRg","plus_code":{"compound_code":"3WGG+QR Kraków","global_code":"9F2X3WGG+QR"},"rating":4.6,"reference":"ChIJNdQVCKBbFkcRfwavn4nppRg","types":["restaurant","food","point_of_interest","establishment"],"user_ratings_total":225},{"business_status":"OPERATIONAL","formatted_address":"Marii i Bolesława Wysłouchów 25a, 30-611 Kraków","geometry":{"location":{"lat":50.0095795,"lng":19.9537231},"viewport":{"northeast":{"lat":50.01032485000001,"lng":19.95498862989272},"southwest":{"lat":50.00734344999999,"lng":19.95228897010728}}},"icon":"https://maps.gstatic.com/mapfiles/place_api/icons/v1/png_71/restaurant-71.png","icon_background_color":"#FF9E67","icon_mask_base_uri":"https://maps.gstatic.com/mapfiles/place_api/icons/v2/restaurant_pinlet","name":"Byczek Kebab","opening_hours":{"open_now":true},"photos":[{"height":4640,"html_attributions":["<a href=\"https://maps.google.com/maps/contrib/107209074201617600868\">Grzegorz Jarek</a>"],"photo_reference":"AeJbb3ezaa8cyuGK9gtc0sW1RCxBAcb-o2KFvHNssWYC-r5mBtAKZjCsCQZjUKzEER7cF2DAU2un6mSIAwQyIGJSvkkQ1wqXxUW77BHlC2RlgZHeLJHifVELUTXwlKxry1bM1UA9mWyjZlrKMcxLWVUrai58KnGaqKxz0_-k-yAA4y7eiCY_","width":3472}],"place_id":"ChIJ_cgHuAZDFkcR7Li7Px5WDXE","plus_code":{"compound_code":"2X53+RF Kraków","global_code":"9F2X2X53+RF"},"price_level":1,"rating":4.5,"reference":"ChIJ_cgHuAZDFkcR7Li7Px5WDXE","types":["restaurant","food","point_of_interest","establishment"],"user_ratings_total":584},{"business_status":"OPERATIONAL","formatted_address":"Bronowicka 10A, 33-332 Kraków","geometry":{"location":{"lat":50.0766113,"lng":19.9030614},"viewport":{"northeast":{"lat":50.07809047989272,"lng":19.90452877989272},"southwest":{"lat":50.07539082010727,"lng":19.90182912010728}}},"icon":"https://maps.gstatic.com/mapfiles/place_api/icons/v1/png_71/restaurant-71.png","icon_background_color":"#FF9E67","icon_mask_base_uri":"https://maps.gstatic.com/mapfiles/place_api/icons/v2/restaurant_pinlet","name":"LISAN KEBAB","opening_hours":{"open_now":true},"photos":[{"height":292,"html_attributions":["<a href=\"https://maps.google.com/maps/contrib/113795214670253270224\">A Google User</a>"],"photo_reference":"AeJbb3cCuV7IJHKSam8g-__WSlj6HzfA9rodAhEcL80HvXe3xW6IfP7JI4plqL1YzsJocfwfHkHzQG3COrXbF_g4Qy9-er1gTeDzhba2d3CS8q8qa3E4Ges3rzAMmgmAL_3ZzaTzFC4l1B26jDt7stMbS3g-mo1LzGkdB71b44OAlwi7HXYV","width":453}],"place_id":"ChIJLUkLvTRbFkcRoLVWTBdsnII","plus_code":{"compound_code":"3WG3+J6 Kraków","global_code":"9F2X3WG3+J6"},"price_level":1,"rating":4.5,"reference":"ChIJLUkLvTRbFkcRoLVWTBdsnII","types":["restaurant","food","point_of_interest","establishment"],"user_ratings_total":469},{"business_status":"OPERATIONAL","formatted_address":"plac Nowy 4A/lokal 7, 31-056 Kraków","geometry":{"location":{"lat":50.0518036,"lng":19.94465},"viewport":{"northeast":{"lat":50.05317552989272,"lng":19.94596712989272},"southwest":{"lat":50.05047587010728,"lng":19.94326747010727}}},"icon":"https://maps.gstatic.com/mapfiles/place_api/icons/v1/png_71/restaurant-71.png","icon_background_color":"#FF9E67","icon_mask_base_uri":"https://maps.gstatic.com/mapfiles/place_api/icons/v2/restaurant_pinlet","name":"Döner House - Petarda Kebab u Aliego","opening_hours":{"open_now":true},"photos":[{"height":4032,"html_attributions":["<a href=\"https://maps.google.com/maps/contrib/114656793770238829000\">Hashem Ali</a>"],"photo_reference":"AeJbb3eZj6FcHuPKj6VfotB8jniT0bIWXh7kcf3-uZpUXvHSNluL1LaUdjk4oHcHtE7yppAVDOkdXz0c5xMJYNCtoNP1HUd8tsFWwvNCjP54k6SN0LyPiwLPf4bk4CRXcQl3IsgnTdBUVaQ8BLb4PYGhAW7MdJYWG7Z2o5q1PPetjjEy0Uso","width":3024}],"place_id":"ChIJq6Ryu1dbFkcRbESG_ecffzg","plus_code":{"compound_code":"3W2V+PV Kraków","global_code":"9F2X3W2V+PV"},"rating":4.5,"reference":"ChIJq6Ryu1dbFkcRbESG_ecffzg","types":["restaurant","food","point_of_interest","establishment"],"user_ratings_total":468},{"business_status":"OPERATIONAL","formatted_address":"Stanisława Fiszera 1, 31-315 Kraków","geometry":{"location":{"lat":50.0857641,"lng":19.8970037},"viewport":{"northeast":{"lat":50.08709522989272,"lng":19.89845722989272},"southwest":{"lat":50.08439557010727,"lng":19.89575757010728}}},"icon":"https://maps.gstatic.com/mapfiles/place_api/icons/v1/png_71/restaurant-71.png","icon_background_color":"#FF9E67","icon_mask_base_uri":"https://maps.gstatic.com/mapfiles/place_api/icons/v2/restaurant_pinlet","name":"Radzik Kebab","opening_hours":{"open_now":true},"photos":[{"height":4032,"html_attributions":["<a href=\"https://maps.google.com/maps/contrib/113600335510238370603\">Stephen Maciolek</a>"],"photo_reference":"AeJbb3eiw3BKX2NIwd1zoBc9Uox6EFREdpwe8mlnJMeZ4ilGIFfLlCZIRJFPjuNjI9rhpVs7398Gp-m0Sups03G_5G09UcVBcISDGah5l8s7-oga5iVmcKdFiweDtvcp9EFLt_WY0kmINpik65XIFVzkR3GWl0jrc6Ana3ibrFgJ8oPp1YCG","width":3024}],"place_id":"ChIJw5cT-v1bFkcRRVrBL8NeSWc","plus_code":{"compound_code":"3VPW+8Q Kraków","global_code":"9F2X3VPW+8Q"},"rating":4.5,"reference":"ChIJw5cT-v1bFkcRRVrBL8NeSWc","types":["restaurant","food","point_of_interest","establishment"],"user_ratings_total":236},{"business_status":"OPERATIONAL","formatted_address":"Reformacka 26, 32-020 Wieliczka","geometry":{"location":{"lat":49.9939944,"lng":20.054331},"viewport":{"northeast":{"lat":49.99533592989272,"lng":20.05566902989272},"southwest":{"lat":49.99263627010728,"lng":20.05296937010727}}},"icon":"https://maps.gstatic.com/mapfiles/place_api/icons/v1/png_71/restaurant-71.png","icon_background_color":"#FF9E67","icon_mask_base_uri":"https://maps.gstatic.com/mapfiles/place_api/icons/v2/restaurant_pinlet","name":"KEBAB U PAJDY WIELICZKA","opening_hours":{"open_now":true},"photos":[{"height":720,"html_attributions":["<a href=\"https://maps.google.com/maps/contrib/113343016122975268897\">A Google User</a>"],"photo_reference":"AeJbb3cVfi-kuVNeuUtZE4p9PPvV26VLS_ICPRztG6t1-SsG-oQ2pQyFhGm3e_yA9S5f6h5UaaNofpRt_0j0z2xQVYBAIkHs45ZR2325o_8kuLrMaX5BMtyA-247KuKrIPCBVJUG0_OVU-96MzZTu6ptmFy72irbRrzv5VNnZhFUTFuejUTi","width":1081}],"place_id":"ChIJ_WR61_dDFkcRckS2FMegA9g","plus_code":{"compound_code":"X3V3+HP Wieliczka","global_code":"8GX2X3V3+HP"},"rating":4.5,"reference":"ChIJ_WR61_dDFkcRckS2FMegA9g","types":["restaurant","food","point_of_interest","establishment"],"user_ratings_total":131},{"business_status":"OPERATIONAL","formatted_address":"Starowiślna 8, 31-032 Kraków","geometry":{"location":{"lat":50.0584035,"lng":19.9435111},"viewport":{"northeast":{"lat":50.05974442989273,"lng":19.94484047989272},"southwest":{"lat":50.05704477010728,"lng":19.94214082010728}}},"icon":"https://maps.gstatic.com/mapfiles/place_api/icons/v1/png_71/restaurant-71.png","icon_background_color":"#FF9E67","icon_mask_base_uri":"https://maps.gstatic.com/mapfiles/place_api/icons/v2/restaurant_pinlet","name":"Kebaber","opening_hours":{"open_now":true},"photos":[{"height":4624,"html_attributions":["<a href=\"https://maps.google.com/maps/contrib/114012826445529191001\">A Google User</a>"],"photo_reference":"AeJbb3dYnky5IiixO5mO3hkXxdnmx-dSbEe12UpLnFaL5OTehwHIhnYk09MfIOWz645r9_8wyRjd4pk42_vAn97rfsIs0-ApzMwtAzYZdaQ00fYSgbi9Cn_Tm3nvPuTETEADTGy4310foHwEF-5SgGAv1YDC-36l969OVeAg1rgQPFoG75LW","width":3468}],"place_id":"ChIJMf5fPGdbFkcRDnBOD96KizA","plus_code":{"compound_code":"3W5V+9C Kraków","global_code":"9F2X3W5V+9C"},"rating":4.5,"reference":"ChIJMf5fPGdbFkcRDnBOD96KizA","types":["restaurant","food","point_of_interest","establishment"],"user_ratings_total":117},{"business_status":"OPERATIONAL","formatted_address":"Zygmunta Miłkowskiego 10, 30-349 Kraków","geometry":{"location":{"lat":50.0279017,"lng":19.9197893},"viewport":{"northeast":{"lat":50.02921832989273,"lng":19.92108877989273},"southwest":{"lat":50.02651867010729,"lng":19.91838912010728}}},"icon":"https://maps.gstatic.com/mapfiles/place_api/icons/v1/png_71/restaurant-71.png","icon_background_color":"#FF9E67","icon_mask_base_uri":"https://maps.gstatic.com/mapfiles/place_api/icons/v2/restaurant_pinlet","name":"Mezzo","opening_hours":{"open_now":true},"photos":[{"height":4000,"html_attributions":["<a href=\"https://maps.google.com/maps/contrib/118332877899572052193\">Mk Śa</a>"],"photo_reference":"AeJbb3c5a2DTkZn2BbB-i6GCkqqa1CcjNvWIdW9ylLBlzzpXWmcmKBYdoz45up8DDPSLbOaIMBWLeH19YJ6sMsPo9FpvUIr45vRHC6UD7KKevta2O8edE4tkVjoj_uhtYo79mthazu1jaAOevUNMP6f-v0lfhrzupUzpLL7QLWG_LT13xTwF","width":2250}],"place_id":"ChIJHRfODZpcFkcRdqBGge3nQSo","plus_code":{"compound_code":"2WH9+5W Kraków","global_code":"9F2X2WH9+5W"},"rating":4.5,"reference":"ChIJHRfODZpcFkcRdqBGge3nQSo","types":["restaurant","food","point_of_interest","establishment"],"user_ratings_total":90},{"business_status":"OPERATIONAL","formatted_address":"Czarnowiejska 7, 31-126 Kraków","geometry":{"location":{"lat":50.0655197,"lng":19.9266988},"viewport":{"northeast":{"lat":50.06681367989272,"lng":19.92803937989272},"southwest":{"lat":50.06411402010728,"lng":19.92533972010727}}},"icon":"https://maps.gstatic.com/mapfiles/place_api/icons/v1/png_71/restaurant-71.png","icon_background_color":"#FF9E67","icon_mask_base_uri":"https://maps.gstatic.com/mapfiles/place_api/icons/v2/restaurant_pinlet","name":"Raj Kebab","opening_hours":{"open_now":true},"photos":[{"height":4000,"html_attributions":["<a href=\"https://maps.google.com/maps/contrib/103531239984646371068\">x KrystiaN</a>"],"photo_reference":"AeJbb3dehy-OCk_f2gChc-hd0nJrHtRl0HyHeOwr2Z0wzcQxbzo1ruOQiOtyJY1wlXOWxncmxJ1iYtlDyOAXg3gp3MXCE_Br5vptyQQXSiQrvv-XaWi3LdHbpge9VvXIpmf7d8H9ZZvUUVI4sYpk4JX8PHlRme5HdRR1iBxuWDB47qnD8KX4","width":3000}],"place_id":"ChIJ4zmeSDlbFkcRkxEYyjJ4U2g","plus_code":{"compound_code":"3W8G+6M Kraków","global_code":"9F2X3W8G+6M"},"rating":4.5,"reference":"ChIJ4zmeSDlbFkcRkxEYyjJ4U2g","types":["restaurant","food","point_of_interest","establishment"],"user_ratings_total":89},{"business_status":"OPERATIONAL","formatted_address":"plac Wolnica 13, 33-332 Kraków","geometry":{"location":{"lat":50.04830399999999,"lng":19.9440294},"viewport":{"northeast":{"lat":50.04967647989272,"lng":19.94551037989272},"southwest":{"lat":50.04697682010727,"lng":19.94281072010728}}},"icon":"https://maps.gstatic.com/mapfiles/place_api/icons/v1/png_71/restaurant-71.png","icon_background_color":"#FF9E67","icon_mask_base_uri":"https://maps.gstatic.com/mapfiles/place_api/icons/v2/restaurant_pinlet","name":"Kebab no 13","opening_hours":{"open_now":true},"photos":[{"height":4608,"html_attributions":["<a href=\"https://maps.google.com/maps/contrib/116967991201082499587\">Vladimír V. Jaskevič</a>"],"photo_reference":"AeJbb3dAi_0zc9IceVSLujDfeSoVZ94TfUxRfWkE0kx7o6Rk51cnry5b3ckpOLqB9MsZTMFdZ9NaJKueX_25VmO2DkeifcXDq8i6fYsYT0a4g2ut98OmElD1x1xo08i5Jb7-P8sOlKeuX8I3-XpTRvarR9d33tc4AEwGt1u9_tF3s8McUFpS","width":3456}],"place_id":"ChIJAdqK3mlbFkcRcX1XNFGY1y8","plus_code":{"compound_code":"2WXV+8J Kraków","global_code":"9F2X2WXV+8J"},"price_level":2,"rating":4.4,"reference":"ChIJAdqK3mlbFkcRcX1XNFGY1y8","types":["bar","restaurant","food","point_of_interest","establishment"],"user_ratings_total":4629},{"business_status":"OPERATIONAL","formatted_address":"Adama Asnyka 6A, 32-020 Wieliczka","geometry":{"location":{"lat":49.9847978,"lng":20.0712851},"viewport":{"northeast":{"lat":49.98617197989273,"lng":20.07238037989272},"southwest":{"lat":49.98347232010728,"lng":20.06968072010728}}},"icon":"https://maps.gstatic.com/mapfiles/place_api/icons/v1/png_71/restaurant-71.png","icon_background_color":"#FF9E67","icon_mask_base_uri":"https://maps.gstatic.com/mapfiles/place_api/icons/v2/restaurant_pinlet","name":"Bodrum Prawdziwy Turecki Kebab","opening_hours":{"open_now":true},"photos":[{"height":4032,"html_attributions":["<a href=\"https://maps.google.com/maps/contrib/105022310316758690486\">A Google User</a>"],"photo_reference":"AeJbb3dgHGLqM8IXew_AbEMlWepnDqV2g3QRXo9y0UPrYogE1BUpqK9LZxMmN3OpVVZgovhhb-DuxIVOKaTw2RNzURgSrH-0tbWitzKqevNOMrBcnrzYYCHxb1zU80aLpe1hxQcOyBuzeHyCuzkhK9C__L59cw6xAy0hL2Tp3LJS7bwuLeTr","width":3024}],"place_id":"ChIJ01LqxtVBFkcRYMYyMw7vK9g","plus_code":{"compound_code":"X3MC+WG Wieliczka","global_code":"8GX2X3MC+WG"},"price_level":1,"rating":4.4,"reference":"ChIJ01LqxtVBFkcRYMYyMw7vK9g","types":["restaurant","food","point_of_interest","establishment"],"user_ratings_total":612},{"business_status":"OPERATIONAL","formatted_address":"Krakowska 4, 32-080 Zabierzów","geometry":{"location":{"lat":50.1132183,"lng":19.7994843},"viewport":{"northeast":{"lat":50.11462102989272,"lng":19.80086227989272},"southwest":{"lat":50.11192137010728,"lng":19.79816262010728}}},"icon":"https://maps.gstatic.com/mapfiles/place_api/icons/v1/png_71/restaurant-71.png","icon_background_color":"#FF9E67","icon_mask_base_uri":"https://maps.gstatic.com/mapfiles/place_api/icons/v2/restaurant_pinlet","name":"Kebab Orient Express Zabierzów","opening_hours":{"open_now":true},"photos":[{"height":3000,"html_attributions":["<a href=\"https://maps.google.com/maps/contrib/116130743878786796124\">gregcarbonsqad</a>"],"photo_reference":"AeJbb3cdy5Np40mTwi7emNSLDNurfLpcf7ynnPGmXP2NmYe5PZvczmLaUHCtK6Gwxo9rt6WArjZBYumM3djk1XPnX-5gd0Wqn2cNGKyivPyg60VoXvdp3yyTxG-c5bVz8bxHtMG03HbnULN9WKsYBLXtuMIBzRAOLV16X7ag2Eay_jGwPw5J","width":4000}],"place_id":"ChIJsw0cfjZZFkcRaskPeZv4yzo","plus_code":{"compound_code":"4Q7X+7Q Zabierzów","global_code":"9F2X4Q7X+7Q"},"price_level":1,"rating":4.4,"reference":"ChIJsw0cfjZZFkcRaskPeZv4yzo","types":["restaurant","food","point_of_interest","establishment"],"user_ratings_total":479},{"business_status":"OPERATIONAL","formatted_address":"Marszałka Józefa Piłsudskiego 99C, 32-020 Wieliczka","geometry":{"location":{"lat":49.98639439999999,"lng":20.0733636},"viewport":{"northeast":{"lat":49.98781687989272,"lng":20.07471767989272},"southwest":{"lat":49.98511722010728,"lng":20.07201802010728}}},"icon":"https://maps.gstatic.com/mapfiles/place_api/icons/v1/png_71/restaurant-71.png","icon_background_color":"#FF9E67","icon_mask_base_uri":"https://maps.gstatic.com/mapfiles/place_api/icons/v2/restaurant_pinlet","name":"NOGOR KEBAB - Wieliczka","opening_hours":{"open_now":true},"photos":[{"height":3024,"html_attributions":["<a href=\"https://maps.google.com/maps/contrib/105650497634562388898\">stokrotka556</a>"],"photo_reference":"AeJbb3ebj-7ytWPr4670J6hROPDikqnWk8uRmD0nrOEADsywBsYsVO7TG96uzMPyofA7sx5iCiYm4_JJdG6L6geuox3GSeLAD3OnNBXZxcaYKJ5RDaltHGh7PrzD8G_AfjgcNjGVGITuxF0yjeolsglKC_V8Soo78F87efuyPws_j9H7hvLm","width":3014}],"place_id":"ChIJtcHZyhxBFkcR5VcMo-tDyaA","plus_code":{"compound_code":"X3PF+H8 Wieliczka","global_code":"8GX2X3PF+H8"},"price_level":1,"rating":4.4,"reference":"ChIJtcHZyhxBFkcR5VcMo-tDyaA","types":["restaurant","food","point_of_interest","establishment"],"user_ratings_total":445},{"business_status":"OPERATIONAL","formatted_address":"Stefana Grota-Roweckiego 37A, 30-348 Kraków","geometry":{"location":{"lat":50.0280697,"lng":19.9101904},"viewport":{"northeast":{"lat":50.02941952989271,"lng":19.91154022989272},"southwest":{"lat":50.02671987010727,"lng":19.90884057010728}}},"icon":"https://maps.gstatic.com/mapfiles/place_api/icons/v1/png_71/restaurant-71.png","icon_background_color":"#FF9E67","icon_mask_base_uri":"https://maps.gstatic.com/mapfiles/place_api/icons/v2/restaurant_pinlet","name":"Byczek Kebab","opening_hours":{"open_now":true},"photos":[{"height":1600,"html_attributions":["<a href=\"https://maps.google.com/maps/contrib/109040206497864491904\">A Google User</a>"],"photo_reference":"AeJbb3dBTZt9t-eoYkYdfE5vlZVUKeXLlLRfEQfQuvxovVGViZhO6ubLdQURbmbpEEbBuloQzxkzg9kJ5AvDEcyEK7eQ2XUtP9B5RE0SAdVwoVo5_beHGcu0n8IBS7Ys5PiO65bg1JV3GUpxVBo33YqNBFBnosMSsrRawa7eBEXBBFlGkfQ7","width":2133}],"place_id":"ChIJFdiuKGpdFkcRGiqgoBCSZy8","plus_code":{"compound_code":"2WH6+63 Kraków","global_code":"9F2X2WH6+63"},"rating":4.4,"reference":"ChIJFdiuKGpdFkcRGiqgoBCSZy8","types":["restaurant","food","point_of_interest","establishment"],"user_ratings_total":179},{"business_status":"OPERATIONAL","formatted_address":"Aleksandry 3, 30-837 Kraków","geometry":{"location":{"lat":50.0147047,"lng":20.0196475},"viewport":{"northeast":{"lat":50.01619417989272,"lng":20.02106397989272},"southwest":{"lat":50.01349452010728,"lng":20.01836432010727}}},"icon":"https://maps.gstatic.com/mapfiles/place_api/icons/v1/png_71/restaurant-71.png","icon_background_color":"#FF9E67","icon_mask_base_uri":"https://maps.gstatic.com/mapfiles/place_api/icons/v2/restaurant_pinlet","name":"Showarma Royal","photos":[{"height":2740,"html_attributions":["<a href=\"https://maps.google.com/maps/contrib/112995718881961400117\">Wiktoria Prusak</a>"],"photo_reference":"AeJbb3dtb6CZUkQlcNtXKDVnf-sk-FNIK99araSNVrLtwBN_XpU_HgHJLODBoNKMCfhoRQhJBlwBiV56kp9eKAotWWvBkVGP_KlEKyLUw3ytsgaFLu66xedT4wzJAiG9haILJNtJLrPmi57ovG3tPVzFO1fg6t9XmN6YPI9BMDMPgBUfrWI0","width":2048}],"place_id":"ChIJoTmMs5tDFkcRjyJVZhBsFGs","plus_code":{"compound_code":"2279+VV Kraków","global_code":"9G222279+VV"},"rating":4.4,"reference":"ChIJoTmMs5tDFkcRjyJVZhBsFGs","types":["restaurant","food","point_of_interest","establishment"],"user_ratings_total":69},{"business_status":"OPERATIONAL","formatted_address":"Szewska 17, 31-009 Kraków","geometry":{"location":{"lat":50.0628173,"lng":19.9347026},"viewport":{"northeast":{"lat":50.06439827989273,"lng":19.9355792},"southwest":{"lat":50.06169862010728,"lng":19.9320728}}},"icon":"https://maps.gstatic.com/mapfiles/place_api/icons/v1/png_71/restaurant-71.png","icon_background_color":"#FF9E67","icon_mask_base_uri":"https://maps.gstatic.com/mapfiles/place_api/icons/v2/restaurant_pinlet","name":"Kebab King Kraków","opening_hours":{"open_now":true},"photos":[{"height":4608,"html_attributions":["<a href=\"https://maps.google.com/maps/contrib/102451479780703390610\">hasan bozkurt</a>"],"photo_reference":"AeJbb3esgfcVrjCxX4vdUhJKiLkf8V6lLEZOZxK2fKgGYdz_Iv7KuCOjxVAwvPXWh4r-M6zRecSBn3gkCpSgdjYN_H-Q8cwT3_aMiGZsegXbBEgrWVN2NjZ7S9G1LppTEp6xqhBJKADlLruDsCYHVimem0C1EGK57M3ipJxtrzsyqFFWomfi","width":2592}],"place_id":"ChIJEZd_kUZbFkcRVV4B7Cns-t4","plus_code":{"compound_code":"3W7M+4V Kraków","global_code":"9F2X3W7M+4V"},"price_level":1,"rating":4.3,"reference":"ChIJEZd_kUZbFkcRVV4B7Cns-t4","types":["restaurant","food","point_of_interest","establishment"],"user_ratings_total":636},{"business_status":"OPERATIONAL","formatted_address":"Tadeusza Kościuszki 75, 30-114 Kraków","geometry":{"location":{"lat":50.0528026,"lng":19.9170545},"viewport":{"northeast":{"lat":50.05407852989272,"lng":19.91838217989272},"southwest":{"lat":50.05137887010728,"lng":19.91568252010727}}},"icon":"https://maps.gstatic.com/mapfiles/place_api/icons/v1/png_71/restaurant-71.png","icon_background_color":"#FF9E67","icon_mask_base_uri":"https://maps.gstatic.com/mapfiles/place_api/icons/v2/restaurant_pinlet","name":"Salwator Kebab u Pajdy","opening_hours":{"open_now":true},"photos":[{"height":3024,"html_attributions":["<a href=\"https://maps.google.com/maps/contrib/112668196372116368348\">A Google User</a>"],"photo_reference":"AeJbb3cp75Z3-BgYEzpgJVdjR0p768dUrRvSMgXm9IRmVZBFDccK1Xmp3Ou_Z_-bTXnQEnoDcVSqOw4FBzcrcU6Vsueia26Ymxa7aQYkMm2Tttg8n27_xR9BGepPFN6brw5jBQCBQ-ZuMH1aUJ4mCUUOR91QCOMnjiRa8pyOiNin3o2asGmn","width":4032}],"place_id":"ChIJJ21waoRbFkcRC60bBSbZxM8","plus_code":{"compound_code":"3W38+4R Kraków","global_code":"9F2X3W38+4R"},"price_level":1,"rating":4.3,"reference":"ChIJJ21waoRbFkcRC60bBSbZxM8","types":["restaurant","food","point_of_interest","establishment"],"user_ratings_total":141},{"business_status":"OPERATIONAL","formatted_address":"Dobrego Pasterza 67, 31-416 Kraków","geometry":{"location":{"lat":50.0886091,"lng":19.9650181},"viewport":{"northeast":{"lat":50.09003807989271,"lng":19.96627427989273},"southwest":{"lat":50.08733842010727,"lng":19.96357462010728}}},"icon":"https://maps.gstatic.com/mapfiles/place_api/icons/v1/png_71/restaurant-71.png","icon_background_color":"#FF9E67","icon_mask_base_uri":"https://maps.gstatic.com/mapfiles/place_api/icons/v2/restaurant_pinlet","name":"Kebab King","opening_hours":{"open_now":true},"photos":[{"height":800,"html_attributions":["<a href=\"https://maps.google.com/maps/contrib/109799171260303489247\">A Google User</a>"],"photo_reference":"AeJbb3cKBBnx-g-WzCBQo_r3fkxUtXAUa7B1B1aHQVXfEleCnIncfw4_T-8D4n6iiN9HlgTQ1rXV5CJRAKmlLfJvdGbdXoEAbMmKvX_0kGOmNdrzhjK04n4T6S-2NBpRq7zNVm0rlEBqzQ2aVgSP6OdKOntR-zSCLMhDqK27jLDw7SNZeMiS","width":1080}],"place_id":"ChIJU5sGiP5bFkcRsm5HFesANbY","plus_code":{"compound_code":"3XQ8+C2 Kraków","global_code":"9F2X3XQ8+C2"},"rating":4.2,"reference":"ChIJU5sGiP5bFkcRsm5HFesANbY","types":["restaurant","food","point_of_interest","establishment"],"user_ratings_total":216},{"business_status":"OPERATIONAL","formatted_address":"al. Pokoju 67, 31-564 Kraków","geometry":{"location":{"lat":50.063911,"lng":19.999929},"viewport":{"northeast":{"lat":50.06576362989272,"lng":20.00256525},"southwest":{"lat":50.06306397010728,"lng":19.99905025}}},"icon":"https://maps.gstatic.com/mapfiles/place_api/icons/v1/png_71/restaurant-71.png","icon_background_color":"#FF9E67","icon_mask_base_uri":"https://maps.gstatic.com/mapfiles/place_api/icons/v2/restaurant_pinlet","name":"Fresh Kebab M1","opening_hours":{"open_now":true},"photos":[{"height":2048,"html_attributions":["<a href=\"https://maps.google.com/maps/contrib/102836395820331126944\">A Google User</a>"],"photo_reference":"AeJbb3d1CFElBB6e-wdpWHQKiQCVyXpJ4f-NQHAWraliBzIwrzAMAtnSjr1oUfZ7YtIAdB3fhLobvxImgYw55Hwteq1r8VXt_AfdpGORpULcNp0hU6rXQOyrzEhHHy-ltfp8lUoohcTqUSD8aZAqqldlt8-ypr5jHVq0BfvhMqmnPsqTuhYK","width":1365}],"place_id":"ChIJF6n9wTpFFkcRVlcU46XOZ7g","plus_code":{"compound_code":"3X7X+HX Kraków","global_code":"9F2X3X7X+HX"},"rating":4.2,"reference":"ChIJF6n9wTpFFkcRVlcU46XOZ7g","types":["restaurant","food","point_of_interest","establishment"],"user_ratings_total":171},{"business_status":"OPERATIONAL","formatted_address":"Centrum Serenada, Aleja Generała Tadeusza Bora-Komorowskiego 41, 31-476 Kraków","geometry":{"location":{"lat":50.0881452,"lng":19.9854835},"viewport":{"northeast":{"lat":50.08960682989272,"lng":19.98625667989272},"southwest":{"lat":50.08690717010727,"lng":19.98355702010728}}},"icon":"https://maps.gstatic.com/mapfiles/place_api/icons/v1/png_71/restaurant-71.png","icon_background_color":"#FF9E67","icon_mask_base_uri":"https://maps.gstatic.com/mapfiles/place_api/icons/v2/restaurant_pinlet","name":"Ali Baba","opening_hours":{"open_now":true},"photos":[{"height":1800,"html_attributions":["<a href=\"https://maps.google.com/maps/contrib/115110761372987542024\">A Google User</a>"],"photo_reference":"AeJbb3f8zM-tGrBV8PuXPHYZ4O-rXTqwb6zUTUj5UonfXHjm57p8QLL8FCHGMg5dci2d_33ADazv47EYt398AJojNBxkXTE3pmjfcOZe3Zy8habX4MFR1w2ryApsrC9TMSOdurx203lA-XbRmte4LAlhqD0JT8HMemDbPtdFCYZu-7qRxx0j","width":1800}],"place_id":"ChIJE4t4F0xbFkcRW153Q5TqMuI","plus_code":{"compound_code":"3XQP+75 Kraków","global_code":"9F2X3XQP+75"},"rating":4.2,"reference":"ChIJE4t4F0xbFkcRW153Q5TqMuI","types":["restaurant","food","point_of_interest","establishment"],"user_ratings_total":110},{"business_status":"OPERATIONAL","formatted_address":"Torfowa 3, 30-384 Kraków","geometry":{"location":{"lat":50.0186116,"lng":19.9067934},"viewport":{"northeast":{"lat":50.01991452989272,"lng":19.90808872989272},"southwest":{"lat":50.01721487010727,"lng":19.90538907010728}}},"icon":"https://maps.gstatic.com/mapfiles/place_api/icons/v1/png_71/restaurant-71.png","icon_background_color":"#FF9E67","icon_mask_base_uri":"https://maps.gstatic.com/mapfiles/place_api/icons/v2/restaurant_pinlet","name":"Diamond Kebab Ruczaj","opening_hours":{"open_now":true},"photos":[{"height":960,"html_attributions":["<a href=\"https://maps.google.com/maps/contrib/106691125493371450637\">A Google User</a>"],"photo_reference":"AeJbb3eoAAyj57ii5up3yb_SMvjBZ0sL9D_ytcw1IaD0PsooACeEam8KRLdmB1WIZ8fHRsesvxh8JY7itv2Jxw6j9-IQTHcgSo8rz8iY5zbvSPX62drn8h-xSGwW-nqm-lfl5MmBKKomGRL4SVwLPun2be2Uakh_aaUJUGk_scPjflENnKPl","width":720}],"place_id":"ChIJRWEhNshdFkcRkYVlBoUNWng","plus_code":{"compound_code":"2W94+CP Kraków","global_code":"9F2X2W94+CP"},"price_level":1,"rating":4.1,"reference":"ChIJRWEhNshdFkcRkYVlBoUNWng","types":["restaurant","food","point_of_interest","establishment"],"user_ratings_total":676},{"business_status":"OPERATIONAL","formatted_address":"Osiedle Złotej Jesieni 13a, 31-828 Kraków","geometry":{"location":{"lat":50.0889523,"lng":20.0274894},"viewport":{"northeast":{"lat":50.09027247989272,"lng":20.02880352989272},"southwest":{"lat":50.08757282010727,"lng":20.02610387010728}}},"icon":"https://maps.gstatic.com/mapfiles/place_api/icons/v1/png_71/restaurant-71.png","icon_background_color":"#FF9E67","icon_mask_base_uri":"https://maps.gstatic.com/mapfiles/place_api/icons/v2/restaurant_pinlet","name":"Kebab u Mogla","opening_hours":{"open_now":true},"photos":[{"height":4032,"html_attributions":["<a href=\"https://maps.google.com/maps/contrib/116213592921014772572\">Justyna Mądro</a>"],"photo_reference":"AeJbb3cAcjvnvcIeNN_qEoHFZRiqYkZBXTyh0Qdk6c8YN0ziCnI1U9mEX-5R8fJB1HGjPKfrUcCtoMMnyiJydAmToCP1_5DamTtCBMZ6OWyotadXVimrvQsIR7CyunvICtf5PdyK6vYPGy44zmvV36N5Ryly66rG-6ntWd-05zGSb23S0J8O","width":3024}],"place_id":"ChIJ__8bMkRFFkcR9IZduz8ScfM","plus_code":{"compound_code":"32QG+HX Kraków","global_code":"9G2232QG+HX"},"price_level":1,"rating":4.1,"reference":"ChIJ__8bMkRFFkcR9IZduz8ScfM","types":["restaurant","food","point_of_interest","establishment"],"user_ratings_total":310},{"business_status":"OPERATIONAL","formatted_address":"Długa 69d, 30-002 Kraków","geometry":{"location":{"lat":50.0729091,"lng":19.9361566},"viewport":{"northeast":{"lat":50.07425737989272,"lng":19.93733187989272},"southwest":{"lat":50.07155772010727,"lng":19.93463222010728}}},"icon":"https://maps.gstatic.com/mapfiles/place_api/icons/v1/png_71/restaurant-71.png","icon_background_color":"#FF9E67","icon_mask_base_uri":"https://maps.gstatic.com/mapfiles/place_api/icons/v2/restaurant_pinlet","name":"Kebab Med-Cel","opening_hours":{"open_now":true},"photos":[{"height":4032,"html_attributions":["<a href=\"https://maps.google.com/maps/contrib/108770270543464544398\">Wojciech Goralczyk</a>"],"photo_reference":"AeJbb3eXqeoSKVHCxIXMI9zM8TpeJHb_0-4uoUFIoUrhXUdsfcJkyFf2BPew_XferrkApMxOSQAmIMR9JcWOB4iA7zlH0sdwpR6re5gb0mRbTCW24cS4dq46quGFOuSFcW7i4dwKFzfmYKSI9egzsLLQXM18rYMyMcAfn5T5KL4xvCFb1rB2","width":3024}],"place_id":"ChIJyTdWMwFbFkcRvyXfRQqLkp0","plus_code":{"compound_code":"3WFP+5C Kraków","global_code":"9F2X3WFP+5C"},"rating":4.1,"reference":"ChIJyTdWMwFbFkcRvyXfRQqLkp0","types":["restaurant","food","point_of_interest","establishment"],"user_ratings_total":57},{"business_status":"OPERATIONAL","formatted_address":"Basztowa 17, 31-143 Kraków","geometry":{"location":{"lat":50.066267,"lng":19.940643},"viewport":{"northeast":{"lat":50.06755637989271,"lng":19.94195602989272},"southwest":{"lat":50.06485672010727,"lng":19.93925637010728}}},"icon":"https://maps.gstatic.com/mapfiles/place_api/icons/v1/png_71/restaurant-71.png","icon_background_color":"#FF9E67","icon_mask_base_uri":"https://maps.gstatic.com/mapfiles/place_api/icons/v2/restaurant_pinlet","name":"Efes Kebab","opening_hours":{"open_now":true},"photos":[{"height":4624,"html_attributions":["<a href=\"https://maps.google.com/maps/contrib/108339226055163622780\">A Google User</a>"],"photo_reference":"AeJbb3eV13cdscyM4Uf-SbVWjIM3VNmCtOrYFLK4WxDSo_OMvbNEq8x1FlBNuPhw_Us0jV00aqNd0WASTbhIOK0iPTtMPFlX60uRcV61J-gL6wZh8PO0Nb0MYBBRTMKRsJqFi3y2HRQx4GAQzKv6JFIsRGMrCtuT0O219RoNloM5C1t3_L5Z","width":3472}],"place_id":"ChIJdzY0-A9bFkcR9uh3-pugM8w","plus_code":{"compound_code":"3W8R+G7 Kraków","global_code":"9F2X3W8R+G7"},"price_level":1,"rating":4,"reference":"ChIJdzY0-A9bFkcR9uh3-pugM8w","types":["meal_delivery","restaurant","food","point_of_interest","establishment"],"user_ratings_total":2994},{"business_status":"OPERATIONAL","formatted_address":"Ofiar Dąbia 4, 31-560 Kraków","geometry":{"location":{"lat":50.0577688,"lng":19.9744704},"viewport":{"northeast":{"lat":50.05914142989271,"lng":19.97581602989272},"southwest":{"lat":50.05644177010727,"lng":19.97311637010727}}},"icon":"https://maps.gstatic.com/mapfiles/place_api/icons/v1/png_71/restaurant-71.png","icon_background_color":"#FF9E67","icon_mask_base_uri":"https://maps.gstatic.com/mapfiles/place_api/icons/v2/restaurant_pinlet","name":"Elo Kebab!","opening_hours":{"open_now":false},"photos":[{"height":440,"html_attributions":["<a href=\"https://maps.google.com/maps/contrib/104379852096131409803\">A Google User</a>"],"photo_reference":"AeJbb3dZaI3dJ6TGvW7UiSSZA5t7rqyoc8Ln5wK4qKkeKqgczVfvjMJoUKLIEv8VwvVzjyxNB_eJNE2_DeZgOWlL6z9dAuKRby_mmExOCKOgbfGCwLjmKZYoGJwGJdGZkOcNZd_nzJzti2Ucs1yyvI1q4FEeFkKJ7ZMsYzPAWwMY7E714Jjc","width":550}],"place_id":"ChIJgYZNH9BbFkcRM22hSEhgPcA","plus_code":{"compound_code":"3X5F+4Q Kraków","global_code":"9F2X3X5F+4Q"},"price_level":1,"rating":4,"reference":"ChIJgYZNH9BbFkcRM22hSEhgPcA","types":["restaurant","food","point_of_interest","establishment"],"user_ratings_total":643},{"business_status":"OPERATIONAL","formatted_address":"31-907, Osiedle Wandy 30, 31-979 Kraków","geometry":{"location":{"lat":50.0688329,"lng":20.0523453},"viewport":{"northeast":{"lat":50.07010602989272,"lng":20.05366502989272},"southwest":{"lat":50.06740637010727,"lng":20.05096537010728}}},"icon":"https://maps.gstatic.com/mapfiles/place_api/icons/v1/png_71/restaurant-71.png","icon_background_color":"#FF9E67","icon_mask_base_uri":"https://maps.gstatic.com/mapfiles/place_api/icons/v2/restaurant_pinlet","name":"LAV Kebab","opening_hours":{"open_now":true},"photos":[{"height":3024,"html_attributions":["<a href=\"https://maps.google.com/maps/contrib/114237441529895148762\">kokaroll Kraków</a>"],"photo_reference":"AeJbb3ebb5j8RP-I4PswDj0TNIUjuLWODJC-SN78plQtbsXklEy_7AUkpgSbtXPiZzht1C5SuJr7lcuh27tcC4NSeD_1gPSelpjVaXCdy4Ggw4nhONVULQARCtdzXntgX9wkuYskaSOfs6lUKMvGhBh8veNzSJxdYZsOVJYn0Zs2JlPDAVAm","width":4032}],"place_id":"ChIJhRuiAQFFFkcRQcO_kCJFIoc","plus_code":{"compound_code":"3392+GW Kraków","global_code":"9G223392+GW"},"rating":4,"reference":"ChIJhRuiAQFFFkcRQcO_kCJFIoc","types":["restaurant","food","point_of_interest","establishment"],"user_ratings_total":297},{"business_status":"OPERATIONAL","formatted_address":"Dobrego Pasterza 107, 31-416 Kraków","geometry":{"location":{"lat":50.0886304,"lng":19.9679163},"viewport":{"northeast":{"lat":50.08991677989272,"lng":19.96928692989272},"southwest":{"lat":50.08721712010728,"lng":19.96658727010728}}},"icon":"https://maps.gstatic.com/mapfiles/place_api/icons/v1/png_71/restaurant-71.png","icon_background_color":"#FF9E67","icon_mask_base_uri":"https://maps.gstatic.com/mapfiles/place_api/icons/v2/restaurant_pinlet","name":"Magia Kebab & Falafel","opening_hours":{"open_now":true},"photos":[{"height":1844,"html_attributions":["<a href=\"https://maps.google.com/maps/contrib/112335701510202869743\">A Google User</a>"],"photo_reference":"AeJbb3d76dFpw-wGjhjlkI9gl5bmScjyCgzeSoBsX_7-GUVh7fa5nC1gD_sj3lZZKgXaFpmkFsJp9n4kSyf9aEdb8dwLNs1J5tU_i5Eblt_Dwm0Kh27Zm8rXnIXVsUQXJsjEtAGXmG8povNn9zuoO72AtddWbGYa3qsGlHujQKLOqsM0R3YB","width":4000}],"place_id":"ChIJ-fRrMWlbFkcRZRjdEtPXpSU","plus_code":{"compound_code":"3XQ9+F5 Kraków","global_code":"9F2X3XQ9+F5"},"rating":4,"reference":"ChIJ-fRrMWlbFkcRZRjdEtPXpSU","types":["restaurant","food","point_of_interest","establishment"],"user_ratings_total":123},{"business_status":"OPERATIONAL","formatted_address":"Szewska 11, 31-009 Kraków","geometry":{"location":{"lat":50.0626432,"lng":19.9348899},"viewport":{"northeast":{"lat":50.06434552989273,"lng":19.9358636},"southwest":{"lat":50.06164587010728,"lng":19.93197799999999}}},"icon":"https://maps.gstatic.com/mapfiles/place_api/icons/v1/png_71/restaurant-71.png","icon_background_color":"#FF9E67","icon_mask_base_uri":"https://maps.gstatic.com/mapfiles/place_api/icons/v2/restaurant_pinlet","name":"LENA KEBAB","opening_hours":{"open_now":true},"photos":[{"height":748,"html_attributions":["<a href=\"https://maps.google.com/maps/contrib/110830013966366437438\">A Google User</a>"],"photo_reference":"AeJbb3dl0S2Nu4zYkiHoqtmIL3xwqZzNaL9Yx8CPP5VIuJiD3FkN19cdQaGRnVLejaTgqHfNXmAHrHnhPS8parCuHEw_pWV1FQRoSQFBKzkQMtKOBom-n5dLIBxa9RoE4Bvgc-iuIXW92Nxspos7idtwqGByFdpLyJnjornLtWZYxFpTmLnW","width":750}],"place_id":"ChIJLy13oWFbFkcRbUYqLih4TP4","plus_code":{"compound_code":"3W7M+3X Kraków","global_code":"9F2X3W7M+3X"},"rating":3.9,"reference":"ChIJLy13oWFbFkcRbUYqLih4TP4","types":["restaurant","food","point_of_interest","establishment"],"user_ratings_total":76},{"business_status":"OPERATIONAL","formatted_address":"33-332, Karmelicka 21A, 33-332 Kraków","geometry":{"location":{"lat":50.0653565,"lng":19.9306629},"viewport":{"northeast":{"lat":50.06674062989273,"lng":19.93199937989272},"southwest":{"lat":50.06404097010729,"lng":19.92929972010728}}},"icon":"https://maps.gstatic.com/mapfiles/place_api/icons/v1/png_71/restaurant-71.png","icon_background_color":"#FF9E67","icon_mask_base_uri":"https://maps.gstatic.com/mapfiles/place_api/icons/v2/restaurant_pinlet","name":"Kebab Pasja","opening_hours":{"open_now":true},"photos":[{"height":1960,"html_attributions":["<a href=\"https://maps.google.com/maps/contrib/109087822755399378768\">Paweł Kaczmarczyk</a>"],"photo_reference":"AeJbb3dXjfjDIInZTZXCH9E52s8hS-ut63EK0_lcaHDVgYFiNDFdZgM6USjmdxnmRvFqT5UVn8_8GYf98_ppHN_DrW28SkUfqgZR2J9qkWgweJkNmu8Y3apdoc9V4I4giyBKDMfBndLRI4Bt3FCI2nxLS2qo-UUUV9-GXg-Wvb6DONieBH4X","width":4032}],"place_id":"ChIJ-eb9HglbFkcRa83JLSpsfVI","plus_code":{"compound_code":"3W8J+47 Kraków","global_code":"9F2X3W8J+47"},"price_level":1,"rating":3.8,"reference":"ChIJ-eb9HglbFkcRa83JLSpsfVI","types":["restaurant","food","point_of_interest","establishment"],"user_ratings_total":560},{"business_status":"OPERATIONAL","formatted_address":"plac Nowy, 31-124 Kraków","geometry":{"location":{"lat":50.0514985,"lng":19.9449317},"viewport":{"northeast":{"lat":50.05280792989272,"lng":19.94630522989272},"southwest":{"lat":50.05010827010727,"lng":19.94360557010728}}},"icon":"https://maps.gstatic.com/mapfiles/place_api/icons/v1/png_71/restaurant-71.png","icon_background_color":"#FF9E67","icon_mask_base_uri":"https://maps.gstatic.com/mapfiles/place_api/icons/v2/restaurant_pinlet","name":"Kebab Pasja","opening_hours":{"open_now":true},"photos":[{"height":4032,"html_attributions":["<a href=\"https://maps.google.com/maps/contrib/115927697291736404033\">Paweł Depukat</a>"],"photo_reference":"AeJbb3dhuohQgSXFea3PestefakP02w6VIbaplgi1vR7hz2pNxt4P7aFHLJHXZqhshTXJtKsY3kKV1j8toFMaHFPsifISx9HvOIKy61a3cNlokoFwmLsORrxdcGa0afo_55fyBWq48o94b8gmv3KVFiwt7sR-8jone69PAJovYiCtTBAa2Tc","width":3024}],"place_id":"ChIJOQZgaGpbFkcRno2ClD9D_1M","plus_code":{"compound_code":"3W2V+HX Kraków","global_code":"9F2X3W2V+HX"},"price_level":1,"rating":3.8,"reference":"ChIJOQZgaGpbFkcRno2ClD9D_1M","types":["restaurant","food","point_of_interest","establishment"],"user_ratings_total":534},{"business_status":"OPERATIONAL","formatted_address":"Witolda Budryka 5, 30-072 Kraków","geometry":{"location":{"lat":50.0688681,"lng":19.9041856},"viewport":{"northeast":{"lat":50.07012472989273,"lng":19.90573457989272},"southwest":{"lat":50.06742507010728,"lng":19.90303492010727}}},"icon":"https://maps.gstatic.com/mapfiles/place_api/icons/v1/png_71/restaurant-71.png","icon_background_color":"#FF9E67","icon_mask_base_uri":"https://maps.gstatic.com/mapfiles/place_api/icons/v2/restaurant_pinlet","name":"Kebab LUNA - MS AGH","opening_hours":{"open_now":true},"photos":[{"height":3648,"html_attributions":["<a href=\"https://maps.google.com/maps/contrib/106646937199263778238\">Piotr Tkacz</a>"],"photo_reference":"AeJbb3eL2LMW3XP22u0KrvVUrazHb6nSQeryw1uaAn_pXd_us2IGz1zLZ9smoFCUetSqT2rkIvqrDG1MjSgiLnOGnmp7Kz1CuQ9aHBmpxDSEAzRNqwLBdjq06NW_2JN8SMjMHDtwL2ZIjJXaGJ40RX5g0HlaERkKCROT1Q2w841ATS6JRLzq","width":2736}],"place_id":"ChIJleiRdbtbFkcREjVeOqqjYgE","plus_code":{"compound_code":"3W93+HM Kraków","global_code":"9F2X3W93+HM"},"price_level":1,"rating":3.8,"reference":"ChIJleiRdbtbFkcREjVeOqqjYgE","types":["restaurant","food","point_of_interest","establishment"],"user_ratings_total":387},{"business_status":"OPERATIONAL","formatted_address":"Długa 69, 31-147 Kraków","geometry":{"location":{"lat":50.072669,"lng":19.9361149},"viewport":{"northeast":{"lat":50.07401872989272,"lng":19.93733722989272},"southwest":{"lat":50.07131907010728,"lng":19.93463757010728}}},"icon":"https://maps.gstatic.com/mapfiles/place_api/icons/v1/png_71/restaurant-71.png","icon_background_color":"#FF9E67","icon_mask_base_uri":"https://maps.gstatic.com/mapfiles/place_api/icons/v2/restaurant_pinlet","name":"Premium Kebab","opening_hours":{"open_now":true},"photos":[{"height":1920,"html_attributions":["<a href=\"https://maps.google.com/maps/contrib/118189049768109647375\">A Google User</a>"],"photo_reference":"AeJbb3e5Xt-ljNwtK5qL59d6fFZXDC23EH2C0e4E8J5m-WIMEehwJEse1W6ol_OivfjPmtUx3G2SK7J6xjlS1R84z4LgnqyTmGCGloFWqzX8ZN4-7k8IcwnJRC78zvdODmeVmXPsQDc-wAiPd7qzKer-uPX4qkHWhwZpHYBQ0EAzJHF_X_Pb","width":1080}],"place_id":"ChIJ613uwp9bFkcRe7STFRj_ks4","plus_code":{"compound_code":"3WFP+3C Kraków","global_code":"9F2X3WFP+3C"},"rating":3.8,"reference":"ChIJ613uwp9bFkcRe7STFRj_ks4","types":["cafe","bar","restaurant","food","point_of_interest","establishment"],"user_ratings_total":337},{"business_status":"OPERATIONAL","formatted_address":"GALERIA KAZIMIERZ, Podgórska 34, 31-536 Kraków","geometry":{"location":{"lat":50.0538569,"lng":19.9547815},"viewport":{"northeast":{"lat":50.05515307989273,"lng":19.95571647989272},"southwest":{"lat":50.05245342010728,"lng":19.95301682010728}}},"icon":"https://maps.gstatic.com/mapfiles/place_api/icons/v1/png_71/restaurant-71.png","icon_background_color":"#FF9E67","icon_mask_base_uri":"https://maps.gstatic.com/mapfiles/place_api/icons/v2/restaurant_pinlet","name":"BERLIN DÖNER KEBAP","opening_hours":{"open_now":true},"photos":[{"height":900,"html_attributions":["<a href=\"https://maps.google.com/maps/contrib/105252575186031543251\">A Google User</a>"],"photo_reference":"AeJbb3cOHcDsG0fysxOZwLfIiUcUo-eA90AMHiOGi7GUImENfzFz4wK2H9BCFKg04BP2ckesVq5-rqcyvEoxnVgaF4rGjZcnBOkcoGiME3iTQ-r_7W0FAyGBx9odsQgFgw1E6FSFl9NKWzthEthwOKLJ994m0DDCeGH7wtlxD-FLx282TqKS","width":1200}],"place_id":"ChIJo2Z9G_JbFkcRI_z8d7TwHzo","plus_code":{"compound_code":"3X33+GW Kraków","global_code":"9F2X3X33+GW"},"price_level":2,"rating":3.8,"reference":"ChIJo2Z9G_JbFkcRI_z8d7TwHzo","types":["restaurant","food","point_of_interest","establishment"],"user_ratings_total":283},{"business_status":"OPERATIONAL","formatted_address":"Floriańska 51, 31-019 Kraków","geometry":{"location":{"lat":50.0644263,"lng":19.9411758},"viewport":{"northeast":{"lat":50.06582202989273,"lng":19.9432101},"southwest":{"lat":50.06312237010728,"lng":19.9403621}}},"icon":"https://maps.gstatic.com/mapfiles/place_api/icons/v1/png_71/restaurant-71.png","icon_background_color":"#FF9E67","icon_mask_base_uri":"https://maps.gstatic.com/mapfiles/place_api/icons/v2/restaurant_pinlet","name":"BEIRUT SHAWARMA KEBAB & FALAFEL KRAKOW","opening_hours":{"open_now":true},"photos":[{"height":4624,"html_attributions":["<a href=\"https://maps.google.com/maps/contrib/106833290849447411824\">iram.ansari8</a>"],"photo_reference":"AeJbb3eT4Uksg9yFs29PnJB1K6cgscgtgQtyYJFfBdm5H9CU4eYcYg6h-lX2m3aSbknsD-zSlNlD68ZYiHchhSZ8VQXFPW4tQyYjyhvtt7Ev48qu9wBKPc2LnoYj1SxmbKLMImTEm1-AKDaGq3hx65n6nscEe8RpJcl-Nj155ROk2kX8cSA5","width":2600}],"place_id":"ChIJwzlTJRBbFkcRNVWADRSiODc","plus_code":{"compound_code":"3W7R+QF Kraków","global_code":"9F2X3W7R+QF"},"price_level":2,"rating":3.7,"reference":"ChIJwzlTJRBbFkcRNVWADRSiODc","types":["restaurant","food","point_of_interest","establishment"],"user_ratings_total":712},{"business_status":"OPERATIONAL","formatted_address":"Park Handlowy Zakopianka, Zakopiańska 62, 30-418 Kraków","geometry":{"location":{"lat":50.0147663,"lng":19.9331481},"viewport":{"northeast":{"lat":50.01620302989272,"lng":19.93452337989272},"southwest":{"lat":50.01350337010728,"lng":19.93182372010728}}},"icon":"https://maps.gstatic.com/mapfiles/place_api/icons/v1/png_71/restaurant-71.png","icon_background_color":"#FF9E67","icon_mask_base_uri":"https://maps.gstatic.com/mapfiles/place_api/icons/v2/restaurant_pinlet","name":"BERLIN DÖNER KEBAP","opening_hours":{"open_now":true},"photos":[{"height":2049,"html_attributions":["<a href=\"https://maps.google.com/maps/contrib/102345339367548593651\">A Google User</a>"],"photo_reference":"AeJbb3cVadPsmCdI6iqNHigibo9gh-TQ7mosJWoFDqdOSh5GwV_6Mza3o89aHIVurvByp9j1oPeClPyOBEF78nlorOfvL4M3pQc5G8_3LAxJ-3JeL_HGFKpKQLIFArj2F4fCE3SFEZz0_ItNsGrA50VpSL8TQ1hiJtLQ545TuknJDk6dN0J4","width":2049}],"place_id":"ChIJ_f9qebhcFkcRryEbH0g8Ds8","plus_code":{"compound_code":"2W7M+W7 Kraków","global_code":"9F2X2W7M+W7"},"price_level":2,"rating":3.7,"reference":"ChIJ_f9qebhcFkcRryEbH0g8Ds8","types":["restaurant","food","point_of_interest","establishment"],"user_ratings_total":342},{"business_status":"OPERATIONAL","formatted_address":"Szewska 15, 31-009 Kraków","geometry":{"location":{"lat":50.0627155,"lng":19.9347427},"viewport":{"northeast":{"lat":50.06437752989272,"lng":19.93563935},"southwest":{"lat":50.06167787010727,"lng":19.93205274999999}}},"icon":"https://maps.gstatic.com/mapfiles/place_api/icons/v1/png_71/restaurant-71.png","icon_background_color":"#FF9E67","icon_mask_base_uri":"https://maps.gstatic.com/mapfiles/place_api/icons/v2/restaurant_pinlet","name":"Kebab i Pizza - Jak Dawniej","opening_hours":{"open_now":true},"photos":[{"height":3000,"html_attributions":["<a href=\"https://maps.google.com/maps/contrib/108874287845784185854\">Jakub Budzyński</a>"],"photo_reference":"AeJbb3cC5JuPmBSDdwXGNn_6vZ5VI2wgs_-r1gVHyK19FZWFyrty-15iRwP7IrBAdOWnFCWmErWfqHwbC2fMflkS0GFqH1QhLx7rLWKGmbDuPr-IVSS7e3sYAPV-51n3j5Mz4hEm9ZhhmInrLD6nZ2SUS_v2xUd1FpmIEoCVOSAVBnItvcw","width":4000}],"place_id":"ChIJOZ7yeytbFkcRo8l6qzddW2w","plus_code":{"compound_code":"3W7M+3V Kraków","global_code":"9F2X3W7M+3V"},"rating":3.7,"reference":"ChIJOZ7yeytbFkcRo8l6qzddW2w","types":["bar","meal_takeaway","restaurant","food","point_of_interest","establishment"],"user_ratings_total":207},{"business_status":"OPERATIONAL","formatted_address":"Pawia 5, 31-154 Kraków","geometry":{"location":{"lat":50.068048,"lng":19.9460456},"viewport":{"northeast":{"lat":50.06941077989272,"lng":19.94698232989272},"southwest":{"lat":50.06671112010728,"lng":19.94428267010727}}},"icon":"https://maps.gstatic.com/mapfiles/place_api/icons/v1/png_71/restaurant-71.png","icon_background_color":"#FF9E67","icon_mask_base_uri":"https://maps.gstatic.com/mapfiles/place_api/icons/v2/restaurant_pinlet","name":"Berlin Döner Kebap","opening_hours":{"open_now":true},"photos":[{"height":4032,"html_attributions":["<a href=\"https://maps.google.com/maps/contrib/117490248793586229178\">A Google User</a>"],"photo_reference":"AeJbb3dPaVjcdFPefpTRLaIK5Ig2i8H62393wWF2NC9I32QG13WQtqXDKdOFrFD849m-08sYEm0DRW6Os1tSz17Wt3PnzgWirQGBCRHk3W_ynxoUj_AGVA_j1QpSw5b0Rvmcp6pJNBCVrr2t3hTPIlvNeunA5132TjNsNNpg8AOJNZNXPdTt","width":3024}],"place_id":"ChIJR_1d3gNbFkcRa7FGExTSAXI","plus_code":{"compound_code":"3W9W+6C Kraków","global_code":"9F2X3W9W+6C"},"rating":3.6,"reference":"ChIJR_1d3gNbFkcRa7FGExTSAXI","types":["restaurant","food","point_of_interest","establishment"],"user_ratings_total":244},{"business_status":"OPERATIONAL","formatted_address":"Osiedle 2 Pułku Lotniczego 1, 31-867 Kraków","geometry":{"location":{"lat":50.0793191,"lng":20.0107288},"viewport":{"northeast":{"lat":50.08078212989272,"lng":20.01214202989272},"southwest":{"lat":50.07808247010728,"lng":20.00944237010728}}},"icon":"https://maps.gstatic.com/mapfiles/place_api/icons/v1/png_71/restaurant-71.png","icon_background_color":"#FF9E67","icon_mask_base_uri":"https://maps.gstatic.com/mapfiles/place_api/icons/v2/restaurant_pinlet","name":"GRILL&KEBAB","opening_hours":{"open_now":true},"photos":[{"height":3025,"html_attributions":["<a href=\"https://maps.google.com/maps/contrib/100926093708461677049\">A Google User</a>"],"photo_reference":"AeJbb3e2N96hdpoXrf5ZKDWcV4l627oqb8G8AGnMkIdACb3Gd59W32amq8Q5eEsOMSmW8rMF7DsvDf0_gBfSXWIu0xchU3b4FfHPO1elkfTxJEdij9YqDpvDURZ8vyPA1cZt09ngOBVhmULpz8T-uNdd4F6-NQx38H175EtXgeh3Kz9-qjEt","width":3024}],"place_id":"ChIJOdZEyDxFFkcR6Ot8kzqq6ys","plus_code":{"compound_code":"32H6+P7 Kraków","global_code":"9G2232H6+P7"},"rating":3.6,"reference":"ChIJOdZEyDxFFkcR6Ot8kzqq6ys","types":["restaurant","food","point_of_interest","establishment"],"user_ratings_total":11},{"business_status":"OPERATIONAL","formatted_address":"Kordiana 5, 30-653 Kraków","geometry":{"location":{"lat":50.0134181,"lng":19.9657388},"viewport":{"northeast":{"lat":50.01481637989273,"lng":19.96706172989272},"southwest":{"lat":50.01211672010728,"lng":19.96436207010728}}},"icon":"https://maps.gstatic.com/mapfiles/place_api/icons/v1/png_71/restaurant-71.png","icon_background_color":"#FF9E67","icon_mask_base_uri":"https://maps.gstatic.com/mapfiles/place_api/icons/v2/restaurant_pinlet","name":"Kebab - zestawy z kurczakiem","opening_hours":{"open_now":true},"photos":[{"height":2592,"html_attributions":["<a href=\"https://maps.google.com/maps/contrib/114178540030718582245\">A Google User</a>"],"photo_reference":"AeJbb3cw10c09gIdolp5qjMH44HdaRmk1OTQuHPIez7Cwh8tKaUYjhF_HJKWLrt1f7y4B3QbDDi-UfuLhgsvWvu5dO-QaeRzEQ3ia43EPaBIQh0TgRJo4guwLWa4bh7CzUWW43eItY6hwhO96yw5sXq4-r0srTQgEeeeA30kVYNkmOb1EcoB","width":4608}],"place_id":"ChIJnQrRtkhDFkcRGHRMO4q2Ufo","plus_code":{"compound_code":"2X78+97 Kraków","global_code":"9F2X2X78+97"},"price_level":2,"rating":3.5,"reference":"ChIJnQrRtkhDFkcRGHRMO4q2Ufo","types":["restaurant","food","point_of_interest","establishment"],"user_ratings_total":327},{"business_status":"OPERATIONAL","formatted_address":"Nad Dłubnią, 31-752 Kraków","geometry":{"location":{"lat":50.0890344,"lng":20.0385714},"viewport":{"northeast":{"lat":50.09045862989272,"lng":20.03992132989272},"southwest":{"lat":50.08775897010728,"lng":20.03722167010728}}},"icon":"https://maps.gstatic.com/mapfiles/place_api/icons/v1/png_71/restaurant-71.png","icon_background_color":"#FF9E67","icon_mask_base_uri":"https://maps.gstatic.com/mapfiles/place_api/icons/v2/restaurant_pinlet","name":"Kebab KNYSZA","opening_hours":{"open_now":true},"photos":[{"height":4032,"html_attributions":["<a href=\"https://maps.google.com/maps/contrib/110562491488148824486\">Sławomir Jurek</a>"],"photo_reference":"AeJbb3eE5Er28VWtk3o-zxWqj8y7rJFiYZkJzNyGrkZJGZxeumhyeKE3A4lYXJCHvDyNuSZdOcbvvlTjkNYuaGYhALr2MDmblEvtd9fnkpfgqDDQ-fDaeAgeIFGuuKeH-RjhrpfWc6Htfjot_vnD3WEsm5rM44xH4Yharx-Rlz1tjL-RuP5O","width":3024}],"place_id":"ChIJx3cnLOlFFkcRnCMf6wtUh4U","plus_code":{"compound_code":"32QQ+JC Kraków","global_code":"9G2232QQ+JC"},"rating":3.5,"reference":"ChIJx3cnLOlFFkcRnCMf6wtUh4U","types":["restaurant","food","point_of_interest","establishment"],"user_ratings_total":8},{"business_status":"OPERATIONAL","formatted_address":"DH Wanda, 31-852 Kraków","geometry":{"location":{"lat":50.0841502,"lng":20.0204064},"viewport":{"northeast":{"lat":50.08550002989271,"lng":20.02175622989272},"southwest":{"lat":50.08280037010726,"lng":20.01905657010728}}},"icon":"https://maps.gstatic.com/mapfiles/place_api/icons/v1/png_71/restaurant-71.png","icon_background_color":"#FF9E67","icon_mask_base_uri":"https://maps.gstatic.com/mapfiles/place_api/icons/v2/restaurant_pinlet","name":"Kebab Samara","opening_hours":{"open_now":true},"photos":[{"height":2248,"html_attributions":["<a href=\"https://maps.google.com/maps/contrib/103716677028753919370\">A Google User</a>"],"photo_reference":"AeJbb3eJL6Jheiqbkj_HebH-3S5sG6NRakbhrjCwZQqiaN7tzKEGUN3noRDj8MiApQbzws0Eka4sYZ2XN_6WWoBT7KMBnZAuobN-DqmJRTSWnqnhlCJrw4He2lyoj9rFl0sJhoErBVDobwBCUp0Ri0gIzKbpiBGsNUrB1XsLoXCWwbf-sE0Z","width":4000}],"place_id":"ChIJbRqpxzxFFkcRx_TXiLKCEPI","plus_code":{"compound_code":"32MC+M5 Kraków","global_code":"9G2232MC+M5"},"price_level":1,"rating":3.3,"reference":"ChIJbRqpxzxFFkcRx_TXiLKCEPI","types":["restaurant","food","point_of_interest","establishment"],"user_ratings_total":182},{"business_status":"OPERATIONAL","formatted_address":"Pawia 18, 31-154 Kraków","geometry":{"location":{"lat":50.0672126,"lng":19.9449731},"viewport":{"northeast":{"lat":50.06855992989271,"lng":19.94637777989272},"southwest":{"lat":50.06586027010727,"lng":19.94367812010728}}},"icon":"https://maps.gstatic.com/mapfiles/place_api/icons/v1/png_71/restaurant-71.png","icon_background_color":"#FF9E67","icon_mask_base_uri":"https://maps.gstatic.com/mapfiles/place_api/icons/v2/restaurant_pinlet","name":"Bafra Kebab Kraków","opening_hours":{"open_now":true},"photos":[{"height":2736,"html_attributions":["<a href=\"https://maps.google.com/maps/contrib/111505512546042172610\">A Google User</a>"],"photo_reference":"AeJbb3c-cP-0G-i01YmeV82_-bMXnIeqRU6272FvKnhxpw1yW5YBGnWQ4AXI8umQcrfumO7VhAiX0dReykYEZkkIpyEn8ZLgFYBdY9Ki2ceI6_4um70-ecQDUyKdreWSDHJ3OU3L8H-v6VNocjwNc8SWPuVJKbVp5nen48czx1e127BZ7HA1","width":3648}],"place_id":"ChIJm2e4tGdbFkcRSL7IoL_1ZMw","plus_code":{"compound_code":"3W8V+VX Kraków","global_code":"9F2X3W8V+VX"},"price_level":1,"rating":3.3,"reference":"ChIJm2e4tGdbFkcRSL7IoL_1ZMw","types":["meal_takeaway","restaurant","food","point_of_interest","establishment"],"user_ratings_total":116},{"business_status":"OPERATIONAL","formatted_address":"Pawia 5, 31-154 Kraków","geometry":{"location":{"lat":50.06806599999999,"lng":19.9463318},"viewport":{"northeast":{"lat":50.06943317989271,"lng":19.94712642989272},"southwest":{"lat":50.06673352010727,"lng":19.94442677010728}}},"icon":"https://maps.gstatic.com/mapfiles/place_api/icons/v1/png_71/restaurant-71.png","icon_background_color":"#FF9E67","icon_mask_base_uri":"https://maps.gstatic.com/mapfiles/place_api/icons/v2/restaurant_pinlet","name":"Sevi Kebab - Galeria Krakowska","opening_hours":{"open_now":true},"photos":[{"height":4032,"html_attributions":["<a href=\"https://maps.google.com/maps/contrib/110634360289033376861\">violetta laskorda</a>"],"photo_reference":"AeJbb3dhCNrohKRua8gsrmxhZLuJ7ln3LQsph2C4b9Ba8uzj4I2hANAcyYT52Ddj3l_EknQpme18VKYSX3GVOxvI_N3XkMzEC85xDwM7KQJFvLZY9y7ePcrmm4o0X7zT0BFZU5EpJVbBhpEdBsLTZU5Osi3BOt71GCTPiUm6U3oPLT0-FjoV","width":3024}],"place_id":"ChIJdwdtixpbFkcR3BIlH8vR4wU","plus_code":{"compound_code":"3W9W+6G Kraków","global_code":"9F2X3W9W+6G"},"price_level":2,"rating":3.2,"reference":"ChIJdwdtixpbFkcR3BIlH8vR4wU","types":["restaurant","food","point_of_interest","establishment"],"user_ratings_total":255},{"business_status":"OPERATIONAL","formatted_address":"FUTURA PARK, profesora Adama Rożańskiego 32, 32-089 Modlniczka","geometry":{"location":{"lat":50.1093973,"lng":19.8455326},"viewport":{"northeast":{"lat":50.11103562989273,"lng":19.84692297989272},"southwest":{"lat":50.10833597010728,"lng":19.84422332010728}}},"icon":"https://maps.gstatic.com/mapfiles/place_api/icons/v1/png_71/restaurant-71.png","icon_background_color":"#FF9E67","icon_mask_base_uri":"https://maps.gstatic.com/mapfiles/place_api/icons/v2/restaurant_pinlet","name":"BERLIN DÖNER KEBAP","opening_hours":{"open_now":true},"photos":[{"height":900,"html_attributions":["<a href=\"https://maps.google.com/maps/contrib/103580453334753827655\">A Google User</a>"],"photo_reference":"AeJbb3cDErDXeKs9hHMKMeUm4lPl2Bhy64W4fYsWWXDUwyCtmESugVO8ZpPGpO3U1rW58KZ-9yhWkar_LXijLpjmFjZ1aOyrW6P1DQU_35WoE1ChjckkFRQ1--01NkgzBL2KpRYYaCl2OWxNZIz1C1QPTkE76ygRay_ZNWceqNjHTM7k_WHm","width":1200}],"place_id":"ChIJ59HdGbpZFkcRYizyhVgUpQg","plus_code":{"compound_code":"4R5W+Q6 Modlniczka","global_code":"9F2X4R5W+Q6"},"price_level":2,"rating":3.2,"reference":"ChIJ59HdGbpZFkcRYizyhVgUpQg","types":["restaurant","food","point_of_interest","establishment"],"user_ratings_total":130},{"business_status":"OPERATIONAL","formatted_address":"Henryka Kamieńskiego 11, 30-644 Kraków","geometry":{"location":{"lat":50.0289174,"lng":19.9526783},"viewport":{"northeast":{"lat":50.03031472989272,"lng":19.95452742989272},"southwest":{"lat":50.02761507010727,"lng":19.95182777010728}}},"icon":"https://maps.gstatic.com/mapfiles/place_api/icons/v1/png_71/restaurant-71.png","icon_background_color":"#FF9E67","icon_mask_base_uri":"https://maps.gstatic.com/mapfiles/place_api/icons/v2/restaurant_pinlet","name":"Sevi Kebab Oriental","opening_hours":{"open_now":true},"photos":[{"height":4032,"html_attributions":["<a href=\"https://maps.google.com/maps/contrib/114995335615287735028\">Людмила Бондаренко</a>"],"photo_reference":"AeJbb3c4hQq4S4hxChr2KPDJ0QRhWXTbcIAmpU69lmSZ6x71ENUj15xz05vwPB3sonPY-Sbbaeq0EKKJb1JjaG34WWmw28aD32V0iGABXN-FiSkWM97E5uUeAbUOmN-P_tco1E95zm64ivqCDWcy3mSq-J2G5a3msT59Us9nJ4pisHEXtOFL","width":3024}],"place_id":"ChIJRSw03ahcFkcRaVo9l0lxfWM","plus_code":{"compound_code":"2XH3+H3 Kraków","global_code":"9F2X2XH3+H3"},"price_level":2,"rating":3.1,"reference":"ChIJRSw03ahcFkcRaVo9l0lxfWM","types":["restaurant","food","point_of_interest","establishment"],"user_ratings_total":237},{"business_status":"OPERATIONAL","formatted_address":"Szewska 21, 31-009 Kraków","geometry":{"location":{"lat":50.0629166,"lng":19.93433},"viewport":{"northeast":{"lat":50.06446712989273,"lng":19.9350203},"southwest":{"lat":50.06176747010728,"lng":19.93225909999999}}},"icon":"https://maps.gstatic.com/mapfiles/place_api/icons/v1/png_71/restaurant-71.png","icon_background_color":"#FF9E67","icon_mask_base_uri":"https://maps.gstatic.com/mapfiles/place_api/icons/v2/restaurant_pinlet","name":"Kebab Faraon","opening_hours":{"open_now":true},"photos":[{"height":4608,"html_attributions":["<a href=\"https://maps.google.com/maps/contrib/114580707270313430380\">Artur Kitliński</a>"],"photo_reference":"AeJbb3fJyd9txGbeSaY5C-3WpE5xHsZxSJn20s1LbBu8N-ykO29o8JDPip72Mhf8ONYRr1lSCQ2Y6Kj2uWOu5h-4Cni7W8TIuDC0Q1IH64aaWTwDYAybcNGSZ1HpxMpToHlGzvjHti1qp-lfHPXEKSbeQnRCGBt4M-QRGLWpihGgXH-pfrko","width":3456}],"place_id":"ChIJq_GhiA5bFkcRB4a4ypTaVNY","plus_code":{"compound_code":"3W7M+5P Kraków","global_code":"9F2X3W7M+5P"},"rating":2.4,"reference":"ChIJq_GhiA5bFkcRB4a4ypTaVNY","types":["restaurant","food","point_of_interest","establishment"],"user_ratings_total":307},{"business_status":"OPERATIONAL","formatted_address":"Floriańska 3, 33-332 Kraków","geometry":{"location":{"lat":50.0621719,"lng":19.9394849},"viewport":{"northeast":{"lat":50.06338317989272,"lng":19.94131627989272},"southwest":{"lat":50.06068352010728,"lng":19.93861662010728}}},"icon":"https://maps.gstatic.com/mapfiles/place_api/icons/v1/png_71/restaurant-71.png","icon_background_color":"#FF9E67","icon_mask_base_uri":"https://maps.gstatic.com/mapfiles/place_api/icons/v2/restaurant_pinlet","name":"Kebab Floriańska 3","photos":[{"height":3024,"html_attributions":["<a href=\"https://maps.google.com/maps/contrib/105650497634562388898\">stokrotka556</a>"],"photo_reference":"AeJbb3dqXZH7KMY3btWvdAO2d5VvzYwhiQUQ4tIo5niV0sYLnoC4nd7xAOLzHBInmuTpJBozcnEyi5BAQeWlcz7cRaa1WbFQ2E_oWxl6AUAHkMx1uRSl2YgKtYHnp9F-EXK8aG-rEnaxEItFL996DGsJjL_vVhH9eD92MBBLAnlmkqyiLp2M","width":4032}],"place_id":"ChIJZbP5Vw1bFkcRzgIRRjyUc7w","plus_code":{"compound_code":"3W6Q+VQ Kraków","global_code":"9F2X3W6Q+VQ"},"rating":2.4,"reference":"ChIJZbP5Vw1bFkcRzgIRRjyUc7w","types":["restaurant","food","point_of_interest","establishment"],"user_ratings_total":63},{"business_status":"OPERATIONAL","formatted_address":"Krupnicza 7, Kraków","geometry":{"location":{"lat":50.0635849,"lng":19.931071},"viewport":{"northeast":{"lat":50.06487787989272,"lng":19.93206767989272},"southwest":{"lat":50.06217822010727,"lng":19.92936802010728}}},"icon":"https://maps.gstatic.com/mapfiles/place_api/icons/v1/png_71/restaurant-71.png","icon_background_color":"#FF9E67","icon_mask_base_uri":"https://maps.gstatic.com/mapfiles/place_api/icons/v2/restaurant_pinlet","name":"City Kebab","place_id":"ChIJ0dzRTQlbFkcRckIEwXq6kKo","plus_code":{"compound_code":"3W7J+CC Kraków","global_code":"9F2X3W7J+CC"},"rating":1,"reference":"ChIJ0dzRTQlbFkcRckIEwXq6kKo","types":["restaurant","food","point_of_interest","establishment"],"user_ratings_total":4}]