[{"business_status":"OPERATIONAL","formatted_address":"Brzozowa 8, 31-050 Kraków","geometry":{"location":{"lat":50.0540284,"lng":19.9448445},"viewport":{"northeast":{"lat":50.05530857989272,"lng":19.94614832989272},"southwest":{"lat":50.05260892010728,"lng":19.94344867010728}}},"icon":"https://maps.gstatic.com/mapfiles/place_api/icons/v1/png_71/restaurant-71.png","icon_background_color":"#FF9E67","icon_mask_base_uri":"https://maps.gstatic.com/mapfiles/place_api/icons/v2/restaurant_pinlet","name":"Pyszne Pierogi z Dostawą do Domu","opening_hours":{"open_now":true},"photos":[{"height":563,"html_attributions":["<a href=\"https://maps.google.com/maps/contrib/108573148090306212664\">A Google User</a>"],"photo_reference":"AeJbb3fZv5w9REq6bN3SZA1o-TKaY5PqeNTDGeFVSkpSw3D8zHodcsEDav2FRhyW9hMnQysSy6wDeqavcK9ZXG6hQm1mQdh48JorHWTFUmkkLFs2VkrE8eeZTsYUVLud4WGO9Dn66aQ9_3wXj6G4z1P647ASzLQNiEVYE2xcKeSaxtiqk6m8","width":1000}],"place_id":"ChIJs9degDVbFkcRqfySQ9f2atE","plus_code":{"compound_code":"3W3V+JW Kraków","global_code":"9F2X3W3V+JW"},"rating":5,"reference":"ChIJs9degDVbFkcRqfySQ9f2atE","types":["meal_delivery","meal_takeaway","restaurant","food","point_of_interest","establishment"],"user_ratings_total":10},{"business_status":"OPERATIONAL","formatted_address":"Sulechów 108, 32-010 Kocmyrzów","geometry":{"location":{"lat":50.1302934,"lng":20.1062531},"viewport":{"northeast":{"lat":50.13157117989272,"lng":20.10773352989272},"southwest":{"lat":50.12887152010727,"lng":20.10503387010728}}},"icon":"https://maps.gstatic.com/mapfiles/place_api/icons/v1/png_71/restaurant-71.png","icon_background_color":"#FF9E67","icon_mask_base_uri":"https://maps.gstatic.com/mapfiles/place_api/icons/v2/restaurant_pinlet","name":"Tomasz Frączek FIRMA WIELOBRANŻOWA \"KROKUS\"","opening_hours":{"open_now":true},"photos":[{"height":4032,"html_attributions":["<a href=\"https://maps.google.com/maps/contrib/113746897607305641849\">Tomasz Kawula</a>"],"photo_reference":"AeJbb3dAVOoYhJzdvutXYjszgrBzER59wlhFoOYdzh_FTkVRL3nXwwZbWweObyD9LDtzsJZIpXfSH2hEs0FirXz0gv1ejnTW_MsZ2mL7M10vDCdUszXtKbQd-i0TE8a5wGcjfr0Tlsdn8I8cpKYR8IRXF4_nONpALyearNOYE_Hq_FKH5sqX","width":3024}],"place_id":"ChIJURAPZLhPFkcRKgKdWI81zzo","plus_code":{"compound_code":"44J4+4G Kocmyrzów","global_code":"9G2244J4+4G"},"rating":5,"reference":"ChIJURAPZLhPFkcRKgKdWI81zzo","types":["restaurant","food","point_of_interest","establishment"],"user_ratings_total":5},{"business_status":"OPERATIONAL","formatted_address":"Zwierzyniecka 8, 31-102 Kraków","geometry":{"location":{"lat":50.0581599,"lng":19.9320367},"viewport":{"northeast":{"lat":50.05954822989272,"lng":19.93342037989272},"southwest":{"lat":50.05684857010728,"lng":19.93072072010727}}},"icon":"https://maps.gstatic.com/mapfiles/place_api/icons/v1/png_71/restaurant-71.png","icon_background_color":"#FF9E67","icon_mask_base_uri":"https://maps.gstatic.com/mapfiles/place_api/icons/v2/restaurant_pinlet","name":"BENTO dania świata","opening_hours":{"open_now":true},"photos":[{"height":4000,"html_attributions":["<a href=\"https://maps.google.com/maps/contrib/106656512069303752520\">A Google User</a>"],"photo_reference":"AeJbb3cTz6fGz94LjeLfFeqIE6NUrpRK4l_aBSh2p0-NmvJXguVGKG1p9N5UdGZoA_WqrHqpo5oSGLpJoZt8gOC2IJ99_S4aOPDQEQzRR8rrjbT17c2txwtvglBAlHgXedHsbAsCgxc5UnKvTKM6ZSnPyHaGUAny8Fxgw_PDwg-ZklNCE6Lr","width":2992}],"place_id":"ChIJeYNZGsBbFkcRDeX9UowhFmo","plus_code":{"compound_code":"3W5J+7R Kraków","global_code":"9F2X3W5J+7R"},"rating":4.7,"reference":"ChIJeYNZGsBbFkcRDeX9UowhFmo","types":["restaurant","food","point_of_interest","establishment"],"user_ratings_total":274},{"business_status":"OPERATIONAL","formatted_address":"Grzegórzecka 69, 31-559 Kraków","geometry":{"location":{"lat":50.0565565,"lng":19.9609187},"viewport":{"northeast":{"lat":50.05802727989273,"lng":19.96234242989272},"southwest":{"lat":50.05532762010728,"lng":19.95964277010728}}},"icon":"https://maps.gstatic.com/mapfiles/place_api/icons/v1/png_71/restaurant-71.png","icon_background_color":"#FF9E67","icon_mask_base_uri":"https://maps.gstatic.com/mapfiles/place_api/icons/v2/restaurant_pinlet","name":"Phong Hai","opening_hours":{"open_now":true},"photos":[{"height":2340,"html_attributions":["<a href=\"https://maps.google.com/maps/contrib/108504245855684751895\">Łukasz Dzięgielewski</a>"],"photo_reference":"AeJbb3ceRPe19OFm6sUZ7jfIGtmp6g_neTov4jVBQiD0_XuXdG2y3yw9Rf4VdFuDBWFfhOJYyUf_2nYljDeVupZ4IhqGhTi6iNSSgR4ldHMfjS6G8owSTt7TuLb8wluUqRBPA38c3dvyrO4LJ1-FZLhmbE8op6f9IcqR_B5fsF8JXJR4ELQU","width":4160}],"place_id":"ChIJeZddgTlbFkcRM6NVCy-HkpA","plus_code":{"compound_code":"3X46+J9 Kraków","global_code":"9F2X3X46+J9"},"price_level":1,"rating":4.3,"reference":"ChIJeZddgTlbFkcRM6NVCy-HkpA","types":["meal_delivery","restaurant","food","point_of_interest","establishment"],"user_ratings_total":1300},{"business_status":"OPERATIONAL","formatted_address":"Józefa Mackiewicza 14B, 31-214 Kraków","geometry":{"location":{"lat":50.0936062,"lng":19.9445341},"viewport":{"northeast":{"lat":50.09498157989272,"lng":19.94597222989272},"southwest":{"lat":50.09228192010728,"lng":19.94327257010728}}},"icon":"https://maps.gstatic.com/mapfiles/place_api/icons/v1/png_71/restaurant-71.png","icon_background_color":"#FF9E67","icon_mask_base_uri":"https://maps.gstatic.com/mapfiles/place_api/icons/v2/restaurant_pinlet","name":"China Palace","opening_hours":{"open_now":true},"photos":[{"height":2848,"html_attributions":["<a href=\"https://maps.google.com/maps/contrib/103952783109080470577\">A Google User</a>"],"photo_reference":"AeJbb3fu4OOKiZTLECPW_p3KUf9WeIJLr5GZQ1EKtnloIYdfx_qws2mEuSnB6qNk5M2C6N646a7hUKH0edR2qXmIPWhwjfNHB46CURIrMEUko0ouHnE4wHycwbviayGIKqtCQlpuSJrfKSzEhDerRmQJumVLA6w7V87mGG-U3O_UC6qWEG8c","width":4288}],"place_id":"ChIJCXYPQV9aFkcRQYYy1LH7l7I","plus_code":{"compound_code":"3WVV+CR Kraków","global_code":"9F2X3WVV+CR"},"price_level":2,"rating":4,"reference":"ChIJCXYPQV9aFkcRQYYy1LH7l7I","types":["restaurant","food","point_of_interest","establishment"],"user_ratings_total":822}]