[{"business_status":"OPERATIONAL","formatted_address":"Palmotićeva ul. 2, 10000, Zagreb","geometry":{"location":{"lat":45.8132229,"lng":15.9814499},"viewport":{"northeast":{"lat":45.81457582989272,"lng":15.98287607989272},"southwest":{"lat":45.81187617010728,"lng":15.98017642010728}}},"icon":"https://maps.gstatic.com/mapfiles/place_api/icons/v1/png_71/restaurant-71.png","icon_background_color":"#FF9E67","icon_mask_base_uri":"https://maps.gstatic.com/mapfiles/place_api/icons/v2/restaurant_pinlet","name":"Soho","photos":[{"height":4032,"html_attributions":["<a href=\"https://maps.google.com/maps/contrib/102894197790373771980\">Alin Alexandru</a>"],"photo_reference":"AeJbb3dS91H1eFcET_KrkDLrHgqiVGh3IXMQ3sZdVmQy42P3leiIJEsXEuOudOc12gfyjWq1-CQ-2mbqxk6sDT97hjBRMlhrFLJngeRt74svNy6f0p0OVcvGdizcYjIYpwdNpb4pfMw1KWRnUZQLivUx4AeM-gjgY7J9Q9Fl7PRawvFsXdKp","width":3024}],"place_id":"ChIJz4D8mzHXZUcRF7cpRgWovwQ","plus_code":{"compound_code":"RX7J+7H Zagreb","global_code":"8FQQRX7J+7H"},"rating":5,"reference":"ChIJz4D8mzHXZUcRF7cpRgWovwQ","types":["restaurant","food","point_of_interest","establishment"],"user_ratings_total":3},{"business_status":"OPERATIONAL","formatted_address":"Amruševa ul. 8, 10000, Zagreb","geometry":{"location":{"lat":45.8115777,"lng":15.9808103},"viewport":{"northeast":{"lat":45.81297662989272,"lng":15.98215557989272},"southwest":{"lat":45.81027697010728,"lng":15.97945592010728}}},"icon":"https://maps.gstatic.com/mapfiles/place_api/icons/v1/png_71/restaurant-71.png","icon_background_color":"#FF9E67","icon_mask_base_uri":"https://maps.gstatic.com/mapfiles/place_api/icons/v2/restaurant_pinlet","name":"Soul Food Club Restaurant","place_id":"ChIJcYKSE43XZUcRUKM66BRSDbA","plus_code":{"compound_code":"RX6J+J8 Zagreb","global_code":"8FQQRX6J+J8"},"rating":5,"reference":"ChIJcYKSE43XZUcRUKM66BRSDbA","types":["restaurant","food","point_of_interest","establishment"],"user_ratings_total":2},{"business_status":"OPERATIONAL","formatted_address":"Ul. Eugena Podaupskog bb, 10000, Zagreb","geometry":{"location":{"lat":45.8069785,"lng":16.0038211},"viewport":{"northeast":{"lat":45.80846737989272,"lng":16.00501477989273},"southwest":{"lat":45.80576772010727,"lng":16.00231512010728}}},"icon":"https://maps.gstatic.com/mapfiles/place_api/icons/v1/png_71/restaurant-71.png","icon_background_color":"#FF9E67","icon_mask_base_uri":"https://maps.gstatic.com/mapfiles/place_api/icons/v2/restaurant_pinlet","name":"Mestar Klub","place_id":"ChIJcQmGbSLXZUcRcgZeqp-RIR0","plus_code":{"compound_code":"R243+QG Zagreb","global_code":"8FQRR243+QG"},"rating":5,"reference":"ChIJcQmGbSLXZUcRcgZeqp-RIR0","types":["restaurant","food","point_of_interest","establishment"],"user_ratings_total":1},{"business_status":"OPERATIONAL","formatted_address":"Mokrička ul. 37, 10290, Zaprešić","geometry":{"location":{"lat":45.86513619999999,"lng":15.7925439},"viewport":{"northeast":{"lat":45.86646757989273,"lng":15.79391872989272},"southwest":{"lat":45.86376792010729,"lng":15.79121907010728}}},"icon":"https://maps.gstatic.com/mapfiles/place_api/icons/v1/png_71/restaurant-71.png","icon_background_color":"#FF9E67","icon_mask_base_uri":"https://maps.gstatic.com/mapfiles/place_api/icons/v2/restaurant_pinlet","name":"High Club","opening_hours":{"open_now":true},"place_id":"ChIJgZeZwCDPZUcRTK-GQgFENVE","plus_code":{"compound_code":"VQ8V+32 Zaprešić","global_code":"8FQQVQ8V+32"},"rating":5,"reference":"ChIJgZeZwCDPZUcRTK-GQgFENVE","types":["restaurant","liquor_store","bar","food","store","point_of_interest","establishment"],"user_ratings_total":1},{"business_status":"OPERATIONAL","formatted_address":"Ul. Franje Račkog 11, 10000, Zagreb","geometry":{"location":{"lat":45.810771,"lng":15.9861714},"viewport":{"northeast":{"lat":45.81206882989272,"lng":15.98745377989272},"southwest":{"lat":45.80936917010727,"lng":15.98475412010728}}},"icon":"https://maps.gstatic.com/mapfiles/place_api/icons/v1/png_71/restaurant-71.png","icon_background_color":"#FF9E67","icon_mask_base_uri":"https://maps.gstatic.com/mapfiles/place_api/icons/v2/restaurant_pinlet","name":"Restoran HAS","opening_hours":{"open_now":false},"photos":[{"height":575,"html_attributions":["<a href=\"https://maps.google.com/maps/contrib/114862700092618752480\">A Google User</a>"],"photo_reference":"AeJbb3d2f8zlXw_rCkTc_G-z5HII5XE55i2I1_EvUpuVdg8sRpuykGQ7Xop1KYtBvzdrxVHB7vyzrEPyEYPwMHQb9Mb0CIngsDueHvQHkz18uOJ7niMfLZ90vBvuvTPj375T5ugX7Jtg2bncPIu0syvwQlPgjYNkyFpGEHfbLv2A4thhl2Rl","width":1024}],"place_id":"ChIJGSI5CFvXZUcRgmzLwCit9mk","plus_code":{"compound_code":"RX6P+8F Zagreb","global_code":"8FQQRX6P+8F"},"rating":4.9,"reference":"ChIJGSI5CFvXZUcRgmzLwCit9mk","types":["restaurant","food","point_of_interest","establishment"],"user_ratings_total":261},{"business_status":"OPERATIONAL","formatted_address":"Boškovićeva ul. 11, 10000, Zagreb","geometry":{"location":{"lat":45.8097898,"lng":15.9816351},"viewport":{"northeast":{"lat":45.81108582989272,"lng":15.98299402989272},"southwest":{"lat":45.80838617010728,"lng":15.98029437010728}}},"icon":"https://maps.gstatic.com/mapfiles/place_api/icons/v1/png_71/restaurant-71.png","icon_background_color":"#FF9E67","icon_mask_base_uri":"https://maps.gstatic.com/mapfiles/place_api/icons/v2/restaurant_pinlet","name":"Taste of India","photos":[{"height":1536,"html_attributions":["<a href=\"https://maps.google.com/maps/contrib/113871915495584059152\">A Google User</a>"],"photo_reference":"AeJbb3ckDyEuc8jUbhfiw--f8Jq7PAHzGiU37buouniljAy5edkWtTIt8LdjG0pBvAjxahbc1PNx0LFH3WpzyfyxiibyA3_DxQw8JX-PQIYJHQWiB1cr9rJ5jGeRNTSAxalAv_wg_dKGo2fdMezex6maP9Sze2dudMM3O9LyGB5LKxQQt3Gf","width":2048}],"place_id":"ChIJsRU7LyDXZUcRCwc08J1uMs8","plus_code":{"compound_code":"RX5J+WM Zagreb","global_code":"8FQQRX5J+WM"},"rating":4.9,"reference":"ChIJsRU7LyDXZUcRCwc08J1uMs8","types":["restaurant","food","point_of_interest","establishment"],"user_ratings_total":65},{"business_status":"OPERATIONAL","formatted_address":"Bijenička cesta 14, 10000, Zagreb","geometry":{"location":{"lat":45.8250409,"lng":15.9851999},"viewport":{"northeast":{"lat":45.82639172989273,"lng":15.98643382989273},"southwest":{"lat":45.82369207010728,"lng":15.98373417010728}}},"icon":"https://maps.gstatic.com/mapfiles/place_api/icons/v1/png_71/restaurant-71.png","icon_background_color":"#FF9E67","icon_mask_base_uri":"https://maps.gstatic.com/mapfiles/place_api/icons/v2/restaurant_pinlet","name":"Balance brunch & bakery","opening_hours":{"open_now":true},"photos":[{"height":4032,"html_attributions":["<a href=\"https://maps.google.com/maps/contrib/102161939845762490030\">A Google User</a>"],"photo_reference":"AeJbb3ddjI8CQn-KWaGf8oEExtHL5vTxxTkmm62BFStF96OymTtcKJVK-O0m7LWgW5Co8LGzVS454SmgjUch4mgl0d7LLtZBC3NjSnrb9269ScYXHADS7SdwgtRc6gigwy5QhnkPut2CfFiHPuViez3VReA9XBzMAGWYw8cOsVJ-kiuv2akk","width":2268}],"place_id":"ChIJo67I1O_XZUcR4OWdIo9tGCg","plus_code":{"compound_code":"RXGP+23 Zagreb","global_code":"8FQQRXGP+23"},"rating":4.9,"reference":"ChIJo67I1O_XZUcR4OWdIo9tGCg","types":["restaurant","food","point_of_interest","establishment"],"user_ratings_total":28},{"business_status":"OPERATIONAL","formatted_address":"Masarykova ul. 18, 10000, Zagreb","geometry":{"location":{"lat":45.810837,"lng":15.9726898},"viewport":{"northeast":{"lat":45.81214522989272,"lng":15.97406657989272},"southwest":{"lat":45.80944557010728,"lng":15.97136692010728}}},"icon":"https://maps.gstatic.com/mapfiles/place_api/icons/v1/png_71/restaurant-71.png","icon_background_color":"#FF9E67","icon_mask_base_uri":"https://maps.gstatic.com/mapfiles/place_api/icons/v2/restaurant_pinlet","name":"SILK - Pan-Asian Fresh Street Food - Zagreb","opening_hours":{"open_now":true},"photos":[{"height":4032,"html_attributions":["<a href=\"https://maps.google.com/maps/contrib/101375676887862194412\">A Google User</a>"],"photo_reference":"AeJbb3ez7jehmhFMf4Wwla3cJSvvjtinTXEEXykNaqxMV73_JnGP5yXH_6TKYVLJsorh3mY415jtri9BS6b-SUYpIJuK6LF-CP65j-TUx3CcuFs-4MbjfG96BuLm7vqpMtMP0XxTUVYtjebX-qE4SizazdFD3ZOXcAcC2_LOU6biiGANZ6-O","width":3024}],"place_id":"ChIJdXdoMVnXZUcRRj3yev0dj6o","plus_code":{"compound_code":"RX6F+83 Zagreb","global_code":"8FQQRX6F+83"},"rating":4.9,"reference":"ChIJdXdoMVnXZUcRRj3yev0dj6o","types":["restaurant","food","point_of_interest","establishment"],"user_ratings_total":14},{"business_status":"OPERATIONAL","formatted_address":"Petrinjska ul. 2, 10000, Zagreb","geometry":{"location":{"lat":45.8122555,"lng":15.9789476},"viewport":{"northeast":{"lat":45.81329142989272,"lng":15.98057157989273},"southwest":{"lat":45.81059177010727,"lng":15.97787192010728}}},"icon":"https://maps.gstatic.com/mapfiles/place_api/icons/v1/png_71/restaurant-71.png","icon_background_color":"#FF9E67","icon_mask_base_uri":"https://maps.gstatic.com/mapfiles/place_api/icons/v2/restaurant_pinlet","name":"Torikaya Ramen Bar","opening_hours":{"open_now":true},"photos":[{"height":2048,"html_attributions":["<a href=\"https://maps.google.com/maps/contrib/116676489833218066344\">A Google User</a>"],"photo_reference":"AeJbb3fJRcpae7VJ5D75hecdzZ17EaHwVgbijnmBKu5Ms7qqjudf4nbJFoIIttjdh5uRGgdLQ3m0CMPsEH4J9l_le3gG7GoYPrbRTaMM9DM7r5iQeSiKQBUgPZdYMFoXD4rpMLUiDHX1CtIQAYdj1snQqk5EI8C6oguWCRkDvkAeaTbYCfOO","width":1365}],"place_id":"ChIJIxeqvlzXZUcRpJNqNYSPPfk","plus_code":{"compound_code":"RX6H+WH Zagreb","global_code":"8FQQRX6H+WH"},"rating":4.8,"reference":"ChIJIxeqvlzXZUcRpJNqNYSPPfk","types":["restaurant","food","point_of_interest","establishment"],"user_ratings_total":332},{"business_status":"OPERATIONAL","formatted_address":"Masarykova ul. 11/1, 10000, Zagreb","geometry":{"location":{"lat":45.810533,"lng":15.9730144},"viewport":{"northeast":{"lat":45.81202512989272,"lng":15.97428817989272},"southwest":{"lat":45.80932547010728,"lng":15.97158852010728}}},"icon":"https://maps.gstatic.com/mapfiles/place_api/icons/v1/png_71/restaurant-71.png","icon_background_color":"#FF9E67","icon_mask_base_uri":"https://maps.gstatic.com/mapfiles/place_api/icons/v2/restaurant_pinlet","name":"Restaurant Nav","opening_hours":{"open_now":false},"photos":[{"height":1564,"html_attributions":["<a href=\"https://maps.google.com/maps/contrib/102865291634453217570\">A Google User</a>"],"photo_reference":"AeJbb3el9zGN_N3sDKueKUsw5EBtZcd90NrYKeOs_Ka8zYcFR3qXxche9bc6zEZSOr_wsNVrap2Ez8pajYYshp4-lQSh47oVkf7p6ixFgcXICpIDPV6J3xPYZrtg9XESu3JuwXGPMdn-ejsbyrXrSQ3qi4AscaHHkueQHeIJ-CYrzOBvXWJ1","width":1564}],"place_id":"ChIJZ2bvJ6DXZUcRajCxM6L89nI","plus_code":{"compound_code":"RX6F+66 Zagreb","global_code":"8FQQRX6F+66"},"rating":4.8,"reference":"ChIJZ2bvJ6DXZUcRajCxM6L89nI","types":["restaurant","food","point_of_interest","establishment"],"user_ratings_total":136},{"business_status":"OPERATIONAL","formatted_address":"Capraška ul. c6, 10000, Zagreb","geometry":{"location":{"lat":45.7951741,"lng":16.0178009},"viewport":{"northeast":{"lat":45.79656262989273,"lng":16.01911152989272},"southwest":{"lat":45.79386297010728,"lng":16.01641187010728}}},"icon":"https://maps.gstatic.com/mapfiles/place_api/icons/v1/png_71/restaurant-71.png","icon_background_color":"#FF9E67","icon_mask_base_uri":"https://maps.gstatic.com/mapfiles/place_api/icons/v2/restaurant_pinlet","name":"Restoran C6","opening_hours":{"open_now":true},"photos":[{"height":2736,"html_attributions":["<a href=\"https://maps.google.com/maps/contrib/114248552880397373066\">Ivan Jakšić</a>"],"photo_reference":"AeJbb3clSHErJq9qVCcpUdl0omfk_moAGOmQAmdjETxJ_1TvLq4LuaRH62MW4sebNAPklpjCyahQa5fqa3Q_hGTax66a5-V29Vzep_WBUzQj4fHnl9vYsQfZhLW-KIulTc4vyX1UDQliiV_lUsEln8SLB2m3gTjpOdIExmxWS9yiK140aU80","width":3648}],"place_id":"ChIJhWWptWPXZUcRXbWhypYwOeI","plus_code":{"compound_code":"Q2W9+24 Zagreb","global_code":"8FQRQ2W9+24"},"rating":4.8,"reference":"ChIJhWWptWPXZUcRXbWhypYwOeI","types":["restaurant","food","point_of_interest","establishment"],"user_ratings_total":58},{"business_status":"OPERATIONAL","formatted_address":"Ul. Grada Vukovara 274, 10000, Zagreb","geometry":{"location":{"lat":45.8009732,"lng":16.0047905},"viewport":{"northeast":{"lat":45.80239042989272,"lng":16.00613207989272},"southwest":{"lat":45.79969077010728,"lng":16.00343242010728}}},"icon":"https://maps.gstatic.com/mapfiles/place_api/icons/v1/png_71/restaurant-71.png","icon_background_color":"#FF9E67","icon_mask_base_uri":"https://maps.gstatic.com/mapfiles/place_api/icons/v2/restaurant_pinlet","name":"Lunch","opening_hours":{"open_now":false},"photos":[{"height":609,"html_attributions":["<a href=\"https://maps.google.com/maps/contrib/104481031864808789746\">Lunch</a>"],"photo_reference":"AeJbb3cowseCK5IQi0a5FVw1YFYUioB4yzPFXLayCLI2tf9-Eb_DIKVtqDaj_O6hpipkGs1oQdnOUaBmNkJl3JKQmWMS_oCuajC5pX3zOS-RIAI4Jx5-aEdhYtkNk8Ix9dTd_bWw79v2eCFBt9rf9ogKW99JlLVc7opxpSzxAtmTQVaKV1Yu","width":1600}],"place_id":"ChIJvWkoKzHWZUcRWYGuW7BwAXo","plus_code":{"compound_code":"R223+9W Zagreb","global_code":"8FQRR223+9W"},"rating":4.8,"reference":"ChIJvWkoKzHWZUcRWYGuW7BwAXo","types":["restaurant","meal_delivery","food","point_of_interest","establishment"],"user_ratings_total":54},{"business_status":"OPERATIONAL","formatted_address":"Ul. Antuna Mihanovića 1, 10000, Zagreb","geometry":{"location":{"lat":45.8053707,"lng":15.975991},"viewport":{"northeast":{"lat":45.80679212989272,"lng":15.97732492989272},"southwest":{"lat":45.80409247010728,"lng":15.97462527010728}}},"icon":"https://maps.gstatic.com/mapfiles/place_api/icons/v1/png_71/lodging-71.png","icon_background_color":"#909CE1","icon_mask_base_uri":"https://maps.gstatic.com/mapfiles/place_api/icons/v2/hotel_pinlet","name":"Esplanade Zagreb Hotel","opening_hours":{"open_now":true},"photos":[{"height":1280,"html_attributions":["<a href=\"https://maps.google.com/maps/contrib/116395744706165111546\">A Google User</a>"],"photo_reference":"AeJbb3ffCS-aWLsjs-w3UgJiVnuyv4Zb28rWQkK7GA5uPEmP_cVfyMUtDBbmHlOhrTX7OpNIh7rorBDpbg49Xm8jtYBH6ImoAB3xEc-UKPeBN90naH24tQfHAdq8vu5ALW9ALRX6VWJwr-KzyEf2GeseyW3Th7e5pMbo8ArdtcvFcnEXnCEU","width":1920}],"place_id":"ChIJ-4PswvnWZUcREtjgku_DPV4","plus_code":{"compound_code":"RX4G+49 Zagreb","global_code":"8FQQRX4G+49"},"rating":4.7,"reference":"ChIJ-4PswvnWZUcREtjgku_DPV4","types":["atm","bar","lodging","restaurant","food","health","finance","point_of_interest","establishment"],"user_ratings_total":2793},{"business_status":"OPERATIONAL","formatted_address":"Dubravkin put 2, 10000, Zagreb","geometry":{"location":{"lat":45.8185075,"lng":15.9732132},"viewport":{"northeast":{"lat":45.81989672989273,"lng":15.97453187989272},"southwest":{"lat":45.81719707010728,"lng":15.97183222010728}}},"icon":"https://maps.gstatic.com/mapfiles/place_api/icons/v1/png_71/restaurant-71.png","icon_background_color":"#FF9E67","icon_mask_base_uri":"https://maps.gstatic.com/mapfiles/place_api/icons/v2/restaurant_pinlet","name":"Dubravkin put","opening_hours":{"open_now":true},"photos":[{"height":3024,"html_attributions":["<a href=\"https://maps.google.com/maps/contrib/115069753877641137820\">C. Jacobs</a>"],"photo_reference":"AeJbb3ecRfepmm0Nc2abBEUaLGEElleqK9mG2Zq-kJE4YtaDu6pcM4gzc04mAZGcaV0s_lFFvDAyBZLbq_C5SG9OdxrQfd-x57mP9iid5vtbX6UNTt-hKaKg_PRNu9QfUjiSNYctFpjMTIzZ2GswyTQ-VRy6RQSyFFXqhK_25HwxtBOIoPYm","width":4032}],"place_id":"ChIJlSm5wRzXZUcRhoITnFKwG08","plus_code":{"compound_code":"RX9F+C7 Zagreb","global_code":"8FQQRX9F+C7"},"price_level":3,"rating":4.7,"reference":"ChIJlSm5wRzXZUcRhoITnFKwG08","types":["bar","restaurant","food","point_of_interest","establishment"],"user_ratings_total":1371},{"business_status":"OPERATIONAL","formatted_address":"Zagrebačka ul. 36, 10297, Jakovlje","geometry":{"location":{"lat":45.9417541,"lng":15.8453423},"viewport":{"northeast":{"lat":45.94312457989273,"lng":15.84680557989272},"southwest":{"lat":45.94042492010728,"lng":15.84410592010728}}},"icon":"https://maps.gstatic.com/mapfiles/place_api/icons/v1/png_71/restaurant-71.png","icon_background_color":"#FF9E67","icon_mask_base_uri":"https://maps.gstatic.com/mapfiles/place_api/icons/v2/restaurant_pinlet","name":"Pizzeria Domagoj","opening_hours":{"open_now":true},"photos":[{"height":4000,"html_attributions":["<a href=\"https://maps.google.com/maps/contrib/116633940653355517224\">Saša Novak</a>"],"photo_reference":"AeJbb3dLFlZj0BAb1YTzfO4H6mL32BqgLdOddehGrfdvz56bO3OV05fxeL3IDcXEx6BKYPK80r2QfGbl7l6Bsa_jl38FLbZd8j-xqaARMUIOARZRJBWoSJGQtPtV7awNcNQnh2N48uqcyFxHBu07mjUHc2JiBS3bR3AM1yLOH8iXk41lp9sx","width":3000}],"place_id":"ChIJFSY2wIfEZUcRZuw5Of1OJzg","plus_code":{"compound_code":"WRRW+M4 Jakovlje","global_code":"8FQQWRRW+M4"},"price_level":2,"rating":4.7,"reference":"ChIJFSY2wIfEZUcRZuw5Of1OJzg","types":["restaurant","bakery","food","store","point_of_interest","establishment"],"user_ratings_total":683},{"business_status":"OPERATIONAL","formatted_address":"Ul. Antuna Mihanovića 1, 10000, Zagreb","geometry":{"location":{"lat":45.8054511,"lng":15.9758865},"viewport":{"northeast":{"lat":45.80682747989272,"lng":15.97723822989272},"southwest":{"lat":45.80412782010728,"lng":15.97453857010728}}},"icon":"https://maps.gstatic.com/mapfiles/place_api/icons/v1/png_71/restaurant-71.png","icon_background_color":"#FF9E67","icon_mask_base_uri":"https://maps.gstatic.com/mapfiles/place_api/icons/v2/restaurant_pinlet","name":"Le Bistro","opening_hours":{"open_now":true},"photos":[{"height":3836,"html_attributions":["<a href=\"https://maps.google.com/maps/contrib/106914414953820693002\">Carles Menendez</a>"],"photo_reference":"AeJbb3es_4HvbLnpC3358TYqpblLEE9g9kLDJprL6gv2g1_7KcQdazjN9ZS4UQtJ-VLbSKqqTxkahVA94fIPv-Gz_tQ6OAl2havY4uNpmCuhtTEhZsoBIcF8sZmqEAdmhfoMxEF_lbhN-sf91vUUw794O0jxf0wYbbfZIn1g2QbCrbV9F8v1","width":2156}],"place_id":"ChIJRR0h3fnWZUcRMwjGyPUDZU4","plus_code":{"compound_code":"RX4G+59 Zagreb","global_code":"8FQQRX4G+59"},"rating":4.7,"reference":"ChIJRR0h3fnWZUcRMwjGyPUDZU4","types":["restaurant","food","point_of_interest","establishment"],"user_ratings_total":412},{"business_status":"OPERATIONAL","formatted_address":"Radnička cesta 50, 10000, Zagreb","geometry":{"location":{"lat":45.8023697,"lng":16.0021977},"viewport":{"northeast":{"lat":45.80396277989272,"lng":16.00370232989273},"southwest":{"lat":45.80126312010727,"lng":16.00100267010728}}},"icon":"https://maps.gstatic.com/mapfiles/place_api/icons/v1/png_71/restaurant-71.png","icon_background_color":"#FF9E67","icon_mask_base_uri":"https://maps.gstatic.com/mapfiles/place_api/icons/v2/restaurant_pinlet","name":"ManO2","opening_hours":{"open_now":true},"photos":[{"height":1908,"html_attributions":["<a href=\"https://maps.google.com/maps/contrib/112684210387979409681\">A Google User</a>"],"photo_reference":"AeJbb3cSTf49WbJPXZEjn9YjTqXigvRkyF2B7N011wMikwhvcgC9ilwmG6zPg_yoly34CGswm6R-0_t1jbikzD512oavH_msVo-H9V5aJdNWY-SxnVE-DiXzM6saPh15KMo4xFVi6GM3YVet5j_BNR5rcBeTZH0akDUem5me2K0qAey-49sq","width":4032}],"place_id":"ChIJq0e-80jWZUcRDYpqmU51dNY","plus_code":{"compound_code":"R222+XV Zagreb","global_code":"8FQRR222+XV"},"rating":4.7,"reference":"ChIJq0e-80jWZUcRDYpqmU51dNY","types":["restaurant","food","point_of_interest","establishment"],"user_ratings_total":234},{"business_status":"OPERATIONAL","formatted_address":"ul. Nikole Tesle 7, 10000, Zagreb","geometry":{"location":{"lat":45.8109935,"lng":15.9760107},"viewport":{"northeast":{"lat":45.81237327989272,"lng":15.97760132989272},"southwest":{"lat":45.80967362010728,"lng":15.97490167010728}}},"icon":"https://maps.gstatic.com/mapfiles/place_api/icons/v1/png_71/restaurant-71.png","icon_background_color":"#FF9E67","icon_mask_base_uri":"https://maps.gstatic.com/mapfiles/place_api/icons/v2/restaurant_pinlet","name":"Theatrium by Filho","opening_hours":{"open_now":true},"photos":[{"height":470,"html_attributions":["<a href=\"https://maps.google.com/maps/contrib/100875115788172166681\">A Google User</a>"],"photo_reference":"AeJbb3fAmrTGLkmG--E2d6qatHn1f5qDEgnTdrshwggDGBq--UqFCx86Cbwg4QGKrzK9x5zUpvD7rC6KbxYto7qctqIEynwpyGKHc1fiEtho2PsJr3fEdcaExfaMDYqkbI5UY4q4lIiomKFYcOIOyOck_aOIASEpC5bWjs9KkTv0Wju-3OhX","width":824}],"place_id":"ChIJv7uzhufXZUcRGmaiJWVkLlU","plus_code":{"compound_code":"RX6G+9C Zagreb","global_code":"8FQQRX6G+9C"},"rating":4.7,"reference":"ChIJv7uzhufXZUcRGmaiJWVkLlU","types":["restaurant","food","point_of_interest","establishment"],"user_ratings_total":227},{"business_status":"OPERATIONAL","formatted_address":"ul. Nikole Tesle 14, 10000, Zagreb","geometry":{"location":{"lat":45.8113097,"lng":15.9750185},"viewport":{"northeast":{"lat":45.81265677989272,"lng":15.97608457989272},"southwest":{"lat":45.80995712010728,"lng":15.97338492010728}}},"icon":"https://maps.gstatic.com/mapfiles/place_api/icons/v1/png_71/restaurant-71.png","icon_background_color":"#FF9E67","icon_mask_base_uri":"https://maps.gstatic.com/mapfiles/place_api/icons/v2/restaurant_pinlet","name":"NOMU sushi & wine","opening_hours":{"open_now":true},"photos":[{"height":3333,"html_attributions":["<a href=\"https://maps.google.com/maps/contrib/104538595865675867502\">A Google User</a>"],"photo_reference":"AeJbb3fJj_tm8P7dV16ix0AxJWo6Zp2pIv3fdXUKHshvTAnh1uq8qjECdolp5TJ5-uD66a_4oMENInH8fiyMtEDljZhrEe1FeRZ1xhsmHg-h9pu8NQp3Bkst7iwWJHkFblJURxMlwAEBjZfQb1J0LCRIH2AVQoAbQZlTRGbSoDY6Ews8RTRy","width":5000}],"place_id":"ChIJZZAc5nHXZUcRFkkSZ6yzQm4","plus_code":{"compound_code":"RX6G+G2 Zagreb","global_code":"8FQQRX6G+G2"},"rating":4.7,"reference":"ChIJZZAc5nHXZUcRFkkSZ6yzQm4","types":["restaurant","food","point_of_interest","establishment"],"user_ratings_total":122},{"business_status":"OPERATIONAL","formatted_address":"Gajeva ul. 25, 10000, Zagreb","geometry":{"location":{"lat":45.8097115,"lng":15.9767519},"viewport":{"northeast":{"lat":45.81107647989271,"lng":15.97799437989272},"southwest":{"lat":45.80837682010727,"lng":15.97529472010728}}},"icon":"https://maps.gstatic.com/mapfiles/place_api/icons/v1/png_71/restaurant-71.png","icon_background_color":"#FF9E67","icon_mask_base_uri":"https://maps.gstatic.com/mapfiles/place_api/icons/v2/restaurant_pinlet","name":"BISTRO FOTIĆ","opening_hours":{"open_now":true},"photos":[{"height":1363,"html_attributions":["<a href=\"https://maps.google.com/maps/contrib/109099751588496198741\">A Google User</a>"],"photo_reference":"AeJbb3cxN_HE2I7YhvarOv-x-24pooux-EJbU61ZJmOjKuL_ct5T3b6Cj4eiSCYuSnY98xOchWd5v-tasGfSUYmTlWMsg60igFMkx9lgLP9dJ2zrVXjGrgwV9mazNVlz7oiwAZkiv-q1mXJQ_d4u66ttaT0VP_-tAe0jNYiEuhNqQweWvAUM","width":2048}],"place_id":"ChIJlf0ZSzbXZUcRE8Lphw0TBSw","plus_code":{"compound_code":"RX5G+VP Zagreb","global_code":"8FQQRX5G+VP"},"rating":4.7,"reference":"ChIJlf0ZSzbXZUcRE8Lphw0TBSw","types":["restaurant","food","point_of_interest","establishment"],"user_ratings_total":55},{"business_status":"OPERATIONAL","formatted_address":"Skalinska ul. 5, 10000, Zagreb","geometry":{"location":{"lat":45.8148914,"lng":15.9768076},"viewport":{"northeast":{"lat":45.81602297989273,"lng":15.97941154999999},"southwest":{"lat":45.81332332010729,"lng":15.97592815}}},"icon":"https://maps.gstatic.com/mapfiles/place_api/icons/v1/png_71/restaurant-71.png","icon_background_color":"#FF9E67","icon_mask_base_uri":"https://maps.gstatic.com/mapfiles/place_api/icons/v2/restaurant_pinlet","name":"La Štruk","opening_hours":{"open_now":true},"photos":[{"height":3456,"html_attributions":["<a href=\"https://maps.google.com/maps/contrib/102424890669285931022\">Ksenija JEŽOVITA</a>"],"photo_reference":"AeJbb3cBfeKnqG58W9Q5RVbXvZFo2zAhc9Fjg0V3M_Bg672MhFoTT7lgbNS07hHhXNIRDIYgwtyrklOIQsS2dJOyTX6THjP9GpNz7gZTJo_2mWCxFk1quychTmSiQybZlBtzGDESMRj9mKKUxVcdeWO1YXMEIike---Be-Lm9XnSchg2F4Xx","width":4608}],"place_id":"ChIJ6VE-egLXZUcRomv2xXXW5WU","plus_code":{"compound_code":"RX7G+XP Zagreb","global_code":"8FQQRX7G+XP"},"price_level":1,"rating":4.6,"reference":"ChIJ6VE-egLXZUcRomv2xXXW5WU","types":["restaurant","food","point_of_interest","establishment"],"user_ratings_total":4295},{"business_status":"OPERATIONAL","formatted_address":"Magazinska ul. 21, 10000, Zagreb","geometry":{"location":{"lat":45.8082566,"lng":15.9565424},"viewport":{"northeast":{"lat":45.80964507989273,"lng":15.95789622989272},"southwest":{"lat":45.80694542010728,"lng":15.95519657010728}}},"icon":"https://maps.gstatic.com/mapfiles/place_api/icons/v1/png_71/restaurant-71.png","icon_background_color":"#FF9E67","icon_mask_base_uri":"https://maps.gstatic.com/mapfiles/place_api/icons/v2/restaurant_pinlet","name":"Fidel Gastro - Jazz & Fine Dining","opening_hours":{"open_now":true},"photos":[{"height":791,"html_attributions":["<a href=\"https://maps.google.com/maps/contrib/100095446816496115936\">A Google User</a>"],"photo_reference":"AeJbb3eH90Y6gz41FUNB8CkUTPfXN371fozXaB8eWHd4yQPmTbuu9pzjrqXJXkKDSIhQY4R4EdWSauBgeKcZh-LkJeY2mxdPar8LX8LmCAWuRwXsVE8SR0l3nEVQnD3zgu1DoVRqKv8AiQAhgFZ6kWNIIX-jOChLWQ2WD2EDyB_4k6SsX8wA","width":1190}],"place_id":"ChIJmQmR6OfWZUcRWCpH5LzeHRk","plus_code":{"compound_code":"RX54+8J Zagreb","global_code":"8FQQRX54+8J"},"price_level":3,"rating":4.6,"reference":"ChIJmQmR6OfWZUcRWCpH5LzeHRk","types":["restaurant","food","point_of_interest","establishment"],"user_ratings_total":1144},{"business_status":"OPERATIONAL","formatted_address":"Kovinska ul. 1, 10000, Zagreb","geometry":{"location":{"lat":45.8060702,"lng":15.8574664},"viewport":{"northeast":{"lat":45.80746262989272,"lng":15.85882902989272},"southwest":{"lat":45.80476297010728,"lng":15.85612937010728}}},"icon":"https://maps.gstatic.com/mapfiles/place_api/icons/v1/png_71/restaurant-71.png","icon_background_color":"#FF9E67","icon_mask_base_uri":"https://maps.gstatic.com/mapfiles/place_api/icons/v2/restaurant_pinlet","name":"Restoran CHEFlja","opening_hours":{"open_now":true},"photos":[{"height":1080,"html_attributions":["<a href=\"https://maps.google.com/maps/contrib/112383277550531652321\">miroslav vranesic</a>"],"photo_reference":"AeJbb3eAfit6TgyV5LVpRsru1qL267KKBWbaLTj_MTw_Tv-N4vBYwHqkNz_lDy8j-vP6SG4YeTXWtiEUK0hxzDFhqNqqSkUoFZN-IFa3aer6lM7Eo3zJ54G_RAfCrFbfrPlbetJWI92-AyTLwoAggadMwnd_DByKikbSL_vhGq_Lv2J5Trnf","width":1920}],"place_id":"ChIJM_naWZHRZUcRqHSwwOehNC8","plus_code":{"compound_code":"RV44+CX Zagreb","global_code":"8FQQRV44+CX"},"price_level":2,"rating":4.6,"reference":"ChIJM_naWZHRZUcRqHSwwOehNC8","types":["restaurant","food","point_of_interest","establishment"],"user_ratings_total":632},{"business_status":"OPERATIONAL","formatted_address":"Ul. popa Dukljanina 1, 10000, Zagreb","geometry":{"location":{"lat":45.8109935,"lng":15.9882409},"viewport":{"northeast":{"lat":45.81233832989272,"lng":15.98948212989272},"southwest":{"lat":45.80963867010728,"lng":15.98678247010728}}},"icon":"https://maps.gstatic.com/mapfiles/place_api/icons/v1/png_71/restaurant-71.png","icon_background_color":"#FF9E67","icon_mask_base_uri":"https://maps.gstatic.com/mapfiles/place_api/icons/v2/restaurant_pinlet","name":"Noel","opening_hours":{"open_now":false},"photos":[{"height":4032,"html_attributions":["<a href=\"https://maps.google.com/maps/contrib/104732762643452844400\">Jane R</a>"],"photo_reference":"AeJbb3cEnzZaSCuPx0Grl4nwrFufmD1CJdiV_UU1NoHKOkCfL64XdS7olQlGDM5j8jMT2_Jc1OamXURbruQYdmLTiSUDhGTxgjOjbqFPUXjtcE2QzkBZGUCJcbHU9sgzrJ4eg_R8MhjmgsGWWknS-DCDF6cZv4q3rvfy5luotJfLNpgfKcw","width":3024}],"place_id":"ChIJ6YHB8FTWZUcRVtizzodGlhA","plus_code":{"compound_code":"RX6Q+97 Zagreb","global_code":"8FQQRX6Q+97"},"price_level":4,"rating":4.6,"reference":"ChIJ6YHB8FTWZUcRVtizzodGlhA","types":["restaurant","food","point_of_interest","establishment"],"user_ratings_total":581},{"business_status":"OPERATIONAL","formatted_address":"Ul. Nikole Andrića 29, 10000, Zagreb","geometry":{"location":{"lat":45.78080809999999,"lng":15.9822202},"viewport":{"northeast":{"lat":45.78218497989272,"lng":15.98349517989272},"southwest":{"lat":45.77948532010728,"lng":15.98079552010728}}},"icon":"https://maps.gstatic.com/mapfiles/place_api/icons/v1/png_71/restaurant-71.png","icon_background_color":"#FF9E67","icon_mask_base_uri":"https://maps.gstatic.com/mapfiles/place_api/icons/v2/restaurant_pinlet","name":"Osijek","opening_hours":{"open_now":true},"photos":[{"height":1869,"html_attributions":["<a href=\"https://maps.google.com/maps/contrib/102929510984036549641\">A Google User</a>"],"photo_reference":"AeJbb3f1e7RifkxUKphQ4cW70UkTXd7AgpHqT97tlunZnQt4E1tB2AbTl0NtaffcZ-8C6PJ5N946hU00MGwIspN8FiulXaWXMp9EIygIoJH9wByWDEi9o-dEIgM80sSp67LUNuZLJtbD_YSluDBgXnPed_WdsoIJajflHDzT-9hq7s5Pk8eh","width":3322}],"place_id":"ChIJL5lku8HVZUcRRlAm-HNPC_w","plus_code":{"compound_code":"QXJJ+8V Zagreb","global_code":"8FQQQXJJ+8V"},"price_level":2,"rating":4.6,"reference":"ChIJL5lku8HVZUcRRlAm-HNPC_w","types":["restaurant","meal_takeaway","food","point_of_interest","establishment"],"user_ratings_total":483},{"business_status":"OPERATIONAL","formatted_address":"Ul. Antuna Mihanovića 1, 10000, Zagreb","geometry":{"location":{"lat":45.8054511,"lng":15.9758865},"viewport":{"northeast":{"lat":45.80682747989272,"lng":15.97723822989272},"southwest":{"lat":45.80412782010728,"lng":15.97453857010728}}},"icon":"https://maps.gstatic.com/mapfiles/place_api/icons/v1/png_71/restaurant-71.png","icon_background_color":"#FF9E67","icon_mask_base_uri":"https://maps.gstatic.com/mapfiles/place_api/icons/v2/restaurant_pinlet","name":"Zinfandel's Restaurant","opening_hours":{"open_now":true},"photos":[{"height":1665,"html_attributions":["<a href=\"https://maps.google.com/maps/contrib/113307664319112087847\">Zinfandel&#39;s</a>"],"photo_reference":"AeJbb3fBdavSx0rgDm0cOFogGgewXnk8Eql8KVOLGmbl-qhYs8gYsi2oXJR9nVvOQFrC7roTJiOwpd7aYJmJWBagMEyRADvZpqg2XZTLNTy9FUHo18G1PBQPJuUMclZd4iRL9WwnsKFgK87Mh_WfVAIu6o11JtyxQxloDZRH9EstlQL7Ecat","width":2500}],"place_id":"ChIJ-4PswvnWZUcR-CI68NVVuwY","plus_code":{"compound_code":"RX4G+59 Zagreb","global_code":"8FQQRX4G+59"},"price_level":4,"rating":4.6,"reference":"ChIJ-4PswvnWZUcR-CI68NVVuwY","types":["restaurant","food","point_of_interest","establishment"],"user_ratings_total":473},{"business_status":"OPERATIONAL","formatted_address":"Jurjevska ul. 65, 10000, Zagreb","geometry":{"location":{"lat":45.8311001,"lng":15.9749326},"viewport":{"northeast":{"lat":45.83246182989272,"lng":15.97647212989272},"southwest":{"lat":45.82976217010728,"lng":15.97377247010728}}},"icon":"https://maps.gstatic.com/mapfiles/place_api/icons/v1/png_71/restaurant-71.png","icon_background_color":"#FF9E67","icon_mask_base_uri":"https://maps.gstatic.com/mapfiles/place_api/icons/v2/restaurant_pinlet","name":"Bistro Apetit","opening_hours":{"open_now":true},"photos":[{"height":1333,"html_attributions":["<a href=\"https://maps.google.com/maps/contrib/103443794684738395129\">A Google User</a>"],"photo_reference":"AeJbb3eMkFMCSIWoNJZ1uOCRQCBDNuug-yGPABv1tPUpYX1GRZjh86OfhfzlOZi64RcCa7mvFCecaO5ta9urxxr-dH_lMFkD8wh_Zx1i4v21mXukjwmC90b__2YI8tD3lplZ0_8ruE1I05lVkunSDTQ5huwP1IBuctQDt6IaLoUJlH6qOnYv","width":2000}],"place_id":"ChIJsZs7dxTXZUcRBsc-1lJMaVo","plus_code":{"compound_code":"RXJF+CX Zagreb","global_code":"8FQQRXJF+CX"},"price_level":4,"rating":4.6,"reference":"ChIJsZs7dxTXZUcRBsc-1lJMaVo","types":["restaurant","food","point_of_interest","establishment"],"user_ratings_total":322},{"business_status":"OPERATIONAL","formatted_address":"Preradovićeva ul. 2, 10000, Zagreb","geometry":{"location":{"lat":45.8117282,"lng":15.9741603},"viewport":{"northeast":{"lat":45.81283672989272,"lng":15.97555257989272},"southwest":{"lat":45.81013707010727,"lng":15.97285292010728}}},"icon":"https://maps.gstatic.com/mapfiles/place_api/icons/v1/png_71/restaurant-71.png","icon_background_color":"#FF9E67","icon_mask_base_uri":"https://maps.gstatic.com/mapfiles/place_api/icons/v2/restaurant_pinlet","name":"Namaste Bistro","opening_hours":{"open_now":true},"photos":[{"height":4032,"html_attributions":["<a href=\"https://maps.google.com/maps/contrib/100934341970774396791\">Debjit Ghosh</a>"],"photo_reference":"AeJbb3fDhbqtAEFMNBgqPSzHCbOv5NjAsPflA5-WiD3Fr5m2iJjXFavZrb-G9kFyybV5RIQb4cMAoZAEdOsASOCg7nIHg3Jc_FZA9ZI9fOEH2v4umMHvP6KEHFNPKZwSaR0rFj0c35OfrIknRlio-egChmN21d6Sql0pHgQA2PpO9EdO1Rs8","width":3024}],"place_id":"ChIJgwETWYLXZUcRcl5HgMjz31A","plus_code":{"compound_code":"RX6F+MM Zagreb","global_code":"8FQQRX6F+MM"},"rating":4.6,"reference":"ChIJgwETWYLXZUcRcl5HgMjz31A","types":["restaurant","food","point_of_interest","establishment"],"user_ratings_total":280},{"business_status":"OPERATIONAL","formatted_address":"Ul. Resnik III 2, 10000, Zagreb","geometry":{"location":{"lat":45.8034344,"lng":16.0826162},"viewport":{"northeast":{"lat":45.80478862989272,"lng":16.08396542989272},"southwest":{"lat":45.80208897010728,"lng":16.08126577010728}}},"icon":"https://maps.gstatic.com/mapfiles/place_api/icons/v1/png_71/restaurant-71.png","icon_background_color":"#FF9E67","icon_mask_base_uri":"https://maps.gstatic.com/mapfiles/place_api/icons/v2/restaurant_pinlet","name":"Zalogajnica \"Kod Bosanca\"","opening_hours":{"open_now":true},"photos":[{"height":2272,"html_attributions":["<a href=\"https://maps.google.com/maps/contrib/104529568385863817994\">Damir Živković</a>"],"photo_reference":"AeJbb3fi5NEuAst3FAkkZ57KBrwPhaVaCj5P0Em481EdlluOMtqFkr7NRBeI_ElqoOQHkXi-dmI7uOSEPLr0IEioKNac_IhQmnsoRgN629ZRDoiLEEfYbVBq_g9JieSw-uyW5dRD-kIQmFTQyeCZEDUgk3Ji9_nD9miXhQy5H7nm_09N37qD","width":4608}],"place_id":"ChIJxfPmYoR5ZkcRxePIWQI0B9o","plus_code":{"compound_code":"R33M+93 Zagreb","global_code":"8FQRR33M+93"},"price_level":2,"rating":4.6,"reference":"ChIJxfPmYoR5ZkcRxePIWQI0B9o","types":["liquor_store","bakery","bar","grocery_or_supermarket","restaurant","food","store","point_of_interest","establishment"],"user_ratings_total":198},{"business_status":"OPERATIONAL","formatted_address":"Ul. Vrbik IV 3, 10000, Zagreb","geometry":{"location":{"lat":45.7959281,"lng":15.969751},"viewport":{"northeast":{"lat":45.79727652989273,"lng":15.97110302989272},"southwest":{"lat":45.79457687010728,"lng":15.96840337010727}}},"icon":"https://maps.gstatic.com/mapfiles/place_api/icons/v1/png_71/restaurant-71.png","icon_background_color":"#FF9E67","icon_mask_base_uri":"https://maps.gstatic.com/mapfiles/place_api/icons/v2/restaurant_pinlet","name":"Pedro pite","opening_hours":{"open_now":true},"photos":[{"height":540,"html_attributions":["<a href=\"https://maps.google.com/maps/contrib/109646658255640625656\">predrag oroz</a>"],"photo_reference":"AeJbb3cXWP02LO7s221r_y7XaWghctmjbfuXtUT5rfcb8geT7_rtx79veQOMmF6P-qwthCKaZ8Um8jdaTIW1HuWO4u8z0Bxw8yvYr-GSORWOP0meotcSM1y3h8OoDaRdlqaGlG3surPBXP_tELqb_5ftXTSWt0rppKSj2aVLnvSEi0znTlgU","width":960}],"place_id":"ChIJmeFiTIvWZUcRkA_Naq0ld3Y","plus_code":{"compound_code":"QXW9+9W Zagreb","global_code":"8FQQQXW9+9W"},"price_level":2,"rating":4.6,"reference":"ChIJmeFiTIvWZUcRkA_Naq0ld3Y","types":["restaurant","bakery","grocery_or_supermarket","food","store","point_of_interest","establishment"],"user_ratings_total":178},{"business_status":"OPERATIONAL","formatted_address":"Koranska ul. 2, 10000, Zagreb","geometry":{"location":{"lat":45.802169,"lng":15.966826},"viewport":{"northeast":{"lat":45.80355517989273,"lng":15.96831677989272},"southwest":{"lat":45.80085552010728,"lng":15.96561712010728}}},"icon":"https://maps.gstatic.com/mapfiles/place_api/icons/v1/png_71/restaurant-71.png","icon_background_color":"#FF9E67","icon_mask_base_uri":"https://maps.gstatic.com/mapfiles/place_api/icons/v2/restaurant_pinlet","name":"EATERIA Zagreb","opening_hours":{"open_now":true},"photos":[{"height":1000,"html_attributions":["<a href=\"https://maps.google.com/maps/contrib/110442752897226682323\">A Google User</a>"],"photo_reference":"AeJbb3d2V50b3YDTGJgfjeWX5cWRuXp3yxr2A821MB4kxpMjVtv835BqwDU5Ai0QnToQAgyPTBOYc9e0qVkm8vclcWIIPATMebfEYUn3I888u6Y3XimRQVUyQB9cQ3iNQSOKIEMsMReiCShRMMqDGBOZ7ZBdvl9Q_QwNY5q5A75I8-ENjiaV","width":1500}],"place_id":"ChIJ6-1njE_XZUcRvcWJys2R0_s","plus_code":{"compound_code":"RX28+VP Zagreb","global_code":"8FQQRX28+VP"},"rating":4.6,"reference":"ChIJ6-1njE_XZUcRvcWJys2R0_s","types":["restaurant","food","point_of_interest","establishment"],"user_ratings_total":153},{"business_status":"OPERATIONAL","formatted_address":"Slavonska avenija 1b, 10000, Zagreb","geometry":{"location":{"lat":45.7970716,"lng":16.0123157},"viewport":{"northeast":{"lat":45.79861607989272,"lng":16.01359217989273},"southwest":{"lat":45.79591642010727,"lng":16.01089252010728}}},"icon":"https://maps.gstatic.com/mapfiles/place_api/icons/v1/png_71/restaurant-71.png","icon_background_color":"#FF9E67","icon_mask_base_uri":"https://maps.gstatic.com/mapfiles/place_api/icons/v2/restaurant_pinlet","name":"Restoran Matrix","opening_hours":{"open_now":true},"photos":[{"height":4032,"html_attributions":["<a href=\"https://maps.google.com/maps/contrib/100773638639520278011\">A Google User</a>"],"photo_reference":"AeJbb3e10qI7-J6PqPd4yusRhwvTqCRPVXkIq9ci_AR-C3hJpSY7UbOnHwKjupHihE9D0wtdTqEoR9cf33w4qTPQItZlw-cPmo8WPn4zQWnQ_aJ37ZGryiScRZn2PwdPIq3-Ek7DYj-511NmyzS8AFJiOw2uJSdTKYrKU3VrT4MAfMYbjq8k","width":3024}],"place_id":"ChIJXRG_Zh95ZkcRFMLFtsUoIXM","plus_code":{"compound_code":"Q2W6+RW Zagreb","global_code":"8FQRQ2W6+RW"},"rating":4.6,"reference":"ChIJXRG_Zh95ZkcRFMLFtsUoIXM","types":["restaurant","food","point_of_interest","establishment"],"user_ratings_total":149},{"business_status":"OPERATIONAL","formatted_address":"ul. Nikole Tesle 12, 10000, Zagreb","geometry":{"location":{"lat":45.811359,"lng":15.9752486},"viewport":{"northeast":{"lat":45.81266407989272,"lng":15.97620182989272},"southwest":{"lat":45.80996442010728,"lng":15.97350217010728}}},"icon":"https://maps.gstatic.com/mapfiles/place_api/icons/v1/png_71/restaurant-71.png","icon_background_color":"#FF9E67","icon_mask_base_uri":"https://maps.gstatic.com/mapfiles/place_api/icons/v2/restaurant_pinlet","name":"Sopal","opening_hours":{"open_now":true},"photos":[{"height":1200,"html_attributions":["<a href=\"https://maps.google.com/maps/contrib/110882189345338657522\">A Google User</a>"],"photo_reference":"AeJbb3ePnxZeqq7w7VbP0O_t6OujO3OId0jdxzeuXh8SayD-npoiu4gmGm0pS7w68y-3VAcV24Zao9p7hf7Rg07dz85fyP8-etJbr_iGCIZP3XCUQnQSmLaayOMpy0MmGEmEn_uis5KYYdznlM6qui9QZuE69ai12oHCOzl3yRQdmIYXdzH3","width":1800}],"place_id":"ChIJ41KUfrHXZUcRV2sBa5O00gM","plus_code":{"compound_code":"RX6G+G3 Zagreb","global_code":"8FQQRX6G+G3"},"rating":4.6,"reference":"ChIJ41KUfrHXZUcRV2sBa5O00gM","types":["restaurant","food","point_of_interest","establishment"],"user_ratings_total":121},{"business_status":"OPERATIONAL","formatted_address":"Gajeva ul. 59, 10000, Zagreb","geometry":{"location":{"lat":45.8058792,"lng":15.9768416},"viewport":{"northeast":{"lat":45.80722292989272,"lng":15.97807872989272},"southwest":{"lat":45.80452327010728,"lng":15.97537907010727}}},"icon":"https://maps.gstatic.com/mapfiles/place_api/icons/v1/png_71/restaurant-71.png","icon_background_color":"#FF9E67","icon_mask_base_uri":"https://maps.gstatic.com/mapfiles/place_api/icons/v2/restaurant_pinlet","name":"Food of Ra","opening_hours":{"open_now":true},"photos":[{"height":3648,"html_attributions":["<a href=\"https://maps.google.com/maps/contrib/100669572273720014179\">A Google User</a>"],"photo_reference":"AeJbb3evwuRgWJDO12gkz4ehDDD_b90_DfJJcXXH1WwT1UuXGQtdjrvaA3qzFcWa6M_ossNyyDzkPHyWBle9MkngyZWU9sB7JRt3LEAvVbeRVJExLLAjqXRHduCUV79QIFg7GoWrsA7tEzG6ifXjjzdv9aSrBBywpr3cBn1k2_YzfOthN_KD","width":2736}],"place_id":"ChIJTTBDiSDXZUcRKweSdlbfN_U","plus_code":{"compound_code":"RX4G+9P Zagreb","global_code":"8FQQRX4G+9P"},"rating":4.6,"reference":"ChIJTTBDiSDXZUcRKweSdlbfN_U","types":["restaurant","food","point_of_interest","establishment"],"user_ratings_total":18},{"business_status":"OPERATIONAL","formatted_address":"Heinzelova ul. 78 A, 10000, Zagreb","geometry":{"location":{"lat":45.8011048,"lng":16.0110476},"viewport":{"northeast":{"lat":45.80241817989272,"lng":16.01243692989272},"southwest":{"lat":45.79971852010728,"lng":16.00973727010728}}},"icon":"https://maps.gstatic.com/mapfiles/place_api/icons/v1/png_71/restaurant-71.png","icon_background_color":"#FF9E67","icon_mask_base_uri":"https://maps.gstatic.com/mapfiles/place_api/icons/v2/restaurant_pinlet","name":"Šarm restaurant","opening_hours":{"open_now":true},"photos":[{"height":1537,"html_attributions":["<a href=\"https://maps.google.com/maps/contrib/107026692561276035788\">Restoran Šarm</a>"],"photo_reference":"AeJbb3fKajRvc9kXDPvALCz9uQJS-JRWkZRJLyy6ydA8HwCGBAPz7G1It7eCf4Q7mM9KJSEh9dT_jA8Skm23N8ZxfkKi17zIYrktFAuiC8WK6t1gtJInYoBp1cbvsZ5azQHc9bDJnDBrCleOlEwllOblvp8TtkWGpfKWt6gFLHwx3xHSp7CM","width":2048}],"place_id":"ChIJDTz6STfWZUcRu2gcjKf7RxU","plus_code":{"compound_code":"R226+FC Zagreb","global_code":"8FQRR226+FC"},"rating":4.5,"reference":"ChIJDTz6STfWZUcRu2gcjKf7RxU","types":["restaurant","lodging","food","point_of_interest","establishment"],"user_ratings_total":886},{"business_status":"OPERATIONAL","formatted_address":"Medvedgradska ul. 2, 10000, Zagreb","geometry":{"location":{"lat":45.821303,"lng":15.9770211},"viewport":{"northeast":{"lat":45.82267077989273,"lng":15.97831007989272},"southwest":{"lat":45.81997112010728,"lng":15.97561042010728}}},"icon":"https://maps.gstatic.com/mapfiles/place_api/icons/v1/png_71/restaurant-71.png","icon_background_color":"#FF9E67","icon_mask_base_uri":"https://maps.gstatic.com/mapfiles/place_api/icons/v2/restaurant_pinlet","name":"Restoran ManO","opening_hours":{"open_now":true},"photos":[{"height":2736,"html_attributions":["<a href=\"https://maps.google.com/maps/contrib/101813298821595806476\">Davor Andric</a>"],"photo_reference":"AeJbb3ey4cvQwLctmSUaXPbwmEkWFmfDL59VMBqEF3t_xB7puIu0UsvpRXcG2BL32uo3Mbw-FrmMQeV89pr53NpoJxnfyfozHWh84YNDhdk6r6GmTOUfckTLrAVnZrh9QxNjj0QT2KfWFQZiG4M4toGkcbQ4csdKzUWbNlTxWqqHvp2QpZ-7","width":3648}],"place_id":"ChIJu3GZLgXXZUcR2qs7N5D6OrE","plus_code":{"compound_code":"RXCG+GR Zagreb","global_code":"8FQQRXCG+GR"},"rating":4.5,"reference":"ChIJu3GZLgXXZUcR2qs7N5D6OrE","types":["restaurant","food","point_of_interest","establishment"],"user_ratings_total":423},{"business_status":"OPERATIONAL","formatted_address":"Ul. Grada Vukovara 271, 10000, Zagreb","geometry":{"location":{"lat":45.8029214,"lng":16.0084165},"viewport":{"northeast":{"lat":45.80426382989273,"lng":16.00977432989272},"southwest":{"lat":45.80156417010728,"lng":16.00707467010728}}},"icon":"https://maps.gstatic.com/mapfiles/place_api/icons/v1/png_71/restaurant-71.png","icon_background_color":"#FF9E67","icon_mask_base_uri":"https://maps.gstatic.com/mapfiles/place_api/icons/v2/restaurant_pinlet","name":"Casablanca","opening_hours":{"open_now":true},"photos":[{"height":1536,"html_attributions":["<a href=\"https://maps.google.com/maps/contrib/109551081546840013842\">Restoran Casablanca</a>"],"photo_reference":"AeJbb3fTpdvDkJPo5lY9tS5K7q21xz1oIeIRPpXeNU7wYO7RxuasRkB_uem-AaUnZpwuUS9WZ4AShefXzWAHdkZ-A0oG0bRHAx334xhqhC4iVfc-X6m7PJxRYBiSlYTQXX7yLI4qABQ9Z5fQgixOoudNP1Aw5RTDOs5BKyXN3K4wQnnd8k0i","width":2048}],"place_id":"ChIJLcVzTIJ4ZkcRzyqEcsqO3kQ","plus_code":{"compound_code":"R235+59 Zagreb","global_code":"8FQRR235+59"},"price_level":2,"rating":4.4,"reference":"ChIJLcVzTIJ4ZkcRzyqEcsqO3kQ","types":["restaurant","food","point_of_interest","establishment"],"user_ratings_total":589},{"business_status":"OPERATIONAL","formatted_address":"Ul. Kneza Mislava 13, 10000, Zagreb","geometry":{"location":{"lat":45.8090682,"lng":15.985661},"viewport":{"northeast":{"lat":45.81036627989272,"lng":15.98707832989272},"southwest":{"lat":45.80766662010728,"lng":15.98437867010728}}},"icon":"https://maps.gstatic.com/mapfiles/place_api/icons/v1/png_71/restaurant-71.png","icon_background_color":"#FF9E67","icon_mask_base_uri":"https://maps.gstatic.com/mapfiles/place_api/icons/v2/restaurant_pinlet","name":"La Nostra Casa","opening_hours":{"open_now":true},"photos":[{"height":3464,"html_attributions":["<a href=\"https://maps.google.com/maps/contrib/117674394954836276666\">A Google User</a>"],"photo_reference":"AeJbb3dpF9-X2bDRYaxdsefUn_YWGB_PJ5jsnv2GGdJi7bItM848kGZclWHqtb3xFqez221XWubgYT3PqJ9otyIa3To1Sm6nu-RfBVgUuYaa7Dk9do5QMLfWt7fhaNyzSIRNg9xbYf4RBcYlHqPcyJJ8LRrz6aunWL7YKM9NrmHRoSKjaY-7","width":4618}],"place_id":"ChIJzTT1i-7XZUcRdYme7HL6Gbs","plus_code":{"compound_code":"RX5P+J7 Zagreb","global_code":"8FQQRX5P+J7"},"rating":4.4,"reference":"ChIJzTT1i-7XZUcRdYme7HL6Gbs","types":["restaurant","food","point_of_interest","establishment"],"user_ratings_total":249},{"business_status":"OPERATIONAL","formatted_address":"Strojarska cesta 22, 10000, Zagreb","geometry":{"location":{"lat":45.8036531,"lng":15.990128},"viewport":{"northeast":{"lat":45.80527902989272,"lng":15.99133277989272},"southwest":{"lat":45.80257937010728,"lng":15.98863312010728}}},"icon":"https://maps.gstatic.com/mapfiles/place_api/icons/v1/png_71/restaurant-71.png","icon_background_color":"#FF9E67","icon_mask_base_uri":"https://maps.gstatic.com/mapfiles/place_api/icons/v2/restaurant_pinlet","name":"Lateral","opening_hours":{"open_now":true},"photos":[{"height":3274,"html_attributions":["<a href=\"https://maps.google.com/maps/contrib/115159452719355631419\">A Google User</a>"],"photo_reference":"AeJbb3dJGdsvtTPKommtC-HJcm4-88UpmdLac15blvslqAPOgo9eegk_4mCXC9HOZCIZpzlrnPNi32CwpiH3da_u_PtptFMirPpb4hSh0-PMedYOqwx84Tw3C3LM6PAAzMSOoChBsgBIarmsBX2JWL_aIkXizNf79Ff9RLBJmjEcRHmxIPlx","width":4526}],"place_id":"ChIJ_cBOYlDWZUcRrIEQnL1q-GM","plus_code":{"compound_code":"RX3R+F3 Zagreb","global_code":"8FQQRX3R+F3"},"price_level":2,"rating":4.4,"reference":"ChIJ_cBOYlDWZUcRrIEQnL1q-GM","types":["restaurant","food","point_of_interest","establishment"],"user_ratings_total":237},{"business_status":"OPERATIONAL","formatted_address":"Ul. Grada Vukovara 39, 10000, Zagreb","geometry":{"location":{"lat":45.8001395,"lng":15.9715452},"viewport":{"northeast":{"lat":45.80140652989272,"lng":15.97290322989272},"southwest":{"lat":45.79870687010727,"lng":15.97020357010727}}},"icon":"https://maps.gstatic.com/mapfiles/place_api/icons/v1/png_71/restaurant-71.png","icon_background_color":"#FF9E67","icon_mask_base_uri":"https://maps.gstatic.com/mapfiles/place_api/icons/v2/restaurant_pinlet","name":"Cassandra Student Restaurant","opening_hours":{"open_now":true},"photos":[{"height":2592,"html_attributions":["<a href=\"https://maps.google.com/maps/contrib/115490586807417302058\">A Google User</a>"],"photo_reference":"AeJbb3fTP_Ke68PdY9EgqgZ7Kq9qbYrRo8o2-jMfFKvFZu1_yyjF8nGveMFfubjoQ8-P-t7rLO44IQAhvPrXOH8WEnwNniYd9aC1AEyz2_kKOoLngobT5AMUYHudCBsmywBi6JUIzFWHUBEGjkTc_ydhrvXrBi8SCcadJ_m1GkQLfLlch_f5","width":3888}],"place_id":"ChIJSTKaCPTWZUcRgAddE9R1vgI","plus_code":{"compound_code":"RX2C+3J Zagreb","global_code":"8FQQRX2C+3J"},"price_level":1,"rating":4.3,"reference":"ChIJSTKaCPTWZUcRgAddE9R1vgI","types":["restaurant","food","point_of_interest","establishment"],"user_ratings_total":282},{"business_status":"OPERATIONAL","formatted_address":"Preradovićeva ul. 4, 10000, Zagreb","geometry":{"location":{"lat":45.81156319999999,"lng":15.9741521},"viewport":{"northeast":{"lat":45.81275492989272,"lng":15.97556177989272},"southwest":{"lat":45.81005527010728,"lng":15.97286212010728}}},"icon":"https://maps.gstatic.com/mapfiles/place_api/icons/v1/png_71/restaurant-71.png","icon_background_color":"#FF9E67","icon_mask_base_uri":"https://maps.gstatic.com/mapfiles/place_api/icons/v2/restaurant_pinlet","name":"Juice Box","opening_hours":{"open_now":true},"photos":[{"height":4160,"html_attributions":["<a href=\"https://maps.google.com/maps/contrib/111267969920752718549\">A Google User</a>"],"photo_reference":"AeJbb3cQmNzgF0nI0p9_QPFPB2k-lDqpAPc1LBiFc55HlJXcpKc3JyydeMMrbwNVJd4t-woRL86rjsJkCFkzrUkG8Eyuoih_unLjngstMsilT1iN2_ECNh0g3nyS4MMk-b4kdakQOH1K-qdAIsfY7z0LWtP8kE6Ymzk7KOifss_5egZnAtjm","width":6240}],"place_id":"ChIJpRwV3ILXZUcR3_JWkw31bTk","plus_code":{"compound_code":"RX6F+JM Zagreb","global_code":"8FQQRX6F+JM"},"rating":4.3,"reference":"ChIJpRwV3ILXZUcR3_JWkw31bTk","types":["restaurant","food","point_of_interest","establishment"],"user_ratings_total":6},{"business_status":"OPERATIONAL","formatted_address":"Jablanska ul. 24, 10000, Zagreb","geometry":{"location":{"lat":45.7980734,"lng":15.9136999},"viewport":{"northeast":{"lat":45.79944497989273,"lng":15.91509362989272},"southwest":{"lat":45.79674532010728,"lng":15.91239397010728}}},"icon":"https://maps.gstatic.com/mapfiles/place_api/icons/v1/png_71/restaurant-71.png","icon_background_color":"#FF9E67","icon_mask_base_uri":"https://maps.gstatic.com/mapfiles/place_api/icons/v2/restaurant_pinlet","name":"Restoran CHEF","opening_hours":{"open_now":true},"place_id":"ChIJBWVE3U7RZUcRV6hej0KOYsQ","plus_code":{"compound_code":"QWX7+6F Zagreb","global_code":"8FQQQWX7+6F"},"rating":4.3,"reference":"ChIJBWVE3U7RZUcRV6hej0KOYsQ","types":["restaurant","food","point_of_interest","establishment"],"user_ratings_total":4},{"business_status":"OPERATIONAL","formatted_address":"Vlaška ul. 19, 10000, Zagreb","geometry":{"location":{"lat":45.8133911,"lng":15.9806129},"viewport":{"northeast":{"lat":45.81468522989272,"lng":15.98196672989272},"southwest":{"lat":45.81198557010728,"lng":15.97926707010728}}},"icon":"https://maps.gstatic.com/mapfiles/place_api/icons/v1/png_71/restaurant-71.png","icon_background_color":"#FF9E67","icon_mask_base_uri":"https://maps.gstatic.com/mapfiles/place_api/icons/v2/restaurant_pinlet","name":"Rusko Bistro","opening_hours":{"open_now":true},"photos":[{"height":3024,"html_attributions":["<a href=\"https://maps.google.com/maps/contrib/115148484650044141408\">A Google User</a>"],"photo_reference":"AeJbb3dtECEN7Ipv13o6a3GHzN6yvWNLQyvSeI3VfsCL6Z46Bekh0I6Z9YNPPS_rhxqyFkzGhRFhqlix98tMw1_AbPblUrf3IKXx8gJ_XtAP-KfRZdjZdicbgkTUWYMXTfB2j-4WeziwNecmCQYZf6cT9fRqiJTaZUfO-eXsSRrJlZpBbECH","width":4032}],"place_id":"ChIJC2r-vzLXZUcRGugdfUs4SIw","plus_code":{"compound_code":"RX7J+96 Zagreb","global_code":"8FQQRX7J+96"},"rating":4.2,"reference":"ChIJC2r-vzLXZUcRGugdfUs4SIw","types":["restaurant","food","point_of_interest","establishment"],"user_ratings_total":70},{"business_status":"OPERATIONAL","formatted_address":"Av. Većeslava Holjevca 20, 10000, Zagreb","geometry":{"location":{"lat":45.7743786,"lng":15.9796002},"viewport":{"northeast":{"lat":45.77572277989272,"lng":15.98108142989272},"southwest":{"lat":45.77302312010728,"lng":15.97838177010728}}},"icon":"https://maps.gstatic.com/mapfiles/place_api/icons/v1/png_71/restaurant-71.png","icon_background_color":"#FF9E67","icon_mask_base_uri":"https://maps.gstatic.com/mapfiles/place_api/icons/v2/restaurant_pinlet","name":"Navis restaurant","opening_hours":{"open_now":true},"photos":[{"height":512,"html_attributions":["<a href=\"https://maps.google.com/maps/contrib/115236955201059214286\">A Google User</a>"],"photo_reference":"AeJbb3cX3mT5bY_zxZ8PVK8HKFkp6uFHd-A8YxJs0kuyKt3HKaRdj4WYP46xa5tWMegbCUXtTfHr7Fvae6e_vjDOvbwG7ATh4eCaSx3vR5Hf4ZfUUjSllhHM5UaiyTMlR6KdQqEVaWtmQaBXc9HvcsaGCiA55G4ILugLR2mcZ4LoK4r1vqZv","width":768}],"place_id":"ChIJFUCcd5PXZUcR_pViqJlcdjo","plus_code":{"compound_code":"QXFH+QR Zagreb","global_code":"8FQQQXFH+QR"},"rating":4.2,"reference":"ChIJFUCcd5PXZUcR_pViqJlcdjo","types":["restaurant","food","point_of_interest","establishment"],"user_ratings_total":6},{"business_status":"OPERATIONAL","formatted_address":"Ul. Grada Vukovara 269f, 10000, Zagreb","geometry":{"location":{"lat":45.8018991,"lng":16.0024587},"viewport":{"northeast":{"lat":45.80306567989273,"lng":16.00382757989272},"southwest":{"lat":45.80036602010728,"lng":16.00112792010728}}},"icon":"https://maps.gstatic.com/mapfiles/place_api/icons/v1/png_71/restaurant-71.png","icon_background_color":"#FF9E67","icon_mask_base_uri":"https://maps.gstatic.com/mapfiles/place_api/icons/v2/restaurant_pinlet","name":"Good Food","photos":[{"height":1080,"html_attributions":["<a href=\"https://maps.google.com/maps/contrib/113118401167484090162\">Gary Hawton</a>"],"photo_reference":"AeJbb3d2wbx6k8ZpktxzbrIKCi_QY9zgjLlJ4pXOQ6jev56SP20vXXVIukUK3DAR3yPk-sLMtGI4bs8i-ips7sUXFuaXmzl7t167jolc7AuzhRBLOg67dK0wNOuFxdHGARY23F5vdonp9ZsdwUQgAPc3ZvxWMSNPuTmil2nQnqNRPhQqxRwv","width":1920}],"place_id":"ChIJv0aX9_jXZUcR4AH79_7fQCY","plus_code":{"compound_code":"R222+QX Zagreb","global_code":"8FQRR222+QX"},"rating":4,"reference":"ChIJv0aX9_jXZUcR4AH79_7fQCY","types":["restaurant","food","point_of_interest","establishment"],"user_ratings_total":2},{"business_status":"OPERATIONAL","formatted_address":"Slavonska avenija 22, 10000, Zagreb","geometry":{"location":{"lat":45.7963844,"lng":16.0312785},"viewport":{"northeast":{"lat":45.79779392989273,"lng":16.03260917989272},"southwest":{"lat":45.79509427010728,"lng":16.02990952010727}}},"icon":"https://maps.gstatic.com/mapfiles/place_api/icons/v1/png_71/restaurant-71.png","icon_background_color":"#FF9E67","icon_mask_base_uri":"https://maps.gstatic.com/mapfiles/place_api/icons/v2/restaurant_pinlet","name":"Fabbrica","opening_hours":{"open_now":true},"photos":[{"height":700,"html_attributions":["<a href=\"https://maps.google.com/maps/contrib/115745515895558918862\">A Google User</a>"],"photo_reference":"AeJbb3cbOlP8MgWX58UP5I__XB3pkbPkt1xtKjxB_3gup-_Fa_NbZO_Ni1iwvln0aDWa9fz4fYOcxOh6AJkA4qh_UMNcR8_UCFataE3EKjSn2RMstqmYBcN-PPyv5shiF6gDvlPVMACylw0PVPTxhshpeuTOODvUWS2Kmn2eQu8mHFTyoX4I","width":700}],"place_id":"ChIJ7Ttme_15ZkcRqu2MjQfUHyA","plus_code":{"compound_code":"Q2WJ+GG Zagreb","global_code":"8FQRQ2WJ+GG"},"rating":3.8,"reference":"ChIJ7Ttme_15ZkcRqu2MjQfUHyA","types":["restaurant","food","point_of_interest","establishment"],"user_ratings_total":9},{"business_status":"OPERATIONAL","formatted_address":"Preradovićeva ul. 3, 10000, Zagreb","geometry":{"location":{"lat":45.8117026,"lng":15.9743309},"viewport":{"northeast":{"lat":45.81282392989272,"lng":15.97564467989272},"southwest":{"lat":45.81012427010728,"lng":15.97294502010728}}},"icon":"https://maps.gstatic.com/mapfiles/place_api/icons/v1/png_71/restaurant-71.png","icon_background_color":"#FF9E67","icon_mask_base_uri":"https://maps.gstatic.com/mapfiles/place_api/icons/v2/restaurant_pinlet","name":"Princess","opening_hours":{"open_now":true},"place_id":"ChIJP5eT0LV1ZkcR6rNiZ77m8F4","plus_code":{"compound_code":"RX6F+MP Zagreb","global_code":"8FQQRX6F+MP"},"rating":3.3,"reference":"ChIJP5eT0LV1ZkcR6rNiZ77m8F4","types":["restaurant","food","point_of_interest","establishment"],"user_ratings_total":3},{"business_status":"OPERATIONAL","formatted_address":"Dežmanova ul. 9, 10000, Zagreb","geometry":{"location":{"lat":45.8146363,"lng":15.9695879},"viewport":{"northeast":{"lat":45.81599047989272,"lng":15.97099002989272},"southwest":{"lat":45.81329082010728,"lng":15.96829037010728}}},"icon":"https://maps.gstatic.com/mapfiles/place_api/icons/v1/png_71/restaurant-71.png","icon_background_color":"#FF9E67","icon_mask_base_uri":"https://maps.gstatic.com/mapfiles/place_api/icons/v2/restaurant_pinlet","name":"Velvet White","opening_hours":{"open_now":true},"photos":[{"height":3024,"html_attributions":["<a href=\"https://maps.google.com/maps/contrib/112756784228664485703\">vjeko.pavicin</a>"],"photo_reference":"AeJbb3eUjgX5ditvjCb_AIaGCZwsP2URtLyiHz0o-InjBfjfwXOmwi8V09H8kEKvQpoDtonX2Wm-dW8J6v4Fm3kjzpbb62krglRfOmcbzAxdNiPLAjCHp3l0q3gSe5BDdwJiz1N3m0bEN-PDoqZx4ubD-DbauE0sGLl7Xu3Ccv9PbMLgdtNZ","width":4032}],"place_id":"ChIJifG8qVHXZUcR2sBpMqKOlaQ","plus_code":{"compound_code":"RX79+VR Zagreb","global_code":"8FQQRX79+VR"},"rating":3,"reference":"ChIJifG8qVHXZUcR2sBpMqKOlaQ","types":["restaurant","food","point_of_interest","establishment"],"user_ratings_total":2},{"business_status":"OPERATIONAL","formatted_address":"Radićeva ul. 14, 10000, Zagreb","geometry":{"location":{"lat":45.81431790000001,"lng":15.9758096},"viewport":{"northeast":{"lat":45.81540432989271,"lng":15.97761577989272},"southwest":{"lat":45.81270467010727,"lng":15.97491612010728}}},"icon":"https://maps.gstatic.com/mapfiles/place_api/icons/v1/png_71/restaurant-71.png","icon_background_color":"#FF9E67","icon_mask_base_uri":"https://maps.gstatic.com/mapfiles/place_api/icons/v2/restaurant_pinlet","name":"Asia 餐館","place_id":"ChIJ76u-AhbXZUcRCAgQNZK1gV4","plus_code":{"compound_code":"RX7G+P8 Zagreb","global_code":"8FQQRX7G+P8"},"rating":0,"reference":"ChIJ76u-AhbXZUcRCAgQNZK1gV4","types":["restaurant","food","point_of_interest","establishment"],"user_ratings_total":0},{"business_status":"OPERATIONAL","formatted_address":"Jarunska ul. 2, 10000, Zagreb","geometry":{"location":{"lat":45.7849825,"lng":15.9477229},"viewport":{"northeast":{"lat":45.78627147989272,"lng":15.94913647989272},"southwest":{"lat":45.78357182010728,"lng":15.94643682010728}}},"icon":"https://maps.gstatic.com/mapfiles/place_api/icons/v1/png_71/restaurant-71.png","icon_background_color":"#FF9E67","icon_mask_base_uri":"https://maps.gstatic.com/mapfiles/place_api/icons/v2/restaurant_pinlet","name":"Slastičarna","photos":[{"height":4128,"html_attributions":["<a href=\"https://maps.google.com/maps/contrib/117544721533274743444\">franjo koletić</a>"],"photo_reference":"AeJbb3eTZ9ZsPJWgIdsR7VJKoUppaboFNfJAgYZkhCwmDxxabeCOVyT8v9aeJRyqFnh3yEcp0ntK15BHUMO_WvjDRTPMvnaqWmTUKXWw3xFKEuZpW72_EvJAPWZwBEpn-9k-zj46qBXby70KzROpazOjtmzNJ3SP20ZUUwVPUd3VkQhSHpRU","width":3096}],"place_id":"ChIJo2UjCVTXZUcRmJvcpwV3CvI","plus_code":{"compound_code":"QWPX+23 Zagreb","global_code":"8FQQQWPX+23"},"rating":0,"reference":"ChIJo2UjCVTXZUcRmJvcpwV3CvI","types":["restaurant","food","point_of_interest","establishment"],"user_ratings_total":0},{"business_status":"OPERATIONAL","formatted_address":"Ul. Grada Vukovara 16, 10000, Zagreb","geometry":{"location":{"lat":45.7990323,"lng":15.956924},"viewport":{"northeast":{"lat":45.80045782989273,"lng":15.95829317989272},"southwest":{"lat":45.79775817010728,"lng":15.95559352010728}}},"icon":"https://maps.gstatic.com/mapfiles/place_api/icons/v1/png_71/restaurant-71.png","icon_background_color":"#FF9E67","icon_mask_base_uri":"https://maps.gstatic.com/mapfiles/place_api/icons/v2/restaurant_pinlet","name":"Restoran Hajduci","place_id":"ChIJR7g-lfTXZUcR56V_q2DHFN8","plus_code":{"compound_code":"QXX4+JQ Zagreb","global_code":"8FQQQXX4+JQ"},"rating":0,"reference":"ChIJR7g-lfTXZUcR56V_q2DHFN8","types":["restaurant","food","point_of_interest","establishment"],"user_ratings_total":0},{"business_status":"OPERATIONAL","formatted_address":"Trg Europe, 10000, Zagreb","geometry":{"location":{"lat":45.8133349,"lng":15.9800609},"viewport":{"northeast":{"lat":45.81466002989272,"lng":15.98141632989272},"southwest":{"lat":45.81196037010728,"lng":15.97871667010727}}},"icon":"https://maps.gstatic.com/mapfiles/place_api/icons/v1/png_71/restaurant-71.png","icon_background_color":"#FF9E67","icon_mask_base_uri":"https://maps.gstatic.com/mapfiles/place_api/icons/v2/restaurant_pinlet","name":"Sportelina","place_id":"ChIJwdVyAbfXZUcRYlEnbneg1IQ","plus_code":{"compound_code":"RX7J+82 Zagreb","global_code":"8FQQRX7J+82"},"rating":0,"reference":"ChIJwdVyAbfXZUcRYlEnbneg1IQ","types":["restaurant","food","point_of_interest","establishment"],"user_ratings_total":0},{"business_status":"OPERATIONAL","formatted_address":"Ul. Ivana Tkalčića 19, 10000, Zagreb","geometry":{"location":{"lat":45.8148468,"lng":15.9761087},"viewport":{"northeast":{"lat":45.81566862989272,"lng":15.97780842989272},"southwest":{"lat":45.81296897010727,"lng":15.97510877010728}}},"icon":"https://maps.gstatic.com/mapfiles/place_api/icons/v1/png_71/restaurant-71.png","icon_background_color":"#FF9E67","icon_mask_base_uri":"https://maps.gstatic.com/mapfiles/place_api/icons/v2/restaurant_pinlet","name":"Camino cafe","place_id":"ChIJD4KtcpjXZUcRRafMCKH7dNc","plus_code":{"compound_code":"RX7G+WC Zagreb","global_code":"8FQQRX7G+WC"},"rating":0,"reference":"ChIJD4KtcpjXZUcRRafMCKH7dNc","types":["restaurant","food","point_of_interest","establishment"],"user_ratings_total":0},{"business_status":"OPERATIONAL","formatted_address":"10000, Zagreb","geometry":{"location":{"lat":45.8150108,"lng":15.9819189},"viewport":{"northeast":{"lat":45.81635507989272,"lng":15.98325282989272},"southwest":{"lat":45.81365542010727,"lng":15.98055317010728}}},"icon":"https://maps.gstatic.com/mapfiles/place_api/icons/v1/png_71/restaurant-71.png","icon_background_color":"#FF9E67","icon_mask_base_uri":"https://maps.gstatic.com/mapfiles/place_api/icons/v2/restaurant_pinlet","name":"Sushi","place_id":"ChIJ8xSD607XZUcRUOiyOEQHyxI","plus_code":{"compound_code":"RX8J+2Q Zagreb","global_code":"8FQQRX8J+2Q"},"rating":0,"reference":"ChIJ8xSD607XZUcRUOiyOEQHyxI","types":["restaurant","food","point_of_interest","establishment"],"user_ratings_total":0}]