[{"business_status":"OPERATIONAL","formatted_address":"Piazzale Marassi, 6r, 16139 Genova GE","geometry":{"location":{"lat":44.4181449,"lng":8.9497261},"viewport":{"northeast":{"lat":44.41946217989272,"lng":8.95101272989272},"southwest":{"lat":44.41676252010728,"lng":8.948313070107275}}},"icon":"https://maps.gstatic.com/mapfiles/place_api/icons/v1/png_71/restaurant-71.png","icon_background_color":"#FF9E67","icon_mask_base_uri":"https://maps.gstatic.com/mapfiles/place_api/icons/v2/restaurant_pinlet","name":"Ristorante Qingtian","opening_hours":{"open_now":false},"photos":[{"height":870,"html_attributions":["<a href=\"https://maps.google.com/maps/contrib/101249973240931256171\">A Google User</a>"],"photo_reference":"AeJbb3eEFI5lBH5Skm51qYOGJScVlu8NKeS3X8KEBROCTDk1i3CaQW72XXEFyMAeUhszzBnmJo8zedj-XpQDQhgvqShiHXUvPteN4IppRAF__0U87rh9GxP7qhHFkKEgOWTIjjW6_TV9JNhBcQmNkZvgt_n2x-T7JUIcX1cNE8SoLRL3VGaj","width":617}],"place_id":"ChIJM1oZWeBD0xIR6Q-xw8PKZEg","plus_code":{"compound_code":"CW9X+7V Genoa, Metropolitan City of Genoa","global_code":"8FPCCW9X+7V"},"rating":5,"reference":"ChIJM1oZWeBD0xIR6Q-xw8PKZEg","types":["restaurant","food","point_of_interest","establishment"],"user_ratings_total":1},{"business_status":"OPERATIONAL","formatted_address":"Via Giordano Bruno, 25/27r, 16146 Genova GE","geometry":{"location":{"lat":44.3920351,"lng":8.9709617},"viewport":{"northeast":{"lat":44.39342147989272,"lng":8.972272429892719},"southwest":{"lat":44.39072182010728,"lng":8.969572770107275}}},"icon":"https://maps.gstatic.com/mapfiles/place_api/icons/v1/png_71/generic_business-71.png","icon_background_color":"#7B9EB0","icon_mask_base_uri":"https://maps.gstatic.com/mapfiles/place_api/icons/v2/generic_pinlet","name":"Jin Restaurant","opening_hours":{"open_now":false},"photos":[{"height":1044,"html_attributions":["<a href=\"https://maps.google.com/maps/contrib/113566410477466189383\">A Google User</a>"],"photo_reference":"AeJbb3epMBPRjALmsIZiDQoVpV9SFSDC31NbZnPg1DkWZMJbWWwzpW6S1Qynee3tauYd7C9TZGKHooRzaj4xMBLS73vYjuQK-3JRYmCv3DdwPwbiRpiynOiBxWpY4NCUAaNJfaKyF5LTivC5Ma9v-q5WK2dyl32YHE0fgMlkEX8HECiYfhGu","width":1562}],"place_id":"ChIJ2-jWeplD0xIR2w-rwWtMwaM","plus_code":{"compound_code":"9XRC+R9 Genoa, Metropolitan City of Genoa","global_code":"8FPC9XRC+R9"},"rating":4.9,"reference":"ChIJ2-jWeplD0xIR2w-rwWtMwaM","types":["meal_delivery","restaurant","food","point_of_interest","establishment"],"user_ratings_total":155},{"business_status":"OPERATIONAL","formatted_address":"r,, Via Lomellini, 5, 16124 Genova GE","geometry":{"location":{"lat":44.4120391,"lng":8.9292866},"viewport":{"northeast":{"lat":44.41307132989273,"lng":8.930562279892722},"southwest":{"lat":44.41037167010728,"lng":8.927862620107279}}},"icon":"https://maps.gstatic.com/mapfiles/place_api/icons/v1/png_71/restaurant-71.png","icon_background_color":"#FF9E67","icon_mask_base_uri":"https://maps.gstatic.com/mapfiles/place_api/icons/v2/restaurant_pinlet","name":"Lo's Take Away","opening_hours":{"open_now":true},"photos":[{"height":2268,"html_attributions":["<a href=\"https://maps.google.com/maps/contrib/115580126138104978671\">A Google User</a>"],"photo_reference":"AeJbb3cv3uI4TVgZBdtydzvo1wwDCZ83Cor0TlLhhD_Au7OmNfU4zAn83ufbdIrmNl19beMWeBIjYHTQ-4sLpxqzXyGA_tDtVT2SxlUmNQ5wgJsVsPuj0_PUMRXckUcUpYUHh4sXt-ircdi4VfXAdeDASod0BdnI2_I8qa7FZz_M82MSmD3p","width":4032}],"place_id":"ChIJPxHzWeFD0xIR6gsG1IZVoxM","plus_code":{"compound_code":"CW6H+RP Genoa, Metropolitan City of Genoa","global_code":"8FPCCW6H+RP"},"price_level":1,"rating":4.7,"reference":"ChIJPxHzWeFD0xIR6gsG1IZVoxM","types":["restaurant","food","point_of_interest","establishment"],"user_ratings_total":87},{"business_status":"OPERATIONAL","formatted_address":"Via Terenzio Mamiani, 38, 16149 Genova GE","geometry":{"location":{"lat":44.4110255,"lng":8.8873328},"viewport":{"northeast":{"lat":44.41242572989272,"lng":8.888565879892722},"southwest":{"lat":44.40972607010728,"lng":8.885866220107278}}},"icon":"https://maps.gstatic.com/mapfiles/place_api/icons/v1/png_71/restaurant-71.png","icon_background_color":"#FF9E67","icon_mask_base_uri":"https://maps.gstatic.com/mapfiles/place_api/icons/v2/restaurant_pinlet","name":"Ristorante Hua-Da-Li","place_id":"ChIJJaxzCyJB0xIRqmLSXgqpAQ8","plus_code":{"compound_code":"CV6P+CV Genoa, Metropolitan City of Genoa","global_code":"8FPCCV6P+CV"},"rating":4.7,"reference":"ChIJJaxzCyJB0xIRqmLSXgqpAQ8","types":["restaurant","food","point_of_interest","establishment"],"user_ratings_total":3},{"business_status":"OPERATIONAL","formatted_address":"Piazza Della Raibetta, 4, 16128 Genova GE","geometry":{"location":{"lat":44.4085634,"lng":8.928804},"viewport":{"northeast":{"lat":44.40976092989272,"lng":8.930208029892722},"southwest":{"lat":44.40706127010728,"lng":8.927508370107278}}},"icon":"https://maps.gstatic.com/mapfiles/place_api/icons/v1/png_71/restaurant-71.png","icon_background_color":"#FF9E67","icon_mask_base_uri":"https://maps.gstatic.com/mapfiles/place_api/icons/v2/restaurant_pinlet","name":"Ravioli Orientali","opening_hours":{"open_now":true},"photos":[{"height":4000,"html_attributions":["<a href=\"https://maps.google.com/maps/contrib/117497734221917895854\">A Google User</a>"],"photo_reference":"AeJbb3cBmPUXYWZbraAJcMWhU-rJIH_y_jsBS9Am3Vt8Hu4MAqCowTc7jFyLxn6WfuyRdRlt6nurmHLMMjJcMvWzhucORmyav1Wx3PBnChrVOQVLZCn9PwjdMGOzM2Ji3Lwf7ct3_DfHLGsFgBlfGfkUhdCIKF-Tt13NLJRK5GDhB5Eqtmf0","width":2252}],"place_id":"ChIJAeoevOBD0xIRhzD5q5W6IlU","plus_code":{"compound_code":"CW5H+CG Genoa, Metropolitan City of Genoa","global_code":"8FPCCW5H+CG"},"price_level":1,"rating":4.6,"reference":"ChIJAeoevOBD0xIRhzD5q5W6IlU","types":["restaurant","food","point_of_interest","establishment"],"user_ratings_total":142},{"business_status":"OPERATIONAL","formatted_address":"Salita di S. Matteo, 25/R, 16123 Genova GE","geometry":{"location":{"lat":44.4079638,"lng":8.9334148},"viewport":{"northeast":{"lat":44.40925857989272,"lng":8.935051879892722},"southwest":{"lat":44.40655892010728,"lng":8.932352220107278}}},"icon":"https://maps.gstatic.com/mapfiles/place_api/icons/v1/png_71/restaurant-71.png","icon_background_color":"#FF9E67","icon_mask_base_uri":"https://maps.gstatic.com/mapfiles/place_api/icons/v2/restaurant_pinlet","name":"Ristorante Cinese Hon Hai","opening_hours":{"open_now":false},"photos":[{"height":1816,"html_attributions":["<a href=\"https://maps.google.com/maps/contrib/107083983711779136190\">A Google User</a>"],"photo_reference":"AeJbb3fJN0mg6A4SyMJnNjKaOZD_d-9bPzC3_oXqOLkXrxdzQ87Fd6iQPuwvnybjpwjaw96B_FfsUrBzGrxGO1w2A-UDH-drz7DGDPOvoyn75On-P-B_7RQHGggPTsnDpdIFZqBvmLV58F00AMWIdW0sQDotGUrU4wm4NyaDu4GcF1r-Hmjd","width":4032}],"place_id":"ChIJX8-zm-dD0xIRLcKvuHw9feQ","plus_code":{"compound_code":"CW5M+59 Genoa, Metropolitan City of Genoa","global_code":"8FPCCW5M+59"},"rating":4.6,"reference":"ChIJX8-zm-dD0xIRLcKvuHw9feQ","types":["restaurant","food","point_of_interest","establishment"],"user_ratings_total":5},{"business_status":"OPERATIONAL","formatted_address":"Via Edmondo de Amicis, 32, 16122 Genova GE","geometry":{"location":{"lat":44.4077608,"lng":8.9449372},"viewport":{"northeast":{"lat":44.40907377989272,"lng":8.946335679892723},"southwest":{"lat":44.40637412010727,"lng":8.943636020107279}}},"icon":"https://maps.gstatic.com/mapfiles/place_api/icons/v1/png_71/restaurant-71.png","icon_background_color":"#FF9E67","icon_mask_base_uri":"https://maps.gstatic.com/mapfiles/place_api/icons/v2/restaurant_pinlet","name":"Re Naya","opening_hours":{"open_now":false},"photos":[{"height":3456,"html_attributions":["<a href=\"https://maps.google.com/maps/contrib/113406624305578136252\">Sabina Arecco</a>"],"photo_reference":"AeJbb3egdhg1M3-p1NU_0MSHQu9-KJur35q2gUxik-aSzCTX8WrisJ_PKWfDpdS0SXWshLI8WTFTUT_u8EgmqidHAQzQzEShzvHQhc_K4CKjik3Ds_1lJFl7uQPs4njJkiCLcyz55MXySY0PyFzNw6haIFVaRSk_vSbpbn1S-CxlEQ1EK8aG","width":4608}],"place_id":"ChIJncF1u-pD0xIR699QWcLnmOU","plus_code":{"compound_code":"CW5V+4X Genoa, Metropolitan City of Genoa","global_code":"8FPCCW5V+4X"},"price_level":1,"rating":4.5,"reference":"ChIJncF1u-pD0xIR699QWcLnmOU","types":["restaurant","food","point_of_interest","establishment"],"user_ratings_total":564},{"business_status":"OPERATIONAL","formatted_address":"Via di Porta Soprana, 25R, 16123 Genova GE","geometry":{"location":{"lat":44.4062534,"lng":8.9332242},"viewport":{"northeast":{"lat":44.40764582989272,"lng":8.934640529892723},"southwest":{"lat":44.40494617010728,"lng":8.93194087010728}}},"icon":"https://maps.gstatic.com/mapfiles/place_api/icons/v1/png_71/restaurant-71.png","icon_background_color":"#FF9E67","icon_mask_base_uri":"https://maps.gstatic.com/mapfiles/place_api/icons/v2/restaurant_pinlet","name":"Yi Wei Chinese Art Restaurant","opening_hours":{"open_now":false},"photos":[{"height":3024,"html_attributions":["<a href=\"https://maps.google.com/maps/contrib/117927553807662213008\">Rogério Sgroi Correa</a>"],"photo_reference":"AeJbb3f3HtpjhZjrCK8qNiQo4wqLmcCelkh5aH4Nr8aY2z9tsHEvqkbz__YkN1BsYEoOIU_sJwJbAyZjxDdPLynK1W1CyTvdpv09dZF9pnGwDjxirch91pLGmSIf3aPhTwvVchs35uiiB8NaZ_EPHusZoWV-3W1L92CQl1C1pJ2Dxg5uk7yv","width":4032}],"place_id":"ChIJU_5BFN1D0xIRwhNffD1LypQ","plus_code":{"compound_code":"CW4M+G7 Genoa, Metropolitan City of Genoa","global_code":"8FPCCW4M+G7"},"price_level":2,"rating":4.5,"reference":"ChIJU_5BFN1D0xIRwhNffD1LypQ","types":["restaurant","food","point_of_interest","establishment"],"user_ratings_total":337},{"business_status":"OPERATIONAL","formatted_address":"Via Ettore Vernazza, 8, 16121 Genova GE","geometry":{"location":{"lat":44.40686400000001,"lng":8.9373776},"viewport":{"northeast":{"lat":44.40819847989272,"lng":8.93884542989272},"southwest":{"lat":44.40549882010728,"lng":8.936145770107276}}},"icon":"https://maps.gstatic.com/mapfiles/place_api/icons/v1/png_71/restaurant-71.png","icon_background_color":"#FF9E67","icon_mask_base_uri":"https://maps.gstatic.com/mapfiles/place_api/icons/v2/restaurant_pinlet","name":"源「中、日、泰」餐厅","opening_hours":{"open_now":false},"photos":[{"height":3016,"html_attributions":["<a href=\"https://maps.google.com/maps/contrib/100874361309201318457\">RS</a>"],"photo_reference":"AeJbb3fwX1NbvTt0oc6dJw2STlmDawGW2qj9ltmXKE8HjS77z940DdLzhUrZ60XjqkEKxCP65blyXaY8ve5CAjFp-oPit1GabTz9oyACYhyTt28qOFE5cuhhGAb84xUo5GNzK1tmochiyVp1VS1l_4nErHBkBu_sVm34nnq2E_DI_Sd1xNRm","width":4032}],"place_id":"ChIJS9s2nMJD0xIRZAVB7mtqmfo","plus_code":{"compound_code":"CW4P+PX Genoa, Metropolitan City of Genoa","global_code":"8FPCCW4P+PX"},"price_level":2,"rating":4.4,"reference":"ChIJS9s2nMJD0xIRZAVB7mtqmfo","types":["restaurant","food","point_of_interest","establishment"],"user_ratings_total":1013},{"business_status":"OPERATIONAL","formatted_address":"Via Monticelli, 106r, 16142 Genova GE","geometry":{"location":{"lat":44.4155556,"lng":8.9566667},"viewport":{"northeast":{"lat":44.41682907989272,"lng":8.95807237989272},"southwest":{"lat":44.41412942010727,"lng":8.955372720107276}}},"icon":"https://maps.gstatic.com/mapfiles/place_api/icons/v1/png_71/restaurant-71.png","icon_background_color":"#FF9E67","icon_mask_base_uri":"https://maps.gstatic.com/mapfiles/place_api/icons/v2/restaurant_pinlet","name":"Ristorante Nuova Cina","opening_hours":{"open_now":false},"photos":[{"height":3120,"html_attributions":["<a href=\"https://maps.google.com/maps/contrib/102507326475919245726\">Stefano Molfino</a>"],"photo_reference":"AeJbb3dJ04ng38XVAxWeN-Rg32U5retOPopMwaO3DfaVTWD1R4Z8eDY-m5bJBGr0fZnE_EkDUp3sjM4p-gsXtSoobBs8-H5cSQy7m20cE-DvP-wMYDUiLGBisgQYiX8MXXvcigndx1SalXTWTsrxhUIrV-cPvGkG2FlBPU8PuIb16QK4l4o","width":4160}],"place_id":"ChIJf51T7I9D0xIR7x0-YOVwMGg","plus_code":{"compound_code":"CX84+6M Genoa, Metropolitan City of Genoa","global_code":"8FPCCX84+6M"},"price_level":1,"rating":4.4,"reference":"ChIJf51T7I9D0xIR7x0-YOVwMGg","types":["restaurant","food","point_of_interest","establishment"],"user_ratings_total":483},{"business_status":"OPERATIONAL","formatted_address":"Via Costantino Morin, 21R, 16129 Genova GE","geometry":{"location":{"lat":44.39653879999999,"lng":8.9486727},"viewport":{"northeast":{"lat":44.39783722989272,"lng":8.949997429892724},"southwest":{"lat":44.39513757010728,"lng":8.94729777010728}}},"icon":"https://maps.gstatic.com/mapfiles/place_api/icons/v1/png_71/restaurant-71.png","icon_background_color":"#FF9E67","icon_mask_base_uri":"https://maps.gstatic.com/mapfiles/place_api/icons/v2/restaurant_pinlet","name":"Giardino D'Oro","opening_hours":{"open_now":false},"photos":[{"height":2600,"html_attributions":["<a href=\"https://maps.google.com/maps/contrib/116492516327991953501\">Borja Palencia Lopez</a>"],"photo_reference":"AeJbb3fA6rUreP4V50iL7ZF8v7C42YlKgW0UEA1UHrHTUBgq-ZVdsl4D2gr04jMlgd6cb7LN-RoHnNFUfbIm72d7-vkc4hApK75g0VKrekZB5pzmbbJhznlRZKiK47hT-modYeMHBTVqXPTB74NIYi635y2ngmWOJW6B1QVmvofucjc7xLRZ","width":4624}],"place_id":"ChIJDc62hbdD0xIRgn5oWZ1pzEA","plus_code":{"compound_code":"9WWX+JF Genoa, Metropolitan City of Genoa","global_code":"8FPC9WWX+JF"},"price_level":1,"rating":4.4,"reference":"ChIJDc62hbdD0xIRgn5oWZ1pzEA","types":["restaurant","food","point_of_interest","establishment"],"user_ratings_total":202},{"business_status":"OPERATIONAL","formatted_address":"Via della Cella, 74R, 16149 Genova GE","geometry":{"location":{"lat":44.4117921,"lng":8.8909542},"viewport":{"northeast":{"lat":44.41307377989271,"lng":8.892299379892721},"southwest":{"lat":44.41037412010727,"lng":8.889599720107277}}},"icon":"https://maps.gstatic.com/mapfiles/place_api/icons/v1/png_71/restaurant-71.png","icon_background_color":"#FF9E67","icon_mask_base_uri":"https://maps.gstatic.com/mapfiles/place_api/icons/v2/restaurant_pinlet","name":"Dong Au","opening_hours":{"open_now":false},"photos":[{"height":4032,"html_attributions":["<a href=\"https://maps.google.com/maps/contrib/109478469715647115649\">antonio pasceri</a>"],"photo_reference":"AeJbb3eqGtCLITyNDslL3-TdOiop2E1LGy2v6BaaOUoZOs_jKnmamDqiPWgT-NAJ0ErNJ1lzK6ZSkonsQyPVGplZGFd9mS_glhvzCcBX7zbchC9aRXwVyBklCdnGDTX-9l46qBJj3EwJQ4FbwoTERBge2G73EZRv6-TP0ULkh0InkAfMdwW8","width":1960}],"place_id":"ChIJZ3RnySJB0xIRZNljgw0ZnP4","plus_code":{"compound_code":"CV6R+P9 Genoa, Metropolitan City of Genoa","global_code":"8FPCCV6R+P9"},"price_level":1,"rating":4.4,"reference":"ChIJZ3RnySJB0xIRZNljgw0ZnP4","types":["restaurant","food","point_of_interest","establishment"],"user_ratings_total":186},{"business_status":"OPERATIONAL","formatted_address":"Via di Canneto Il Lungo, 8R, 16123 Genova GE","geometry":{"location":{"lat":44.4077311,"lng":8.9297568},"viewport":{"northeast":{"lat":44.40930247989272,"lng":8.930620929892724},"southwest":{"lat":44.40660282010727,"lng":8.92792127010728}}},"icon":"https://maps.gstatic.com/mapfiles/place_api/icons/v1/png_71/restaurant-71.png","icon_background_color":"#FF9E67","icon_mask_base_uri":"https://maps.gstatic.com/mapfiles/place_api/icons/v2/restaurant_pinlet","name":"Ristorante Asiatique","opening_hours":{"open_now":false},"photos":[{"height":1512,"html_attributions":["<a href=\"https://maps.google.com/maps/contrib/101136040516504066806\">A Google User</a>"],"photo_reference":"AeJbb3epDsmh70QMz0jt4c5VTv8Ob8oar40c7mDnxJ00qzzf-DK09iN_SUMmpH5WSkRCP5T0TwPLYQ0sAgK7Ifb_nYOA0jdT3sIEhFfCrGhgmsUjXopccpQY4uzTiu3Uh5LDho8LLC_8u5j_nNjHGtglElR0rdq5ExhCSARFlscO9rCW71Vm","width":2016}],"place_id":"ChIJ-0rNq-BD0xIRj2GQl0xuLvc","plus_code":{"compound_code":"CW5H+3W Genoa, Metropolitan City of Genoa","global_code":"8FPCCW5H+3W"},"rating":4.4,"reference":"ChIJ-0rNq-BD0xIRj2GQl0xuLvc","types":["restaurant","food","point_of_interest","establishment"],"user_ratings_total":182},{"business_status":"OPERATIONAL","formatted_address":"Via Piacenza, 155/Rosso, 16138 Genova GE","geometry":{"location":{"lat":44.438156,"lng":8.962168199999999},"viewport":{"northeast":{"lat":44.43949857989271,"lng":8.963537079892722},"southwest":{"lat":44.43679892010727,"lng":8.960837420107278}}},"icon":"https://maps.gstatic.com/mapfiles/place_api/icons/v1/png_71/restaurant-71.png","icon_background_color":"#FF9E67","icon_mask_base_uri":"https://maps.gstatic.com/mapfiles/place_api/icons/v2/restaurant_pinlet","name":"La Grande Muraglia Gastronomia Cinese","opening_hours":{"open_now":false},"photos":[{"height":1599,"html_attributions":["<a href=\"https://maps.google.com/maps/contrib/114539416655329794629\">Sara Torresan</a>"],"photo_reference":"AeJbb3dLkgPbDJrWaPgEe_DWlJJubVn9Svhpg0yCp93lmdziXUUISLj1fVAH6e72znI4yH_ERWZ0NM84tAzypVfCusFWBzkM307GW1OICMtUAHnDdR8WkrdNINtG3g_pIuosQLHOcbhotEWzStcjA8_EcypjEFc3VxSmP24xmAmF9dClmYio","width":899}],"place_id":"ChIJa88fb_dE0xIReGnHOZ7tMHo","plus_code":{"compound_code":"CXQ6+7V Genoa, Metropolitan City of Genoa","global_code":"8FPCCXQ6+7V"},"price_level":1,"rating":4.4,"reference":"ChIJa88fb_dE0xIReGnHOZ7tMHo","types":["meal_delivery","restaurant","food","point_of_interest","establishment"],"user_ratings_total":160},{"business_status":"OPERATIONAL","formatted_address":"Via Pietro Toselli, 38R, 16143 Genova GE","geometry":{"location":{"lat":44.40769299999999,"lng":8.956045},"viewport":{"northeast":{"lat":44.40908697989272,"lng":8.957469729892724},"southwest":{"lat":44.40638732010728,"lng":8.95477007010728}}},"icon":"https://maps.gstatic.com/mapfiles/place_api/icons/v1/png_71/restaurant-71.png","icon_background_color":"#FF9E67","icon_mask_base_uri":"https://maps.gstatic.com/mapfiles/place_api/icons/v2/restaurant_pinlet","name":"Sempre qui da Sakura","opening_hours":{"open_now":true},"photos":[{"height":4000,"html_attributions":["<a href=\"https://maps.google.com/maps/contrib/107432949267445217395\">A Google User</a>"],"photo_reference":"AeJbb3c6sYN-Gmf0L7LHBjagUkiPp8e28ueViII1hJ4e8EtLAoCqiDe1mAvG2iHrLPlXVtDVfETwdpeJ4im5uJl3s3ST9XOIBP3oYX3KbG8yjEhe4-TLlZP8SIHQZUXzbP0Am5dqYr2aOWrcac8MiAzlQpF7YucvLw3J-eqxRpvU_OAbZB5k","width":3000}],"place_id":"ChIJP_MboZdD0xIRWOdxlLjdW-Q","plus_code":{"compound_code":"CX54+3C Genoa, Metropolitan City of Genoa","global_code":"8FPCCX54+3C"},"price_level":1,"rating":4.4,"reference":"ChIJP_MboZdD0xIRWOdxlLjdW-Q","types":["meal_takeaway","restaurant","food","point_of_interest","establishment"],"user_ratings_total":61},{"business_status":"OPERATIONAL","formatted_address":"Via Teresio Mario Canepari, 11/13 Rr, 16159 Genova GE","geometry":{"location":{"lat":44.4290276,"lng":8.8936032},"viewport":{"northeast":{"lat":44.43038242989272,"lng":8.894843879892722},"southwest":{"lat":44.42768277010727,"lng":8.892144220107278}}},"icon":"https://maps.gstatic.com/mapfiles/place_api/icons/v1/png_71/restaurant-71.png","icon_background_color":"#FF9E67","icon_mask_base_uri":"https://maps.gstatic.com/mapfiles/place_api/icons/v2/restaurant_pinlet","name":"da Lilly","opening_hours":{"open_now":false},"photos":[{"height":1080,"html_attributions":["<a href=\"https://maps.google.com/maps/contrib/114219154425058511342\">claudio brovia</a>"],"photo_reference":"AeJbb3cSQ6Wym-Ek5ToyB88ojCaFSymjY7YRncUWGQA631YYu2Hk815RaXi0g8Fh_FBcvDMtD1LiVSqjhi_J6u435BXANwfq92tqu87eI5TdEbtsqDtZRqXz6ugAzpe8IHJqB5FlEEOom6h4u3191nDRyRBXTIApDMdNCEWamOyQQw5OD21E","width":1920}],"place_id":"ChIJ4cWK0jJB0xIRXsyUNKNY8IY","plus_code":{"compound_code":"CVHV+JC Genoa, Metropolitan City of Genoa","global_code":"8FPCCVHV+JC"},"price_level":1,"rating":4.3,"reference":"ChIJ4cWK0jJB0xIRXsyUNKNY8IY","types":["restaurant","food","point_of_interest","establishment"],"user_ratings_total":364},{"business_status":"OPERATIONAL","formatted_address":"Via Napoli, 113, 16134 Genova GE","geometry":{"location":{"lat":44.4216628,"lng":8.9206495},"viewport":{"northeast":{"lat":44.42300807989272,"lng":8.921914179892722},"southwest":{"lat":44.42030842010728,"lng":8.919214520107278}}},"icon":"https://maps.gstatic.com/mapfiles/place_api/icons/v1/png_71/restaurant-71.png","icon_background_color":"#FF9E67","icon_mask_base_uri":"https://maps.gstatic.com/mapfiles/place_api/icons/v2/restaurant_pinlet","name":"Rosticceria Cinese Macao","opening_hours":{"open_now":false},"photos":[{"height":3472,"html_attributions":["<a href=\"https://maps.google.com/maps/contrib/116116074504388724127\">Maurizio Pigliacampi</a>"],"photo_reference":"AeJbb3dbLyQeG0Zvd9km-NfIaF2h10wZAFD2ygaOg9OdR-mtQ1AETHDL38Zk_2dhXSlIW0AtOiQ0TK0nj2TOKclV6XYyoH2BEht3pDQUMIF0BXITDg1NCEKd-7jxIHp5HqNB_jh6g37Q9MNvaQlluYgA7MxW5yjj_2JumGGIPhsCxwkxAjnB","width":4640}],"place_id":"ChIJxXgjFFRB0xIRP9J2Ae1-55U","plus_code":{"compound_code":"CWCC+M6 Genoa, Metropolitan City of Genoa","global_code":"8FPCCWCC+M6"},"price_level":1,"rating":4.3,"reference":"ChIJxXgjFFRB0xIRP9J2Ae1-55U","types":["restaurant","food","point_of_interest","establishment"],"user_ratings_total":187},{"business_status":"OPERATIONAL","formatted_address":"Via Giuseppe Biancheri, 30R, 16154 Genova GE","geometry":{"location":{"lat":44.4235289,"lng":8.848442499999999},"viewport":{"northeast":{"lat":44.42494067989273,"lng":8.849774379892722},"southwest":{"lat":44.42224102010729,"lng":8.847074720107278}}},"icon":"https://maps.gstatic.com/mapfiles/place_api/icons/v1/png_71/restaurant-71.png","icon_background_color":"#FF9E67","icon_mask_base_uri":"https://maps.gstatic.com/mapfiles/place_api/icons/v2/restaurant_pinlet","name":"Da huang Ristorante Cinese","opening_hours":{"open_now":false},"photos":[{"height":504,"html_attributions":["<a href=\"https://maps.google.com/maps/contrib/100395194823326922197\">A Google User</a>"],"photo_reference":"AeJbb3deXIwoTJ_IIlKw22Ug4rU7zivMs4sNGY2wV9uycm8IuKi-VWRit-XavBcEFfLdRu77NQHC2iwqKBBAPtb_HX8c6wp-BlAIlWWVBHwZgu3q6OJ-fOk_cD0jEq3okd2X4WQKvA7Jg7gs39zlMdwd5tlR3Q5uxet0K5L0dzvY5f6Q4Egq","width":568}],"place_id":"ChIJZS_fC7BA0xIRwkC3gSZ6wjU","plus_code":{"compound_code":"CRFX+C9 Genoa, Metropolitan City of Genoa","global_code":"8FPCCRFX+C9"},"price_level":1,"rating":4.3,"reference":"ChIJZS_fC7BA0xIRwkC3gSZ6wjU","types":["restaurant","food","point_of_interest","establishment"],"user_ratings_total":179},{"business_status":"OPERATIONAL","formatted_address":"Via Teresio Mario Canepari, 3, 16159 Genova GE","geometry":{"location":{"lat":44.4298557,"lng":8.8932425},"viewport":{"northeast":{"lat":44.43121917989272,"lng":8.894639379892721},"southwest":{"lat":44.42851952010728,"lng":8.891939720107278}}},"icon":"https://maps.gstatic.com/mapfiles/place_api/icons/v1/png_71/restaurant-71.png","icon_background_color":"#FF9E67","icon_mask_base_uri":"https://maps.gstatic.com/mapfiles/place_api/icons/v2/restaurant_pinlet","name":"Rosticceria Cinese Ji Xiang Di Hu Chen","opening_hours":{"open_now":false},"photos":[{"height":1920,"html_attributions":["<a href=\"https://maps.google.com/maps/contrib/106886383871248552204\">Maurizio Trucco</a>"],"photo_reference":"AeJbb3cyF9dV2TjKSx-S5zpMyI1_JWUCNZ3LtlzajGR5QkC12iFDTElJagwUt0Nh6kiprwIOFELwr-TE_3wb_GSop_GGukQC5rN8q4uEl8yptWeTDv5CFFJiEdBefOkAS0NuT0bZaq33PXA5frKncl-jPalPuHkXBzmV_7SVSAXR_d-x1X40","width":1080}],"place_id":"ChIJ7QMSMc1G0xIRJks3xQ8J10o","plus_code":{"compound_code":"CVHV+W7 Genoa, Metropolitan City of Genoa","global_code":"8FPCCVHV+W7"},"price_level":1,"rating":4.3,"reference":"ChIJ7QMSMc1G0xIRJks3xQ8J10o","types":["meal_takeaway","restaurant","food","point_of_interest","establishment"],"user_ratings_total":102},{"business_status":"OPERATIONAL","formatted_address":"Via Ilva, 18 r, 16128 Genova GE","geometry":{"location":{"lat":44.4015533,"lng":8.9390699},"viewport":{"northeast":{"lat":44.40286417989272,"lng":8.940361429892723},"southwest":{"lat":44.40016452010727,"lng":8.93766177010728}}},"icon":"https://maps.gstatic.com/mapfiles/place_api/icons/v1/png_71/restaurant-71.png","icon_background_color":"#FF9E67","icon_mask_base_uri":"https://maps.gstatic.com/mapfiles/place_api/icons/v2/restaurant_pinlet","name":"Sushi Dong","opening_hours":{"open_now":false},"photos":[{"height":2250,"html_attributions":["<a href=\"https://maps.google.com/maps/contrib/108247300842798519438\">A Google User</a>"],"photo_reference":"AeJbb3esEFepO0G5ScDSJLxYXE9RagHEh6PxPg-KKvh76Ftz-IUighCYuplTpbwMazGQXvq44FVbSgkYuUb-_YUeDv4YMrVMNYq7BbVvQlZlynNh5e9lnTzwkyY4lAezYGDlzUrjXYsP1Y7U5LiDDj3a5hB7JdUSiXVDmtdzuc4IPVaZwwKA","width":4000}],"place_id":"ChIJJd7a2fpD0xIR2lIb9YSC7cA","plus_code":{"compound_code":"CW2Q+JJ Genoa, Metropolitan City of Genoa","global_code":"8FPCCW2Q+JJ"},"rating":4.3,"reference":"ChIJJd7a2fpD0xIR2lIb9YSC7cA","types":["restaurant","food","point_of_interest","establishment"],"user_ratings_total":41},{"business_status":"OPERATIONAL","formatted_address":"Via Antonio Gramsci, 185/R, 16126 Genova GE","geometry":{"location":{"lat":44.4152715,"lng":8.923434799999999},"viewport":{"northeast":{"lat":44.41655067989272,"lng":8.924716279892722},"southwest":{"lat":44.41385102010728,"lng":8.922016620107279}}},"icon":"https://maps.gstatic.com/mapfiles/place_api/icons/v1/png_71/restaurant-71.png","icon_background_color":"#FF9E67","icon_mask_base_uri":"https://maps.gstatic.com/mapfiles/place_api/icons/v2/restaurant_pinlet","name":"Mr chen","opening_hours":{"open_now":true},"photos":[{"height":730,"html_attributions":["<a href=\"https://maps.google.com/maps/contrib/110815946549058936958\">A Google User</a>"],"photo_reference":"AeJbb3dxsoqHVldgtlevYlRZ6SosGTUQ5McmonwzHZSZWesRm7VPBF0YiMNd4qxf99eSOcg2wVXxm-DZ1mc8okgXgp91sJfBmX1aGC5QPREBSWmeJa7R_C1HsNt4QAKzAUngrR5gPEf_NNVYeS-ekZ-oG6gYALj9LcV5rpJ1VIwrlFB944yl","width":1029}],"place_id":"ChIJS7fjYVhB0xIRTY0COgPWGOQ","plus_code":{"compound_code":"CW8F+49 Genoa, Metropolitan City of Genoa","global_code":"8FPCCW8F+49"},"rating":4.3,"reference":"ChIJS7fjYVhB0xIRTY0COgPWGOQ","types":["restaurant","food","point_of_interest","establishment"],"user_ratings_total":28},{"business_status":"OPERATIONAL","formatted_address":"Salita di S. Matteo, 25/R, 16123 Genova GE","geometry":{"location":{"lat":44.4079638,"lng":8.9334148},"viewport":{"northeast":{"lat":44.40925222989272,"lng":8.93501407989272},"southwest":{"lat":44.40655257010727,"lng":8.932314420107277}}},"icon":"https://maps.gstatic.com/mapfiles/place_api/icons/v1/png_71/restaurant-71.png","icon_background_color":"#FF9E67","icon_mask_base_uri":"https://maps.gstatic.com/mapfiles/place_api/icons/v2/restaurant_pinlet","name":"Mio Sushi","opening_hours":{"open_now":false},"photos":[{"height":4000,"html_attributions":["<a href=\"https://maps.google.com/maps/contrib/117987476031371463765\">Jordy Pasquali</a>"],"photo_reference":"AeJbb3fjza5WVttjFqb_EJk1E1jQMYWAALEEtfo-SG4wYxntBHrHQ-kkAEcSdI7fq79h6aC839xJw_NeQdrTPnL0jTL9O6hw6pYkUAjYRsddIusKtDsfwONnujkGQjKcQhLup7DX2b24JLi5MZ9mUkXwcHEV3EDz-a2F8kO_DvQCqJm81tLX","width":3008}],"place_id":"ChIJOY8wN-dD0xIRUVQBtzf9sNw","plus_code":{"compound_code":"CW5M+59 Genoa, Metropolitan City of Genoa","global_code":"8FPCCW5M+59"},"price_level":1,"rating":4.2,"reference":"ChIJOY8wN-dD0xIRUVQBtzf9sNw","types":["restaurant","food","point_of_interest","establishment"],"user_ratings_total":616},{"business_status":"OPERATIONAL","formatted_address":"Via XX Settembre 41/6-7 (angolo Piazza De Ferrari, Piano 4, 16121 Genova GE","geometry":{"location":{"lat":44.40714029999999,"lng":8.9348852},"viewport":{"northeast":{"lat":44.40845112989272,"lng":8.936216429892722},"southwest":{"lat":44.40575147010728,"lng":8.933516770107278}}},"icon":"https://maps.gstatic.com/mapfiles/place_api/icons/v1/png_71/restaurant-71.png","icon_background_color":"#FF9E67","icon_mask_base_uri":"https://maps.gstatic.com/mapfiles/place_api/icons/v2/restaurant_pinlet","name":"sushi-si","opening_hours":{"open_now":false},"photos":[{"height":4312,"html_attributions":["<a href=\"https://maps.google.com/maps/contrib/114874473054491321638\">tiziana pellissier</a>"],"photo_reference":"AeJbb3fWBeAFsgBV-wTEdCgUWeGC2qlDzvFkPvAzFQdTkAOmvzDAhIiHO8lIQ8Oj49LDIKiHJvguZgaF1p4HkfLOp2QzTUTW2sqAG0ZZE97t9jCw-78hArkaRWm7qVLltD3ke16i7nTnzk7DdutQD70CB40sm8-yNm6frZAMcjJoDDa1-FmY","width":5760}],"place_id":"ChIJzTiUuWJD0xIRE7ofcPmKCYA","plus_code":{"compound_code":"CW4M+VX Genoa, Metropolitan City of Genoa","global_code":"8FPCCW4M+VX"},"price_level":2,"rating":4.2,"reference":"ChIJzTiUuWJD0xIRE7ofcPmKCYA","types":["meal_takeaway","restaurant","food","point_of_interest","establishment"],"user_ratings_total":499},{"business_status":"OPERATIONAL","formatted_address":"Corso Torino, 50, 16129 Genova GE","geometry":{"location":{"lat":44.3991564,"lng":8.9495566},"viewport":{"northeast":{"lat":44.40051252989272,"lng":8.950879779892723},"southwest":{"lat":44.39781287010727,"lng":8.94818012010728}}},"icon":"https://maps.gstatic.com/mapfiles/place_api/icons/v1/png_71/restaurant-71.png","icon_background_color":"#FF9E67","icon_mask_base_uri":"https://maps.gstatic.com/mapfiles/place_api/icons/v2/restaurant_pinlet","name":"Drago d'Oro","opening_hours":{"open_now":false},"photos":[{"height":4032,"html_attributions":["<a href=\"https://maps.google.com/maps/contrib/113889078701897228290\">Annamaria Principi</a>"],"photo_reference":"AeJbb3cDouSpm5vt5oosP1JKWAKkoHk3jLPVZc6CYW5k9fs9lByhDrOF-jQ0jhkB_zAmsgNdnd9VBiA2yHzOqSsHlXkQLM1LovoSUA2kLkxDwOe-w8gEC0qm_TGxw-91Ru0GLWwe9GlW4v1mvyFs84It-XJO9TFQlv4mSpBhkOSG0LK1d64K","width":3024}],"place_id":"ChIJwVh1ALlD0xIR-WCjLIC-3c4","plus_code":{"compound_code":"9WXX+MR Genoa, Metropolitan City of Genoa","global_code":"8FPC9WXX+MR"},"price_level":1,"rating":4.2,"reference":"ChIJwVh1ALlD0xIR-WCjLIC-3c4","types":["meal_delivery","restaurant","food","point_of_interest","establishment"],"user_ratings_total":268},{"business_status":"OPERATIONAL","formatted_address":"Via Paolo Anfossi, 138R, 16164 Genova GE","geometry":{"location":{"lat":44.495331,"lng":8.904888},"viewport":{"northeast":{"lat":44.49669247989272,"lng":8.90633722989272},"southwest":{"lat":44.49399282010727,"lng":8.903637570107277}}},"icon":"https://maps.gstatic.com/mapfiles/place_api/icons/v1/png_71/restaurant-71.png","icon_background_color":"#FF9E67","icon_mask_base_uri":"https://maps.gstatic.com/mapfiles/place_api/icons/v2/restaurant_pinlet","name":"La Muraglia","opening_hours":{"open_now":false},"photos":[{"height":4032,"html_attributions":["<a href=\"https://maps.google.com/maps/contrib/108585736847262721201\">林淑</a>"],"photo_reference":"AeJbb3eE3kXUN-IXztkI17JpwmSA0_XV77YRKh8wYK5guu87OfSVEvdBWv5fvpiZ5jM2ePrxZDVeDagwykrrwgL4eeUcTKeg5Wk178Z9uK6xnKdkn3f51mJyDhrtLtZs6mwDrY90VE3WCdcpPrki5Kgx08N_7v-RfPWiVdp2eA5ipEO55Ea9","width":3024}],"place_id":"ChIJP3vYUBhG0xIRkdLGcvOAC0U","plus_code":{"compound_code":"FWW3+4X Genoa, Metropolitan City of Genoa","global_code":"8FPCFWW3+4X"},"price_level":1,"rating":4.2,"reference":"ChIJP3vYUBhG0xIRkdLGcvOAC0U","types":["restaurant","food","point_of_interest","establishment"],"user_ratings_total":267},{"business_status":"OPERATIONAL","formatted_address":"Via della Libertà, 4, 16129 Genova GE","geometry":{"location":{"lat":44.4019284,"lng":8.9494056},"viewport":{"northeast":{"lat":44.40333307989273,"lng":8.950730829892722},"southwest":{"lat":44.40063342010728,"lng":8.948031170107278}}},"icon":"https://maps.gstatic.com/mapfiles/place_api/icons/v1/png_71/restaurant-71.png","icon_background_color":"#FF9E67","icon_mask_base_uri":"https://maps.gstatic.com/mapfiles/place_api/icons/v2/restaurant_pinlet","name":"Il Mondo","opening_hours":{"open_now":true},"photos":[{"height":2988,"html_attributions":["<a href=\"https://maps.google.com/maps/contrib/102768497464515461746\">Pier Paolo Capponi</a>"],"photo_reference":"AeJbb3fz4nZIfypcKd4mnaahOJM4WA4e6NStzTrHAXf41qv-UWzoGcW_Tvkz0UmobtUMiDyUsOYoLAvAO87YVGae6zflYf_689-M6tVBAcuMfoI_iFNyYBhD2A-i9r2_04ymOlDdgVJnplFwLrkkLCUirSb7sT6GVvN7w98K5FcV6Op0yVFL","width":5312}],"place_id":"ChIJZeYpKr9D0xIRj26t6kg-UhI","plus_code":{"compound_code":"CW2X+QQ Genoa, Metropolitan City of Genoa","global_code":"8FPCCW2X+QQ"},"price_level":1,"rating":4.2,"reference":"ChIJZeYpKr9D0xIRj26t6kg-UhI","types":["restaurant","food","point_of_interest","establishment"],"user_ratings_total":202},{"business_status":"OPERATIONAL","formatted_address":"Via Molassana, 141R, 16138 Genova GE","geometry":{"location":{"lat":44.4543765,"lng":8.9821086},"viewport":{"northeast":{"lat":44.45576057989272,"lng":8.983453179892718},"southwest":{"lat":44.45306092010727,"lng":8.980753520107275}}},"icon":"https://maps.gstatic.com/mapfiles/place_api/icons/v1/png_71/restaurant-71.png","icon_background_color":"#FF9E67","icon_mask_base_uri":"https://maps.gstatic.com/mapfiles/place_api/icons/v2/restaurant_pinlet","name":"Da Hu - Chinese and Sushi take away","opening_hours":{"open_now":false},"photos":[{"height":3215,"html_attributions":["<a href=\"https://maps.google.com/maps/contrib/117987476031371463765\">Jordy Pasquali</a>"],"photo_reference":"AeJbb3flz7fOnLFCo2_03X1kpoJKLVWe8o7lGrap-Sr0Bqao0wYeC-9S3dF6pbRwlnsNRMIZcI45pNdmE6e8L0kv5I11VWC7RT-8ab2Npqb8_0XN1TKDvVCTT99eAPX5PrNFRk7nckNNeNOPOAFklDrjgkKzJ8SIKjL_OeNR5KM3daYORr3z","width":2972}],"place_id":"ChIJldXEtuRE0xIRwW3mhoU0Fik","plus_code":{"compound_code":"FX3J+PR Genoa, Metropolitan City of Genoa","global_code":"8FPCFX3J+PR"},"price_level":1,"rating":4.2,"reference":"ChIJldXEtuRE0xIRwW3mhoU0Fik","types":["meal_takeaway","restaurant","food","point_of_interest","establishment"],"user_ratings_total":153},{"business_status":"OPERATIONAL","formatted_address":"Via Teglia, 24R, 16161 Genova GE","geometry":{"location":{"lat":44.449197,"lng":8.894105999999999},"viewport":{"northeast":{"lat":44.45055807989272,"lng":8.895500729892722},"southwest":{"lat":44.44785842010727,"lng":8.892801070107279}}},"icon":"https://maps.gstatic.com/mapfiles/place_api/icons/v1/png_71/restaurant-71.png","icon_background_color":"#FF9E67","icon_mask_base_uri":"https://maps.gstatic.com/mapfiles/place_api/icons/v2/restaurant_pinlet","name":"Rosticceria da Lin","opening_hours":{"open_now":false},"photos":[{"height":1200,"html_attributions":["<a href=\"https://maps.google.com/maps/contrib/102930972427033327527\">A Google User</a>"],"photo_reference":"AeJbb3eNmdFQHxN3LgZx41Bc-nBtg7-DzFUdvRT2nMvQIGfiOG22NukpLV4kCswqH67L-gzOzLJM6HQ8q-qx-Ilaad0FxyZPP6E_XQB8VhFjYsN9mY-kVWoPXhb4KDeVE_M5Zf1AAC0NtrpUmQ5FBMxRnVZv-Z7LlvmdcF7o9Jw0CFNqfL53","width":1600}],"place_id":"ChIJcUYiS-hG0xIRGmARrKCciyM","plus_code":{"compound_code":"CVXV+MJ Genoa, Metropolitan City of Genoa","global_code":"8FPCCVXV+MJ"},"price_level":1,"rating":4.2,"reference":"ChIJcUYiS-hG0xIRGmARrKCciyM","types":["restaurant","food","point_of_interest","establishment"],"user_ratings_total":97},{"business_status":"OPERATIONAL","formatted_address":"Via Ronchi, 66 r, 16155 Genova GE","geometry":{"location":{"lat":44.4248017,"lng":8.823312},"viewport":{"northeast":{"lat":44.42625282989273,"lng":8.824614479892722},"southwest":{"lat":44.42355317010728,"lng":8.821914820107278}}},"icon":"https://maps.gstatic.com/mapfiles/place_api/icons/v1/png_71/restaurant-71.png","icon_background_color":"#FF9E67","icon_mask_base_uri":"https://maps.gstatic.com/mapfiles/place_api/icons/v2/restaurant_pinlet","name":"Oishii","opening_hours":{"open_now":false},"photos":[{"height":3456,"html_attributions":["<a href=\"https://maps.google.com/maps/contrib/101648117012177813782\">Adelmo R</a>"],"photo_reference":"AeJbb3fnIgTmrjNuRXGAl6HbyviVvtUFP6Nin3xL-1W4ZXU_7UwC_1KShZqS4MDVpm3KHbPOVdKWZEYrkSTUth28uf9q-DsLZhHI9nqGsuWDGV_D2ZCMJANdAx51GktNQYfC-5nXSqrqeJJylhaVZl51Mw2L7RJ7tndbNXbPpZXI2m_5P91j","width":4608}],"place_id":"ChIJSXgBZUU_0xIRe5YDwC7gWRw","plus_code":{"compound_code":"CRFF+W8 Genoa, Metropolitan City of Genoa","global_code":"8FPCCRFF+W8"},"price_level":2,"rating":4.1,"reference":"ChIJSXgBZUU_0xIRe5YDwC7gWRw","types":["restaurant","food","point_of_interest","establishment"],"user_ratings_total":1209},{"business_status":"OPERATIONAL","formatted_address":"Via S. Martino, 11R, 16131 Genova GE","geometry":{"location":{"lat":44.4048262,"lng":8.9685433},"viewport":{"northeast":{"lat":44.40620707989272,"lng":8.969882279892722},"southwest":{"lat":44.40350742010727,"lng":8.967182620107279}}},"icon":"https://maps.gstatic.com/mapfiles/place_api/icons/v1/png_71/restaurant-71.png","icon_background_color":"#FF9E67","icon_mask_base_uri":"https://maps.gstatic.com/mapfiles/place_api/icons/v2/restaurant_pinlet","name":"La Muraglia","opening_hours":{"open_now":false},"photos":[{"height":3968,"html_attributions":["<a href=\"https://maps.google.com/maps/contrib/103729179144567705538\">RickY TruE</a>"],"photo_reference":"AeJbb3d2vSUxzhuz_Iu-y2_89JnCdpIBpnQ6fJkJM_cFh6tW77ydT7jPabQYeGiVcFL7UWIQl24iW_wOh7-UhLGmvpZBN4mXZ37lcq857gx9b05snxC-j2BCTQ6tp5xAHG6KH-DuH0bVLkPqWVSuksNN78nIyvYhEidyzI3YB5Lb1vfDBMFr","width":2976}],"place_id":"ChIJZY0fV3VD0xIRCcFfqiSoH3E","plus_code":{"compound_code":"CX39+WC Genoa, Metropolitan City of Genoa","global_code":"8FPCCX39+WC"},"price_level":1,"rating":4.1,"reference":"ChIJZY0fV3VD0xIRCcFfqiSoH3E","types":["restaurant","food","point_of_interest","establishment"],"user_ratings_total":324},{"business_status":"OPERATIONAL","formatted_address":"Via Antonio Gramsci, 16126 Genova GE","geometry":{"location":{"lat":44.4147362,"lng":8.924311099999999},"viewport":{"northeast":{"lat":44.41607132989272,"lng":8.925580529892722},"southwest":{"lat":44.41337167010727,"lng":8.922880870107278}}},"icon":"https://maps.gstatic.com/mapfiles/place_api/icons/v1/png_71/restaurant-71.png","icon_background_color":"#FF9E67","icon_mask_base_uri":"https://maps.gstatic.com/mapfiles/place_api/icons/v2/restaurant_pinlet","name":"Jin's Fast Food","opening_hours":{"open_now":true},"photos":[{"height":4032,"html_attributions":["<a href=\"https://maps.google.com/maps/contrib/104541565665041557624\">Bárbara Silveira</a>"],"photo_reference":"AeJbb3cB0w8uX5QHg-DZ7QNHne3xBOQZ0JnXrjFqQAAA4E5YPQPrynd0ZFj1lAEskvFC9D9n8ACCfiyhUEWzcQsm8LnOOB5MnGhp1eDQdK0rgo3j_gC-VgjxiBgSUaiCTtSyVc-p-tfoM08S-gOWQo-iWRm8GNlDCrnZSaim9Dg7tPTPqRxg","width":3024}],"place_id":"ChIJ4eGEflhB0xIRbSvtaGK5KFc","plus_code":{"compound_code":"CW7F+VP Genoa, Metropolitan City of Genoa","global_code":"8FPCCW7F+VP"},"price_level":1,"rating":4.1,"reference":"ChIJ4eGEflhB0xIRbSvtaGK5KFc","types":["restaurant","food","point_of_interest","establishment"],"user_ratings_total":229},{"business_status":"OPERATIONAL","formatted_address":"Via Cavour, 4, 16036 Recco GE","geometry":{"location":{"lat":44.3624218,"lng":9.1414295},"viewport":{"northeast":{"lat":44.36380377989272,"lng":9.142789179892723},"southwest":{"lat":44.36110412010728,"lng":9.14008952010728}}},"icon":"https://maps.gstatic.com/mapfiles/place_api/icons/v1/png_71/restaurant-71.png","icon_background_color":"#FF9E67","icon_mask_base_uri":"https://maps.gstatic.com/mapfiles/place_api/icons/v2/restaurant_pinlet","name":"Cina Sushi Ristorante","opening_hours":{"open_now":false},"photos":[{"height":2322,"html_attributions":["<a href=\"https://maps.google.com/maps/contrib/100334107303877610322\">A Google User</a>"],"photo_reference":"AeJbb3cccEGQ2XXead7GASiDRULRtQ10su4fhhF0AkwCccYpL2vm9hIwISikssR-Mzkjx4JMEjZ4oY2y1f4qMhy2KnXuu8ZCJuoQO_FwWhl_8mqfupPxmRwhcGbQ3Tmp3nc0Ua4bsaPJj1AbkTHm64WDJ3fJP02Iq65vO5JaWYS4WdnKH5ir","width":4128}],"place_id":"ChIJdULo9E1e0xIR28aZeUUkOf0","plus_code":{"compound_code":"946R+XH Recco, Metropolitan City of Genoa","global_code":"8FPF946R+XH"},"price_level":1,"rating":4.1,"reference":"ChIJdULo9E1e0xIR28aZeUUkOf0","types":["restaurant","food","point_of_interest","establishment"],"user_ratings_total":86},{"business_status":"OPERATIONAL","formatted_address":"Via Milano, 140 rosso, 16126 Genova GE","geometry":{"location":{"lat":44.4098747,"lng":8.9073985},"viewport":{"northeast":{"lat":44.41120347989272,"lng":8.908794079892722},"southwest":{"lat":44.40850382010727,"lng":8.906094420107278}}},"icon":"https://maps.gstatic.com/mapfiles/place_api/icons/v1/png_71/restaurant-71.png","icon_background_color":"#FF9E67","icon_mask_base_uri":"https://maps.gstatic.com/mapfiles/place_api/icons/v2/restaurant_pinlet","name":"rosticceria cinese Ji","opening_hours":{"open_now":true},"photos":[{"height":2565,"html_attributions":["<a href=\"https://maps.google.com/maps/contrib/109086942809576041956\">A Google User</a>"],"photo_reference":"AeJbb3de6AiRs449zh8qgeD32Bsq71gNchDHPKprq-ptsROXKHV5oVUCcmm6mtzAYKK0Ja0cslfqmWD-OqtkXgNjD39l803Ir9CC3A61lpzUBnLL2pyzkYBRSiy9KNLQO9-kyzc53eqhFUwd64iQOQ9kjSVxBExcb782Ncc0E63NRWY0w0I_","width":1225}],"place_id":"ChIJs7w8siFB0xIR-GTpQ1SConI","plus_code":{"compound_code":"CW54+WX Genoa, Metropolitan City of Genoa","global_code":"8FPCCW54+WX"},"rating":4.1,"reference":"ChIJs7w8siFB0xIR-GTpQ1SConI","types":["restaurant","food","point_of_interest","establishment"],"user_ratings_total":13},{"business_status":"OPERATIONAL","formatted_address":"IT, Viale Brigata Bisagno, 16159 Genova","geometry":{"location":{"lat":44.4015586,"lng":8.9460066},"viewport":{"northeast":{"lat":44.40288992989272,"lng":8.947435979892724},"southwest":{"lat":44.40019027010727,"lng":8.94473632010728}}},"icon":"https://maps.gstatic.com/mapfiles/place_api/icons/v1/png_71/generic_business-71.png","icon_background_color":"#7B9EB0","icon_mask_base_uri":"https://maps.gstatic.com/mapfiles/place_api/icons/v2/generic_pinlet","name":"Laboratorio Dei Sapori","opening_hours":{"open_now":false},"photos":[{"height":3024,"html_attributions":["<a href=\"https://maps.google.com/maps/contrib/100885584696052283343\">A Google User</a>"],"photo_reference":"AeJbb3dF1XXolRgaZ8OEdSexR2MOkvTEiFG0HHKhICWP3Bs2Ypq_VuUIPmtrSWjJvQraBGy_3SwTenqR6_Zm_fjHr1gSmNGohkF0YDyKUmWivOjvN4-vA4NL6i2nD2cQ_oMvOquIf_rGc0WWZI6wl8Kj1OOBgTuM4FZPh4EUsu-0KFHaHVab","width":4032}],"place_id":"ChIJAwG16jRD0xIRMyQAl-pVyzQ","plus_code":{"compound_code":"CW2W+JC Genoa, Metropolitan City of Genoa","global_code":"8FPCCW2W+JC"},"price_level":1,"rating":4,"reference":"ChIJAwG16jRD0xIRMyQAl-pVyzQ","types":["meal_delivery","meal_takeaway","restaurant","food","point_of_interest","establishment"],"user_ratings_total":1766},{"business_status":"OPERATIONAL","formatted_address":"Lungomare di Pegli, 24R, 16156 Genova GE","geometry":{"location":{"lat":44.4245103,"lng":8.8147232},"viewport":{"northeast":{"lat":44.42593037989272,"lng":8.815973379892721},"southwest":{"lat":44.42323072010728,"lng":8.813273720107277}}},"icon":"https://maps.gstatic.com/mapfiles/place_api/icons/v1/png_71/restaurant-71.png","icon_background_color":"#FF9E67","icon_mask_base_uri":"https://maps.gstatic.com/mapfiles/place_api/icons/v2/restaurant_pinlet","name":"Hai Jing","opening_hours":{"open_now":false},"photos":[{"height":2733,"html_attributions":["<a href=\"https://maps.google.com/maps/contrib/112093359939741589292\">A Google User</a>"],"photo_reference":"AeJbb3dW4Tcs_aM4EzHuQpwxdITyNPxw5Ps2CNVxbOEQir7L3fcbqAFdRBJaQ646wLTA0AW_UCs2aBsSPVHJfaWorv4bBGQsLiDETatXmMjNaKXZfwOctK6kwh2baPex50B7wkloFpfZos2boa-0ExcmGL6p6CKn-z2oJvgIooWTeNRjRoYB","width":4032}],"place_id":"ChIJz4uEjkc_0xIR63-87IAXna4","plus_code":{"compound_code":"CRF7+RV Genoa, Metropolitan City of Genoa","global_code":"8FPCCRF7+RV"},"price_level":1,"rating":4,"reference":"ChIJz4uEjkc_0xIR63-87IAXna4","types":["restaurant","food","point_of_interest","establishment"],"user_ratings_total":359},{"business_status":"OPERATIONAL","formatted_address":"Via Pra', 158A/R, 16157 Genova GE","geometry":{"location":{"lat":44.42750729999999,"lng":8.7797652},"viewport":{"northeast":{"lat":44.42883767989272,"lng":8.78111712989272},"southwest":{"lat":44.42613802010727,"lng":8.778417470107277}}},"icon":"https://maps.gstatic.com/mapfiles/place_api/icons/v1/png_71/restaurant-71.png","icon_background_color":"#FF9E67","icon_mask_base_uri":"https://maps.gstatic.com/mapfiles/place_api/icons/v2/restaurant_pinlet","name":"Ristorante Sun Buon Gusto","opening_hours":{"open_now":false},"photos":[{"height":1152,"html_attributions":["<a href=\"https://maps.google.com/maps/contrib/111226285380281255882\">Carolina Moretto</a>"],"photo_reference":"AeJbb3fWlDIT1JoyGKQ0YBmRvV14Lo358O3DZPbTwWunzJ-CNRe25E6glzegmnHnI0DJ9waFLOlhK5g88Or6GqZM3xyzMRUEdS0TSQ33xHzDgG8MJnmVvmdRbxv57Zo2TnJete6ERugv_4ufq49BecRQ_Ew-bwIQlOzu2hO_or1X1xI1hmV-","width":2048}],"place_id":"ChIJT1SeTsY-0xIRKo1JbUu1yis","plus_code":{"compound_code":"CQHH+2W Genoa, Metropolitan City of Genoa","global_code":"8FPCCQHH+2W"},"price_level":1,"rating":4,"reference":"ChIJT1SeTsY-0xIRKo1JbUu1yis","types":["restaurant","food","point_of_interest","establishment"],"user_ratings_total":206},{"business_status":"OPERATIONAL","formatted_address":"Via Cornigliano, 106, 16152 Genova GE","geometry":{"location":{"lat":44.415966,"lng":8.8735351},"viewport":{"northeast":{"lat":44.41735867989271,"lng":8.874841329892723},"southwest":{"lat":44.41465902010727,"lng":8.872141670107279}}},"icon":"https://maps.gstatic.com/mapfiles/place_api/icons/v1/png_71/restaurant-71.png","icon_background_color":"#FF9E67","icon_mask_base_uri":"https://maps.gstatic.com/mapfiles/place_api/icons/v2/restaurant_pinlet","name":"Shi Lin Chinese Restaurant","opening_hours":{"open_now":true},"photos":[{"height":1080,"html_attributions":["<a href=\"https://maps.google.com/maps/contrib/113897713048165137667\">Hans Benavidez</a>"],"photo_reference":"AeJbb3f67YcYOJU4OtuDWZzZ6oGqYPp15qu80-pAObTZ3FgrEnsM6IlgmAXXp3IkF7O0ZvoUv0RIbjOJhGaqcGK07D3_d_gyoDfYFLyq-Mfw9PSJ8lczX7VY9gCRozaRINXragB-WxgeIAp8DlYbQnnvnWp8Fegf1YTn4eQhD9bLaJ9DpZdr","width":1920}],"place_id":"ChIJR6cSEMNA0xIRaWI1Y5FPsW0","plus_code":{"compound_code":"CV8F+9C Genoa, Metropolitan City of Genoa","global_code":"8FPCCV8F+9C"},"price_level":1,"rating":4,"reference":"ChIJR6cSEMNA0xIRaWI1Y5FPsW0","types":["restaurant","food","point_of_interest","establishment"],"user_ratings_total":140},{"business_status":"OPERATIONAL","formatted_address":"Via XX Settembre, 269/R, 16121 Genova GE","geometry":{"location":{"lat":44.4071237,"lng":8.9351731},"viewport":{"northeast":{"lat":44.40841052989272,"lng":8.936492879892722},"southwest":{"lat":44.40571087010728,"lng":8.933793220107278}}},"icon":"https://maps.gstatic.com/mapfiles/place_api/icons/v1/png_71/restaurant-71.png","icon_background_color":"#FF9E67","icon_mask_base_uri":"https://maps.gstatic.com/mapfiles/place_api/icons/v2/restaurant_pinlet","name":"Ristorante cinese da chan 陳氏酒楼","opening_hours":{"open_now":false},"photos":[{"height":1440,"html_attributions":["<a href=\"https://maps.google.com/maps/contrib/115834708413596371846\">A Google User</a>"],"photo_reference":"AeJbb3dXuDypJg6jfhW1A0uC_mUScKgAwTILGXqOmYDbnjbqXgdN3dlR5TdSivKi4La-KhM1R-CI2Vd8SfVY7-ADobdxqfu9JxFiMM8ZUHy2-j4PWjkZHk6gc-2yFunK666LYu1DFTkCZxE1r9v2iQyR5bpEjO0tPVlMCPyYXaIk0ILIACOx","width":1080}],"place_id":"ChIJJezqRXVD0xIRecc-sKJtPI8","plus_code":{"compound_code":"CW4P+R3 Genoa, Metropolitan City of Genoa","global_code":"8FPCCW4P+R3"},"price_level":1,"rating":4,"reference":"ChIJJezqRXVD0xIRecc-sKJtPI8","types":["restaurant","food","point_of_interest","establishment"],"user_ratings_total":136},{"business_status":"OPERATIONAL","formatted_address":"Via Fieschi, 122, 16128 Genova GE","geometry":{"location":{"lat":44.4033634,"lng":8.9355715},"viewport":{"northeast":{"lat":44.40472612989272,"lng":8.936879729892723},"southwest":{"lat":44.40202647010728,"lng":8.93418007010728}}},"icon":"https://maps.gstatic.com/mapfiles/place_api/icons/v1/png_71/restaurant-71.png","icon_background_color":"#FF9E67","icon_mask_base_uri":"https://maps.gstatic.com/mapfiles/place_api/icons/v2/restaurant_pinlet","name":"Sushi king","opening_hours":{"open_now":true},"photos":[{"height":3024,"html_attributions":["<a href=\"https://maps.google.com/maps/contrib/116739630767251799852\">A Google User</a>"],"photo_reference":"AeJbb3dtOAB7R9TkxTx6cWCeNKsxO9JCF5tCz9Gs3ww8Z2DhFKuwMXnVg_0XdGfaFdulWxneH5z40nSicA3U_PgUy5ibdD1kKhKDkZJBZGxhQR7WfFmMD8OAUl0m_o1oI38s0EABOXUKXCxlCuvrSgs1h6rRuvrxtc_fff1ilsrh_p5QkKZu","width":4032}],"place_id":"ChIJZ29QpyFD0xIRKhRNGD9NDjM","plus_code":{"compound_code":"CW3P+86 Genoa, Metropolitan City of Genoa","global_code":"8FPCCW3P+86"},"rating":4,"reference":"ChIJZ29QpyFD0xIRKhRNGD9NDjM","types":["restaurant","food","point_of_interest","establishment"],"user_ratings_total":48},{"business_status":"OPERATIONAL","formatted_address":"Via di Porta Soprana, 25, 16123 Genova GE","geometry":{"location":{"lat":44.4062652,"lng":8.933126999999999},"viewport":{"northeast":{"lat":44.40764072989272,"lng":8.934643829892721},"southwest":{"lat":44.40494107010728,"lng":8.931944170107277}}},"icon":"https://maps.gstatic.com/mapfiles/place_api/icons/v1/png_71/restaurant-71.png","icon_background_color":"#FF9E67","icon_mask_base_uri":"https://maps.gstatic.com/mapfiles/place_api/icons/v2/restaurant_pinlet","name":"Soprana 25","opening_hours":{"open_now":false},"photos":[{"height":3120,"html_attributions":["<a href=\"https://maps.google.com/maps/contrib/102438654307169155769\">Raffaele Settimio</a>"],"photo_reference":"AeJbb3evcDx7i201d6l5477x_TL7ZAe9nT_EjjgZiJ26GuTNWXL9SIJgxZS8LVFYpMJgJRFs423ufvuPwX_Cq_h5R5hIZERM8_J9RuQCOj9-toc2TwzX95zewFkPUqhA4G1we5kHESRGqCUrfLS607f6XTxPhGgzXtci_35SizqaOn3-IonF","width":4160}],"place_id":"ChIJSfpyc91D0xIRYsHK_fPsSBo","plus_code":{"compound_code":"CW4M+G7 Genoa, Metropolitan City of Genoa","global_code":"8FPCCW4M+G7"},"rating":4,"reference":"ChIJSfpyc91D0xIRYsHK_fPsSBo","types":["restaurant","food","point_of_interest","establishment"],"user_ratings_total":9},{"business_status":"OPERATIONAL","formatted_address":"Via di Canneto Il Lungo, 37, 16123 Genova GE","geometry":{"location":{"lat":44.40657239999999,"lng":8.9323677},"viewport":{"northeast":{"lat":44.40810777989272,"lng":8.933775729892721},"southwest":{"lat":44.40540812010727,"lng":8.931076070107276}}},"icon":"https://maps.gstatic.com/mapfiles/place_api/icons/v1/png_71/restaurant-71.png","icon_background_color":"#FF9E67","icon_mask_base_uri":"https://maps.gstatic.com/mapfiles/place_api/icons/v2/restaurant_pinlet","name":"Wokeria","opening_hours":{"open_now":false},"place_id":"ChIJkY5unN1D0xIRt8dX0gJ4xik","plus_code":{"compound_code":"CW4J+JW Genoa, Metropolitan City of Genoa","global_code":"8FPCCW4J+JW"},"rating":4,"reference":"ChIJkY5unN1D0xIRt8dX0gJ4xik","types":["restaurant","food","point_of_interest","establishment"],"user_ratings_total":1},{"business_status":"OPERATIONAL","formatted_address":"Piazzale Marassi, 6R, 16139 Genova GE","geometry":{"location":{"lat":44.4181449,"lng":8.9497261},"viewport":{"northeast":{"lat":44.41946217989272,"lng":8.95101272989272},"southwest":{"lat":44.41676252010728,"lng":8.948313070107275}}},"icon":"https://maps.gstatic.com/mapfiles/place_api/icons/v1/png_71/restaurant-71.png","icon_background_color":"#FF9E67","icon_mask_base_uri":"https://maps.gstatic.com/mapfiles/place_api/icons/v2/restaurant_pinlet","name":"Ristoratore Qungtian","opening_hours":{"open_now":true},"photos":[{"height":4160,"html_attributions":["<a href=\"https://maps.google.com/maps/contrib/101005622807843253513\">roberto gard</a>"],"photo_reference":"AeJbb3dvlrTcGsOCdlGH9ogPKYA6WRDvxMcuxfIiCXPyjY9oP0uEunHy620T2VHmGlUBs26_Zf4zqLigkFzIGeAE7W1UoTCDXp4ofw0K6pK7DWUUkitSXHKEWhuLApwU-Kzh1JCjfSmaTOjXcxgLieRBnshmP5qKNbiYEqYQkbmHfZFPlHvp","width":3120}],"place_id":"ChIJyyh3WIxD0xIRYtI-nGZ66bI","plus_code":{"compound_code":"CW9X+7V Genoa, Metropolitan City of Genoa","global_code":"8FPCCW9X+7V"},"price_level":1,"rating":3.9,"reference":"ChIJyyh3WIxD0xIRYtI-nGZ66bI","types":["restaurant","food","point_of_interest","establishment"],"user_ratings_total":375},{"business_status":"OPERATIONAL","formatted_address":"Via Luigi Dottesio, 41, 16149 Genova GE","geometry":{"location":{"lat":44.4098475,"lng":8.8974532},"viewport":{"northeast":{"lat":44.41119482989272,"lng":8.89878482989272},"southwest":{"lat":44.40849517010728,"lng":8.896085170107277}}},"icon":"https://maps.gstatic.com/mapfiles/place_api/icons/v1/png_71/restaurant-71.png","icon_background_color":"#FF9E67","icon_mask_base_uri":"https://maps.gstatic.com/mapfiles/place_api/icons/v2/restaurant_pinlet","name":"Lin Tai gastronomia cinese （中餐外卖店）","opening_hours":{"open_now":false},"photos":[{"height":433,"html_attributions":["<a href=\"https://maps.google.com/maps/contrib/116116074504388724127\">Maurizio Pigliacampi</a>"],"photo_reference":"AeJbb3enunyeSZ_AxIDsdbQVr5-F1x_B0EtlYnAKzYsKanvI_pn-DWLhn9S4LX_51o3Qd9nNa5rSPldzXG4zPpRzYhYlsaAn2xJNj6YOK2YJcChwnPYQfF5oEYV0C0xl2aSxKbwfJuF-OqV7cl8roPIow8wk3MAtwa7cD0Ewf8Ho_gCrQlFh","width":552}],"place_id":"ChIJFdoq-hVB0xIRibnedY7HrZo","plus_code":{"compound_code":"CV5W+WX Genoa, Metropolitan City of Genoa","global_code":"8FPCCV5W+WX"},"price_level":1,"rating":3.9,"reference":"ChIJFdoq-hVB0xIRibnedY7HrZo","types":["restaurant","food","point_of_interest","establishment"],"user_ratings_total":86},{"business_status":"OPERATIONAL","formatted_address":"Vico Primo dello Scalo, 159, 16126 Genova GE","geometry":{"location":{"lat":44.41530969999999,"lng":8.9238438},"viewport":{"northeast":{"lat":44.41647677989272,"lng":8.925152979892722},"southwest":{"lat":44.41377712010728,"lng":8.922453320107278}}},"icon":"https://maps.gstatic.com/mapfiles/place_api/icons/v1/png_71/restaurant-71.png","icon_background_color":"#FF9E67","icon_mask_base_uri":"https://maps.gstatic.com/mapfiles/place_api/icons/v2/restaurant_pinlet","name":"Ristorante Cinese Heping Di Yu Heping","opening_hours":{"open_now":false},"photos":[{"height":1836,"html_attributions":["<a href=\"https://maps.google.com/maps/contrib/104956591002501739131\">Jan</a>"],"photo_reference":"AeJbb3cq0YbPdBxv9C8sxpOpkmj38TysTFZ0YlzhdoDqcBo_tU1iN62T8CIvKOXAQvkPBjnvDYKWQyZDNT2HiyHQRvgnI5I8N5uiIJKqxTA24X9b5PFDga8A8xM1PDDn_NXYGMvUtFdGPzCLm_Jug0WrdujWDIQKSjf0reb_435Br-A0v4CJ","width":3264}],"place_id":"ChIJ_x9RYlhB0xIRD6UpY1gXsG8","plus_code":{"compound_code":"CW8F+4G Genoa, Metropolitan City of Genoa","global_code":"8FPCCW8F+4G"},"rating":3.9,"reference":"ChIJ_x9RYlhB0xIRD6UpY1gXsG8","types":["restaurant","food","point_of_interest","establishment"],"user_ratings_total":27},{"business_status":"OPERATIONAL","formatted_address":"Via Anton Giulio Barrili, 14R, 16143 Genova GE","geometry":{"location":{"lat":44.4055178,"lng":8.965681100000001},"viewport":{"northeast":{"lat":44.40685092989272,"lng":8.967034229892722},"southwest":{"lat":44.40415127010728,"lng":8.964334570107278}}},"icon":"https://maps.gstatic.com/mapfiles/place_api/icons/v1/png_71/restaurant-71.png","icon_background_color":"#FF9E67","icon_mask_base_uri":"https://maps.gstatic.com/mapfiles/place_api/icons/v2/restaurant_pinlet","name":"Hosuto","opening_hours":{"open_now":false},"photos":[{"height":1920,"html_attributions":["<a href=\"https://maps.google.com/maps/contrib/111818262597637386777\">Marco Zappia</a>"],"photo_reference":"AeJbb3dhI-K7W4VU6ByCXcLcCVDx6W_vHx4uZVx-mFru6tH7MmJ6RqALVWN0tLT1fLctZHyTzIHD3V_XdVeoxwCN70EL0Kv-IzMuP5PG7xgUDQXk9kJYfNZxx6Dp_arZlnccjgpJL9pKzsGjMeFS6EbtikxGJ2Pw7ytklXb7Nip-clWJHo6L","width":1080}],"place_id":"ChIJMWAxd59D0xIRGvHa-Uz3R-U","plus_code":{"compound_code":"CX48+67 Genoa, Metropolitan City of Genoa","global_code":"8FPCCX48+67"},"price_level":2,"rating":3.8,"reference":"ChIJMWAxd59D0xIRGvHa-Uz3R-U","types":["restaurant","food","point_of_interest","establishment"],"user_ratings_total":215},{"business_status":"OPERATIONAL","formatted_address":"Corso Firenze, 107, 16136 Genova GE","geometry":{"location":{"lat":44.41953830000001,"lng":8.9282287},"viewport":{"northeast":{"lat":44.42087182989272,"lng":8.929635579892722},"southwest":{"lat":44.41817217010728,"lng":8.926935920107278}}},"icon":"https://maps.gstatic.com/mapfiles/place_api/icons/v1/png_71/shopping-71.png","icon_background_color":"#4B96F3","icon_mask_base_uri":"https://maps.gstatic.com/mapfiles/place_api/icons/v2/shopping_pinlet","name":"Rosticceria Nuova Cina","opening_hours":{"open_now":false},"photos":[{"height":3142,"html_attributions":["<a href=\"https://maps.google.com/maps/contrib/103865264222793735777\">Andrea Gasparini</a>"],"photo_reference":"AeJbb3dTEUDfT9PgzCbfCrqj9qHCcRx6RBx_zE0ZZh0XiX_6x9k9XPm8cd5OL-OYM2wCuFv-skrtBnniYw5wc2NVmKxS1bSvOyPHTCREyM9Nwlca3hFmfm5DGHWX5kOvO4qMALRLxKdztcrkPseYrFrEEECC0HWX8qMg2syZbHvjF7Kvdrcp","width":2356}],"place_id":"ChIJ3bGBaP1D0xIRYWCnqlQ4DdA","plus_code":{"compound_code":"CW9H+R7 Genoa, Metropolitan City of Genoa","global_code":"8FPCCW9H+R7"},"price_level":1,"rating":3.8,"reference":"ChIJ3bGBaP1D0xIRYWCnqlQ4DdA","types":["restaurant","store","food","point_of_interest","establishment"],"user_ratings_total":125},{"business_status":"OPERATIONAL","formatted_address":"Piazza Nicolò Montano, 24, 16151 Genova GE","geometry":{"location":{"lat":44.4132402,"lng":8.888400899999999},"viewport":{"northeast":{"lat":44.41461892989272,"lng":8.890004529892723},"southwest":{"lat":44.41191927010728,"lng":8.887304870107279}}},"icon":"https://maps.gstatic.com/mapfiles/place_api/icons/v1/png_71/restaurant-71.png","icon_background_color":"#FF9E67","icon_mask_base_uri":"https://maps.gstatic.com/mapfiles/place_api/icons/v2/restaurant_pinlet","name":"SI-LIKE","opening_hours":{"open_now":false},"photos":[{"height":1836,"html_attributions":["<a href=\"https://maps.google.com/maps/contrib/106479895321274343570\">Alessandra Tazzioli</a>"],"photo_reference":"AeJbb3fS8siDHLQlSa_jeGFgDc6gC-F-c5CuYqkLGcS9SnlIkon976PWHcS89H1pDI5jniA2xLsnnJaPSnsK1lGzQav5H7fHlGlEoG7kGqT-d7Acwo5-U0sB4JS3DETowGKo0AwBa0m9rplK_z4J-Yfk0llwXpv94Eojnbw4toRxkjb1KtCE","width":3264}],"place_id":"ChIJXwvvVCJB0xIR8Rj7eU8fTUI","plus_code":{"compound_code":"CV7Q+7C Genoa, Metropolitan City of Genoa","global_code":"8FPCCV7Q+7C"},"price_level":1,"rating":3.8,"reference":"ChIJXwvvVCJB0xIR8Rj7eU8fTUI","types":["restaurant","food","point_of_interest","establishment"],"user_ratings_total":90},{"business_status":"OPERATIONAL","formatted_address":"Via Lomellini, 16124 Genova GE","geometry":{"location":{"lat":44.4120137,"lng":8.9292897},"viewport":{"northeast":{"lat":44.41305897989272,"lng":8.930560329892721},"southwest":{"lat":44.41035932010728,"lng":8.927860670107277}}},"icon":"https://maps.gstatic.com/mapfiles/place_api/icons/v1/png_71/restaurant-71.png","icon_background_color":"#FF9E67","icon_mask_base_uri":"https://maps.gstatic.com/mapfiles/place_api/icons/v2/restaurant_pinlet","name":"Chinese food & Sushi","opening_hours":{"open_now":true},"photos":[{"height":3120,"html_attributions":["<a href=\"https://maps.google.com/maps/contrib/112722169786189006781\">Matteo Daros</a>"],"photo_reference":"AeJbb3eumpAqAfMnXiyz7Op4elI8m7NZ4AWmgzTyzhsLgM7ncuBftkYmuhUKPHjEqlSDz0ZIs1F9jmerz6y7FNUcEyjmFKZSLSWPMSgvTL0zPgSt2LPbmnugVYamP89R2SQga05KlJ2omPiqTneiXHbG2wj4lxmdZ7BzrpkVn78ek2eST6yc","width":4160}],"place_id":"ChIJ7yWOWeFD0xIRxV4gveHByKk","plus_code":{"compound_code":"CW6H+RP Genoa, Metropolitan City of Genoa","global_code":"8FPCCW6H+RP"},"price_level":2,"rating":3.8,"reference":"ChIJ7yWOWeFD0xIRxV4gveHByKk","types":["restaurant","food","point_of_interest","establishment"],"user_ratings_total":43},{"business_status":"OPERATIONAL","formatted_address":"Via Ciro Menotti, 119r, 16154 Genova GE","geometry":{"location":{"lat":44.4246442,"lng":8.8478955},"viewport":{"northeast":{"lat":44.42596047989272,"lng":8.84928757989272},"southwest":{"lat":44.42326082010728,"lng":8.846587920107277}}},"icon":"https://maps.gstatic.com/mapfiles/place_api/icons/v1/png_71/restaurant-71.png","icon_background_color":"#FF9E67","icon_mask_base_uri":"https://maps.gstatic.com/mapfiles/place_api/icons/v2/restaurant_pinlet","name":"Mei Wei","opening_hours":{"open_now":false},"photos":[{"height":1836,"html_attributions":["<a href=\"https://maps.google.com/maps/contrib/110277563835336403070\">PAOLO RATTINI</a>"],"photo_reference":"AeJbb3fiEnAvp-uD6JPTd--YqB3ZgtHDL5piTPMBv0HA5z5xZUVoDvsoDkW4vYx7t6APy4-q6T_ta1QBlRgDUzexRYc2bSydyisA4SQEaZXRseNSwdqLKaaJFUE9td9XhoNLCaeYhwvD6i5-NKyMRCJIkddNxZh85WFfQ69PSsldn065CbVq","width":3264}],"place_id":"ChIJB-Z3uq9A0xIRYuew-5ja82A","plus_code":{"compound_code":"CRFX+V5 Genoa, Metropolitan City of Genoa","global_code":"8FPCCRFX+V5"},"price_level":1,"rating":3.7,"reference":"ChIJB-Z3uq9A0xIRYuew-5ja82A","types":["restaurant","food","point_of_interest","establishment"],"user_ratings_total":487},{"business_status":"OPERATIONAL","formatted_address":"Via Filippo Turati, 26, 16128 Genova GE","geometry":{"location":{"lat":44.4076683,"lng":8.9285997},"viewport":{"northeast":{"lat":44.40892812989272,"lng":8.929899979892722},"southwest":{"lat":44.40622847010728,"lng":8.927200320107278}}},"icon":"https://maps.gstatic.com/mapfiles/place_api/icons/v1/png_71/generic_business-71.png","icon_background_color":"#7B9EB0","icon_mask_base_uri":"https://maps.gstatic.com/mapfiles/place_api/icons/v2/generic_pinlet","name":"Ristorante Cinese Sushi di Jù","opening_hours":{"open_now":false},"photos":[{"height":3096,"html_attributions":["<a href=\"https://maps.google.com/maps/contrib/104867479987386449244\">A Google User</a>"],"photo_reference":"AeJbb3d8a91y_bLm-RSrpPEXONy7sGj1ebboUwP9euNMqQOSJQpCMd3cfJQ7FNKzPylWG3M9W0dqrlGE0puGid-0YnVLmdvSdc3I6vyMPA_11-w1YjHoib_TDuMoZvjJEleVjwrTy3a3sqotLM2e9HpZT1IN1u863YJk3zKRh0kmBSRz9cWq","width":4128}],"place_id":"ChIJbyIKn-BD0xIR-Uy6m73G-jc","plus_code":{"compound_code":"CW5H+3C Genoa, Metropolitan City of Genoa","global_code":"8FPCCW5H+3C"},"rating":3.7,"reference":"ChIJbyIKn-BD0xIR-Uy6m73G-jc","types":["meal_delivery","restaurant","food","point_of_interest","establishment"],"user_ratings_total":218},{"business_status":"OPERATIONAL","formatted_address":"Via Felice Cavallotti, 11 rosso, 16146 Genova GE","geometry":{"location":{"lat":44.3912525,"lng":8.9744416},"viewport":{"northeast":{"lat":44.39265607989272,"lng":8.975744029892724},"southwest":{"lat":44.38995642010727,"lng":8.97304437010728}}},"icon":"https://maps.gstatic.com/mapfiles/place_api/icons/v1/png_71/restaurant-71.png","icon_background_color":"#FF9E67","icon_mask_base_uri":"https://maps.gstatic.com/mapfiles/place_api/icons/v2/restaurant_pinlet","name":"Rosticceria Cinese Jin Cheng","opening_hours":{"open_now":true},"photos":[{"height":3120,"html_attributions":["<a href=\"https://maps.google.com/maps/contrib/115613513031168668527\">Marco De Barbieri</a>"],"photo_reference":"AeJbb3cLuN1bjIU1Ps5GjdtsoyTCWuxZb2-psgfBCHHRScTvWgNcBlPXyreLI0j71zsadZC0XfaPGAL80Quh0ccWLvQJDdQVOtohGE0skiqyiKLdPpgLj5Utyxqto4NBk71_i2TqxZ1Sl8DLl9KPnKpvRNODl5bbdTqykoiIrSYCW8ejwkhg","width":4160}],"place_id":"ChIJP5SLLARD0xIR8VeGFJEh244","plus_code":{"compound_code":"9XRF+GQ Genoa, Metropolitan City of Genoa","global_code":"8FPC9XRF+GQ"},"price_level":1,"rating":3.7,"reference":"ChIJP5SLLARD0xIR8VeGFJEh244","types":["restaurant","food","point_of_interest","establishment"],"user_ratings_total":89},{"business_status":"OPERATIONAL","formatted_address":"Via Carlo Rolando, 100/R, 16151 Genova GE","geometry":{"location":{"lat":44.4166032,"lng":8.8867911},"viewport":{"northeast":{"lat":44.41796777989272,"lng":8.888183429892722},"southwest":{"lat":44.41526812010728,"lng":8.885483770107278}}},"icon":"https://maps.gstatic.com/mapfiles/place_api/icons/v1/png_71/restaurant-71.png","icon_background_color":"#FF9E67","icon_mask_base_uri":"https://maps.gstatic.com/mapfiles/place_api/icons/v2/restaurant_pinlet","name":"Rosticceria Cinese Buona Fortuna","opening_hours":{"open_now":false},"photos":[{"height":3025,"html_attributions":["<a href=\"https://maps.google.com/maps/contrib/111121549204215814704\">Rosticceria Buona Fortuna</a>"],"photo_reference":"AeJbb3exQdgbR5Gld81xvSiyhFL_-RcExqzytF2ascJnlK-9Dc7MgwrKKm2K8togX_vLjbxIUl8toornE8d_ik-5O-mKcHuB7dp1I9tj261T1uoCyCfjjxHTAgLgJ97_lHRlIuDQ6H7s9Kh6nApMo3Uw1cu8wEpWe0tqhR43nmWoXwyi0GRR","width":3024}],"place_id":"ChIJCSwQESRB0xIRtldAJqdaRYs","plus_code":{"compound_code":"CV8P+JP Genoa, Metropolitan City of Genoa","global_code":"8FPCCV8P+JP"},"price_level":1,"rating":3.7,"reference":"ChIJCSwQESRB0xIRtldAJqdaRYs","types":["meal_takeaway","restaurant","food","point_of_interest","establishment"],"user_ratings_total":71},{"business_status":"OPERATIONAL","formatted_address":"Via Venezia, 45r, 16126 Genova GE","geometry":{"location":{"lat":44.415533,"lng":8.9101616},"viewport":{"northeast":{"lat":44.41688897989272,"lng":8.911457179892722},"southwest":{"lat":44.41418932010728,"lng":8.908757520107278}}},"icon":"https://maps.gstatic.com/mapfiles/place_api/icons/v1/png_71/restaurant-71.png","icon_background_color":"#FF9E67","icon_mask_base_uri":"https://maps.gstatic.com/mapfiles/place_api/icons/v2/restaurant_pinlet","name":"Rosticceria Cinese","opening_hours":{"open_now":false},"photos":[{"height":1440,"html_attributions":["<a href=\"https://maps.google.com/maps/contrib/110434874472891891748\">A Google User</a>"],"photo_reference":"AeJbb3cH0SftKuWZz9-WXx--Wzs-Lg32_zVviznL4dvoAOIBmESL9DYkahHfXMZgjDI85hy9sIx3IPh9J3v1-CDUSl1XYQtpwpuE2GacbEgvDRJbNyiPN3qJ9WIX8b3LDT-uiHwwujW6KcS6ItYswbVpk8AofQR_rej5rhMCznH1Q2o9u8JT","width":1080}],"place_id":"ChIJUbmwWkRB0xIRqxbagfODds8","plus_code":{"compound_code":"CW86+63 Genoa, Metropolitan City of Genoa","global_code":"8FPCCW86+63"},"price_level":1,"rating":3.6,"reference":"ChIJUbmwWkRB0xIRqxbagfODds8","types":["restaurant","food","point_of_interest","establishment"],"user_ratings_total":60},{"business_status":"OPERATIONAL","formatted_address":"Via Balbi, 101/R, 16126 Genova GE","geometry":{"location":{"lat":44.415554,"lng":8.92527},"viewport":{"northeast":{"lat":44.41726877989272,"lng":8.925993249999998},"southwest":{"lat":44.41456912010728,"lng":8.92317745}}},"icon":"https://maps.gstatic.com/mapfiles/place_api/icons/v1/png_71/restaurant-71.png","icon_background_color":"#FF9E67","icon_mask_base_uri":"https://maps.gstatic.com/mapfiles/place_api/icons/v2/restaurant_pinlet","name":"Ristorante Kaiyuan","opening_hours":{"open_now":true},"photos":[{"height":832,"html_attributions":["<a href=\"https://maps.google.com/maps/contrib/112840512336796527584\">A Google User</a>"],"photo_reference":"AeJbb3cHBnSk26b6kYm268k81uTn_ASwqAv1zsD2orD7OHRQMqViYmBo7ZsYGNK840R4tRlybaM0jrg_unp4DXWSz8HW4WB3yaP1lgKGSYHmvIB63WDL5LNh2GRCbCm8N8KLiRPYSnbt7zAkh_10SNgtW8jTFbWXR4g9kRoUWvNmIuhLyBYo","width":1272}],"place_id":"ChIJKeUne9RB0xIRMjtewcSMbQA","plus_code":{"compound_code":"CW8G+64 Genoa, Metropolitan City of Genoa","global_code":"8FPCCW8G+64"},"rating":3.6,"reference":"ChIJKeUne9RB0xIRMjtewcSMbQA","types":["restaurant","food","point_of_interest","establishment"],"user_ratings_total":22},{"business_status":"OPERATIONAL","formatted_address":"Corso Sardegna, 268 r, 16142 Genova GE","geometry":{"location":{"lat":44.4132445,"lng":8.955701699999999},"viewport":{"northeast":{"lat":44.41462787989272,"lng":8.95714172989272},"southwest":{"lat":44.41192822010728,"lng":8.954442070107277}}},"icon":"https://maps.gstatic.com/mapfiles/place_api/icons/v1/png_71/restaurant-71.png","icon_background_color":"#FF9E67","icon_mask_base_uri":"https://maps.gstatic.com/mapfiles/place_api/icons/v2/restaurant_pinlet","name":"Rosticceria La Cina","opening_hours":{"open_now":false},"place_id":"ChIJd24LP5BD0xIRvW8mMQ1va7g","plus_code":{"compound_code":"CX74+77 Genoa, Metropolitan City of Genoa","global_code":"8FPCCX74+77"},"price_level":1,"rating":3.5,"reference":"ChIJd24LP5BD0xIRvW8mMQ1va7g","types":["restaurant","food","point_of_interest","establishment"],"user_ratings_total":84},{"business_status":"OPERATIONAL","formatted_address":"Vico S. Paolo, 60, 16126 Genova GE","geometry":{"location":{"lat":44.41624059999999,"lng":8.9200638},"viewport":{"northeast":{"lat":44.41759862989272,"lng":8.92134372989272},"southwest":{"lat":44.41489897010727,"lng":8.918644070107277}}},"icon":"https://maps.gstatic.com/mapfiles/place_api/icons/v1/png_71/restaurant-71.png","icon_background_color":"#FF9E67","icon_mask_base_uri":"https://maps.gstatic.com/mapfiles/place_api/icons/v2/restaurant_pinlet","name":"Ristorante Cinese","opening_hours":{"open_now":true},"photos":[{"height":3052,"html_attributions":["<a href=\"https://maps.google.com/maps/contrib/110077114119732436688\">a t</a>"],"photo_reference":"AeJbb3cAF9tEq1j7VuGWRMLSArqqEojaZx6QMaGgqbVbMCJ7k0-vzJgeYCtC5nSSRRga0-3fg4tg0zzlr-ulk0DWhRm0zEfDreFT0pnRxQYz6qPM6VGsJKBUdRTnmUVb6Ax6r0ICZSmhMvRO0kAp8emSOpwPN2-HAzlLWOPLDKukYXfc_Hdm","width":4578}],"place_id":"ChIJEVs2kVlB0xIR1G8hd-u9Ifg","plus_code":{"compound_code":"CW8C+F2 Genoa, Metropolitan City of Genoa","global_code":"8FPCCW8C+F2"},"rating":3.4,"reference":"ChIJEVs2kVlB0xIR1G8hd-u9Ifg","types":["restaurant","food","point_of_interest","establishment"],"user_ratings_total":34},{"business_status":"OPERATIONAL","formatted_address":"Via Antonio Gramsci, 31, 16126 Genova GE","geometry":{"location":{"lat":44.4137242,"lng":8.925862},"viewport":{"northeast":{"lat":44.41504312989272,"lng":8.927173979892723},"southwest":{"lat":44.41234347010727,"lng":8.92447432010728}}},"icon":"https://maps.gstatic.com/mapfiles/place_api/icons/v1/png_71/restaurant-71.png","icon_background_color":"#FF9E67","icon_mask_base_uri":"https://maps.gstatic.com/mapfiles/place_api/icons/v2/restaurant_pinlet","name":"La Chinese Restaurant","opening_hours":{"open_now":false},"photos":[{"height":3024,"html_attributions":["<a href=\"https://maps.google.com/maps/contrib/109294612667805613399\">A Google User</a>"],"photo_reference":"AeJbb3eLN74-Q5e-gNQSv3xWXrnMLOnX_0j-Y5N7zimjSBqHKjmhOYTYIoVoAAzyh6yS0f5Q7ZfL63EkCPVC8pkE31Ly0l25qlUReCeKEpTCItzr9Bl5e1tY4C4qXv-4nW0f0FNV3d54Gm-7fcirlOY92OUFWGMQ0I_3MCQV-MdHIVyBuYP_","width":4032}],"place_id":"ChIJDeB9gu9B0xIR6NQuPeE3XB4","plus_code":{"compound_code":"CW7G+F8 Genoa, Metropolitan City of Genoa","global_code":"8FPCCW7G+F8"},"rating":1,"reference":"ChIJDeB9gu9B0xIR6NQuPeE3XB4","types":["restaurant","food","point_of_interest","establishment"],"user_ratings_total":1},{"business_status":"OPERATIONAL","formatted_address":"Via S. Vincenzo, 96Arosso, 16121 Genova GE","geometry":{"location":{"lat":44.4070488,"lng":8.9427621},"viewport":{"northeast":{"lat":44.40839862989273,"lng":8.94411192989272},"southwest":{"lat":44.40569897010729,"lng":8.941412270107277}}},"icon":"https://maps.gstatic.com/mapfiles/place_api/icons/v1/png_71/restaurant-71.png","icon_background_color":"#FF9E67","icon_mask_base_uri":"https://maps.gstatic.com/mapfiles/place_api/icons/v2/restaurant_pinlet","name":"一锅鲜HOT POT&BBQ ristorante","opening_hours":{"open_now":false},"place_id":"ChIJ8xOB8k5D0xIRTSzsj_6lG3M","plus_code":{"compound_code":"CW4V+R4 Genoa, Metropolitan City of Genoa","global_code":"8FPCCW4V+R4"},"rating":0,"reference":"ChIJ8xOB8k5D0xIRTSzsj_6lG3M","types":["restaurant","food","point_of_interest","establishment"],"user_ratings_total":0},{"business_status":"OPERATIONAL","formatted_address":"Via Bruno Buozzi, 4A, 16126 Genova GE","geometry":{"location":{"lat":44.4161068,"lng":8.9211826},"viewport":{"northeast":{"lat":44.41748762989272,"lng":8.922330329892722},"southwest":{"lat":44.41478797010728,"lng":8.919630670107278}}},"icon":"https://maps.gstatic.com/mapfiles/place_api/icons/v1/png_71/restaurant-71.png","icon_background_color":"#FF9E67","icon_mask_base_uri":"https://maps.gstatic.com/mapfiles/place_api/icons/v2/restaurant_pinlet","name":"Tilbage","place_id":"ChIJ0bnMDXFB0xIRQGg-x8QtJF4","plus_code":{"compound_code":"CW8C+CF Genoa, Metropolitan City of Genoa","global_code":"8FPCCW8C+CF"},"rating":0,"reference":"ChIJ0bnMDXFB0xIRQGg-x8QtJF4","types":["restaurant","food","point_of_interest","establishment"],"user_ratings_total":0}]