[{"business_status":"OPERATIONAL","formatted_address":"Via dei Giustiniani, 3, R, 16123 Genova GE","geometry":{"location":{"lat":44.40713849999999,"lng":8.9295029},"viewport":{"northeast":{"lat":44.40846597989272,"lng":8.930493929892721},"southwest":{"lat":44.40576632010728,"lng":8.927794270107277}}},"icon":"https://maps.gstatic.com/mapfiles/place_api/icons/v1/png_71/bar-71.png","icon_background_color":"#FF9E67","icon_mask_base_uri":"https://maps.gstatic.com/mapfiles/place_api/icons/v2/bar_pinlet","name":"Kowalski","opening_hours":{"open_now":false},"photos":[{"height":1080,"html_attributions":["<a href=\"https://maps.google.com/maps/contrib/117158769655769911999\">Dario Cabiddu</a>"],"photo_reference":"AeJbb3c-zuLlHTG0-8c82UniCYO0cFNPbNd1D-j-9Qh2BvEvYe69kAw5Hw6mHf9z_N-4nBFIz5PpcyFpJhw1Fdq0k6nKV3xADlU6pxGXvaBJD2RNuFRgjPpTaAT9jfD3g51yO_c1sBm4CEdZdX2sQyncNVg4vMdn5i9csZ5OlnLzd92JjWPT","width":1440}],"place_id":"ChIJXZh7BN5D0xIRpVE_o7ZbyHs","plus_code":{"compound_code":"CW4H+VR Genoa, Metropolitan City of Genoa","global_code":"8FPCCW4H+VR"},"price_level":2,"rating":4.5,"reference":"ChIJXZh7BN5D0xIRpVE_o7ZbyHs","types":["bar","restaurant","food","point_of_interest","establishment"],"user_ratings_total":862},{"business_status":"OPERATIONAL","formatted_address":"Lungomare Bettolo, 4, 16036 Recco GE","geometry":{"location":{"lat":44.3609794,"lng":9.142163799999999},"viewport":{"northeast":{"lat":44.36240857989272,"lng":9.14357607989272},"southwest":{"lat":44.35970892010728,"lng":9.140876420107276}}},"icon":"https://maps.gstatic.com/mapfiles/place_api/icons/v1/png_71/restaurant-71.png","icon_background_color":"#FF9E67","icon_mask_base_uri":"https://maps.gstatic.com/mapfiles/place_api/icons/v2/restaurant_pinlet","name":"Il Baretto di Ivo","opening_hours":{"open_now":true},"photos":[{"height":3456,"html_attributions":["<a href=\"https://maps.google.com/maps/contrib/101206690022149116575\">A Google User</a>"],"photo_reference":"AeJbb3fq36pOBcUQNj8PPw-ueD6xL4MmI_8jHkShB9e91ntrD4Z7KKODNOyv9z5uYdJNgeGsjB2_sBLAk6uQitc0IPqRsaVSaJp6c6paTBqjiWA2OU7jXlVCP4yGrtYS4kCKTtIRiMGWjecZwxdci7x25h2wv4Yoy3PU0X-zxBJp5etGrsuN","width":4608}],"place_id":"ChIJXeLkpU1e0xIRTh69LHVj36g","plus_code":{"compound_code":"946R+9V Recco, Metropolitan City of Genoa","global_code":"8FPF946R+9V"},"price_level":1,"rating":4,"reference":"ChIJXeLkpU1e0xIRTh69LHVj36g","types":["restaurant","food","point_of_interest","establishment"],"user_ratings_total":224},{"business_status":"OPERATIONAL","formatted_address":"Via Giuseppe Casaregis, 33r, 16129 Genova GE","geometry":{"location":{"lat":44.3962277,"lng":8.949604299999999},"viewport":{"northeast":{"lat":44.39762587989272,"lng":8.950905579892723},"southwest":{"lat":44.39492622010728,"lng":8.948205920107279}}},"icon":"https://maps.gstatic.com/mapfiles/place_api/icons/v1/png_71/restaurant-71.png","icon_background_color":"#FF9E67","icon_mask_base_uri":"https://maps.gstatic.com/mapfiles/place_api/icons/v2/restaurant_pinlet","name":"Kiss Me","opening_hours":{"open_now":false},"photos":[{"height":700,"html_attributions":["<a href=\"https://maps.google.com/maps/contrib/106714100985696375235\">Kiss Me</a>"],"photo_reference":"AeJbb3crClZTbgknEOKp12wn_zxNQ5PuuYwWNg61b4Zerxvq0W9gLnviB9mZgvQX35p23ESm3Ptf50mRxH939K-vNTZcgQHjx2YVp2gphSCJV4oyxLTNYNSdTYbYLNLfUZgsHDOKqVN_8Q81aVt_eRQ-Ti--UyPf5uXaOPgW2c8vmbgrYMvV","width":1243}],"place_id":"ChIJfe0gqb5D0xIRaqNoYOSQcNs","plus_code":{"compound_code":"9WWX+FR Genoa, Metropolitan City of Genoa","global_code":"8FPC9WWX+FR"},"price_level":2,"rating":3.9,"reference":"ChIJfe0gqb5D0xIRaqNoYOSQcNs","types":["meal_delivery","night_club","restaurant","food","point_of_interest","establishment"],"user_ratings_total":479},{"business_status":"OPERATIONAL","formatted_address":"Molo Ponte Morosini, 44, 16126 Genova GE","geometry":{"location":{"lat":44.4122011,"lng":8.925856399999999},"viewport":{"northeast":{"lat":44.41373212989271,"lng":8.927597479892722},"southwest":{"lat":44.41103247010727,"lng":8.924897820107278}}},"icon":"https://maps.gstatic.com/mapfiles/place_api/icons/v1/png_71/restaurant-71.png","icon_background_color":"#FF9E67","icon_mask_base_uri":"https://maps.gstatic.com/mapfiles/place_api/icons/v2/restaurant_pinlet","name":"La Ville Superbe","opening_hours":{"open_now":false},"photos":[{"height":720,"html_attributions":["<a href=\"https://maps.google.com/maps/contrib/110230393088803774157\">eva marchesin</a>"],"photo_reference":"AeJbb3f5yUSkLs6APk247pctQy4BrWXBSdRrTHRlMvprGnoRDOJnwRlCuXEjghgAz_vItWmYWcsAOtm5PGW0tJ70tQRBDxvIu567S18d9m-tu0rFTCTjoAh5Nijg5xOBB-mbkxWL6-yyXQ1RKLvamZ5A-bQyC7-17YG3tePwtU0xSsComwP0","width":1280}],"place_id":"ChIJ70QjY6hD0xIR8XWDIfQi5C8","plus_code":{"compound_code":"CW6G+V8 Genoa, Metropolitan City of Genoa","global_code":"8FPCCW6G+V8"},"rating":3.7,"reference":"ChIJ70QjY6hD0xIR8XWDIfQi5C8","types":["cafe","store","restaurant","food","point_of_interest","establishment"],"user_ratings_total":235}]