[{"business_status":"OPERATIONAL","formatted_address":"Via S. Sossio, 2, 80049 Somma Vesuviana NA","geometry":{"location":{"lat":40.875878,"lng":14.4426514},"viewport":{"northeast":{"lat":40.87723197989272,"lng":14.44391587989272},"southwest":{"lat":40.87453232010728,"lng":14.44121622010728}}},"icon":"https://maps.gstatic.com/mapfiles/place_api/icons/v1/png_71/restaurant-71.png","icon_background_color":"#FF9E67","icon_mask_base_uri":"https://maps.gstatic.com/mapfiles/place_api/icons/v2/restaurant_pinlet","name":"Contaminazioni Restaurant","opening_hours":{"open_now":true},"photos":[{"height":1600,"html_attributions":["<a href=\"https://maps.google.com/maps/contrib/100352466807121866248\">Marianna Donnarumma</a>"],"photo_reference":"AeJbb3fmGGRtmm8T-WwQB14OqNSgKJ4mbS7tt714HL18-mP3FByIl_iEyEWHKSPnQ4jppi5gHp4ZhE21kyhQ9jeyDH4UQIjpDB6glVxN_hNfFBCHT17QOP88knTNVI8OXo0Ilb3P3qD4x2vtk1DLPyxx0LPnU_hLrWGHmiFWWH1J7Cx0t-Ud","width":1600}],"place_id":"ChIJzxWFLl-vOxMR6y015BUZa_E","plus_code":{"compound_code":"VCGV+93 Somma Vesuviana, Metropolitan City of Naples","global_code":"8FGPVCGV+93"},"rating":5,"reference":"ChIJzxWFLl-vOxMR6y015BUZa_E","types":["restaurant","food","point_of_interest","establishment"],"user_ratings_total":32},{"business_status":"OPERATIONAL","formatted_address":"Via Santa Maria la Nova, 35, 80021 Afragola NA","geometry":{"location":{"lat":40.9335685,"lng":14.3507537},"viewport":{"northeast":{"lat":40.93499747989272,"lng":14.35216987989272},"southwest":{"lat":40.93229782010727,"lng":14.34947022010728}}},"icon":"https://maps.gstatic.com/mapfiles/place_api/icons/v1/png_71/restaurant-71.png","icon_background_color":"#FF9E67","icon_mask_base_uri":"https://maps.gstatic.com/mapfiles/place_api/icons/v2/restaurant_pinlet","name":"John Restaurant","opening_hours":{"open_now":false},"photos":[{"height":3542,"html_attributions":["<a href=\"https://maps.google.com/maps/contrib/116434880025323282721\">A Google User</a>"],"photo_reference":"AeJbb3fDmnMLjWen0aLs-ZeyhGtFiWGvCq3Hn6uwNY53vfA25lj7Q0HeJShdQy4YrZOVZWJSMhF8eGEGh1YAzziyF_8DcMVYBrQSmebSZVP0LC1ctJ09rZS604T0xCYmPid7bk_HeK-ArioPOlTi7By91lJ422bFEJDTeOHILQUB9UJEljGN","width":5313}],"place_id":"ChIJ5eJEyK2pOxMRjGCn6T-MQLk","plus_code":{"compound_code":"W9M2+C8 Afragola, Metropolitan City of Naples","global_code":"8FGPW9M2+C8"},"rating":5,"reference":"ChIJ5eJEyK2pOxMRjGCn6T-MQLk","types":["restaurant","food","point_of_interest","establishment"],"user_ratings_total":10},{"business_status":"OPERATIONAL","formatted_address":"Via Santa Brigida, 14/16, 80132 Napoli NA","geometry":{"location":{"lat":40.8392099,"lng":14.2493928},"viewport":{"northeast":{"lat":40.84052212989272,"lng":14.25074547989272},"southwest":{"lat":40.83782247010728,"lng":14.24804582010728}}},"icon":"https://maps.gstatic.com/mapfiles/place_api/icons/v1/png_71/restaurant-71.png","icon_background_color":"#FF9E67","icon_mask_base_uri":"https://maps.gstatic.com/mapfiles/place_api/icons/v2/restaurant_pinlet","name":"Michelasso Ristorante Gourmet a Napoli","opening_hours":{"open_now":false},"photos":[{"height":3024,"html_attributions":["<a href=\"https://maps.google.com/maps/contrib/102199973765415239515\">A Google User</a>"],"photo_reference":"AeJbb3cXGaJS3BCyZWYdWq216-GDpJNMf83CuSukYhjmoOzrAplfNYX7SpHkOAeTYsf-zmbcuRy8TXxKCrxfFB8sSNzRV6C-i_0SF7SYnBEKRwcwtsyUDzWGnmTSW7fatSEX_LjiFopUKaRzktp-D51cqo8y4hhDOF72e1C3SuQbCzN2kSdv","width":4032}],"place_id":"ChIJddpUrn4JOxMR4D8wk2lFgUE","plus_code":{"compound_code":"R6QX+MQ Naples, Metropolitan City of Naples","global_code":"8FGPR6QX+MQ"},"rating":4.9,"reference":"ChIJddpUrn4JOxMR4D8wk2lFgUE","types":["restaurant","food","point_of_interest","establishment"],"user_ratings_total":79},{"business_status":"OPERATIONAL","formatted_address":"Via Loggia dei Pisani, 2-14, 80133 Napoli NA","geometry":{"location":{"lat":40.8432611,"lng":14.2540314},"viewport":{"northeast":{"lat":40.84466467989272,"lng":14.25529407989272},"southwest":{"lat":40.84196502010728,"lng":14.25259442010728}}},"icon":"https://maps.gstatic.com/mapfiles/place_api/icons/v1/png_71/restaurant-71.png","icon_background_color":"#FF9E67","icon_mask_base_uri":"https://maps.gstatic.com/mapfiles/place_api/icons/v2/restaurant_pinlet","name":"Aria Restaurant","opening_hours":{"open_now":false},"photos":[{"height":3806,"html_attributions":["<a href=\"https://maps.google.com/maps/contrib/115984566143152157661\">Marie Hu</a>"],"photo_reference":"AeJbb3d2kV9vOXCqzKIot2l8TXwa_fyAPoAiyFQ5qBIxcSa1nicUwNRjCDmj08QEuvg_Db5F4xqDjKi6FTWljCbrElU6AWcxrzrHoFSyeZ5r0iEGtZX78kw5QlxSypFlC5_4HGM5ctyAeIuDJ6JpiJUNHgm6LfKR2Kt27vazb8CnOcV122KP","width":3024}],"place_id":"ChIJ0dc45VMJOxMRAIBNNu6Bo8I","plus_code":{"compound_code":"R7V3+8J Naples, Metropolitan City of Naples","global_code":"8FGPR7V3+8J"},"rating":4.9,"reference":"ChIJ0dc45VMJOxMRAIBNNu6Bo8I","types":["restaurant","food","point_of_interest","establishment"],"user_ratings_total":77},{"business_status":"OPERATIONAL","formatted_address":"Via Giorgio Amendola, 69, 80031 Brusciano NA","geometry":{"location":{"lat":40.9239629,"lng":14.4298569},"viewport":{"northeast":{"lat":40.92529402989272,"lng":14.43120792989272},"southwest":{"lat":40.92259437010728,"lng":14.42850827010728}}},"icon":"https://maps.gstatic.com/mapfiles/place_api/icons/v1/png_71/restaurant-71.png","icon_background_color":"#FF9E67","icon_mask_base_uri":"https://maps.gstatic.com/mapfiles/place_api/icons/v2/restaurant_pinlet","name":"Ristorante Amor Mio Di Toppi Vincenzo","photos":[{"height":3024,"html_attributions":["<a href=\"https://maps.google.com/maps/contrib/110332823124496344384\">Margherita D&#39;Angelo</a>"],"photo_reference":"AeJbb3cv_Pgq2BH4j7-0a1HkCG0U8gUqr7BTwGIoiB718D7DY4vwFs2f_QZtyYWJMHvDFQYwiEfOQP8Vc4H3XpoTA_sXPFLgKtlWt1AdDNdlCxenmZfBye38SpRX_UTVB2lf73fvznrAcgfpsGVrzxAv6BPaSGvoTyRAFSryzD7-9yAdgOED","width":4032}],"place_id":"ChIJWzt4CHOuOxMRCzvHSzm59Tg","plus_code":{"compound_code":"WCFH+HW Brusciano, Metropolitan City of Naples","global_code":"8FGPWCFH+HW"},"price_level":2,"rating":4.8,"reference":"ChIJWzt4CHOuOxMRCzvHSzm59Tg","types":["restaurant","food","point_of_interest","establishment"],"user_ratings_total":111},{"business_status":"OPERATIONAL","formatted_address":"Via Fratelli Cervi, 18, 81031 Aversa CE","geometry":{"location":{"lat":40.9609786,"lng":14.2097448},"viewport":{"northeast":{"lat":40.96240267989272,"lng":14.21116887989272},"southwest":{"lat":40.95970302010728,"lng":14.20846922010728}}},"icon":"https://maps.gstatic.com/mapfiles/place_api/icons/v1/png_71/restaurant-71.png","icon_background_color":"#FF9E67","icon_mask_base_uri":"https://maps.gstatic.com/mapfiles/place_api/icons/v2/restaurant_pinlet","name":"Truth, Appetizer Restaurant","opening_hours":{"open_now":false},"photos":[{"height":960,"html_attributions":["<a href=\"https://maps.google.com/maps/contrib/109469195336257126734\">A Google User</a>"],"photo_reference":"AeJbb3fu7zi7H9aN-J08cv3uEIlmc7T-mchT7faa_vUhSFrzIOp_i3IyloCieMUR8Nyh9PUwRlxuYVHQgAzmT2GP5zueU-3X8AqeVy2eTd7ulcdYkw-0Ma9WyPvEPo2_KAwpdmmCs2fvAjmHm7hQPWMt9UBcAKXZZ9tLc-Ey4ElMypF220Wf","width":1440}],"place_id":"ChIJmXuJmK4BOxMR9ddd1ymIMoU","plus_code":{"compound_code":"X665+9V Aversa, Province of Caserta","global_code":"8FGPX665+9V"},"rating":4.7,"reference":"ChIJmXuJmK4BOxMR9ddd1ymIMoU","types":["restaurant","point_of_interest","food","establishment"],"user_ratings_total":114},{"business_status":"OPERATIONAL","formatted_address":"Vico Mancini, 80014 Giugliano in Campania NA","geometry":{"location":{"lat":40.9283363,"lng":14.2080862},"viewport":{"northeast":{"lat":40.92978542989272,"lng":14.20945737989272},"southwest":{"lat":40.92708577010728,"lng":14.20675772010728}}},"icon":"https://maps.gstatic.com/mapfiles/place_api/icons/v1/png_71/restaurant-71.png","icon_background_color":"#FF9E67","icon_mask_base_uri":"https://maps.gstatic.com/mapfiles/place_api/icons/v2/restaurant_pinlet","name":"IL CONNUBIO","opening_hours":{"open_now":false},"photos":[{"height":1200,"html_attributions":["<a href=\"https://maps.google.com/maps/contrib/106075237351933734405\">IL CONNUBIO</a>"],"photo_reference":"AeJbb3dLV_-PP-wpde9zb01qZzENbyCS-4v3z93KACE1U_LoH_i25uWzZwx9K3uJeWP6YwcHrkkBC0vSQJe3t-yZz1HW3EiV3mBUf-WxqV6utzB8pz-DxokNeMYNmZZwhNsKZQ1VYQNoD6apMpx7EYWv8iMnMV_vUqnjhfQWHpvVx9kYl2Le","width":1600}],"place_id":"ChIJZbFtyZEGOxMROVc1pb6SCkY","plus_code":{"compound_code":"W6H5+86 Giugliano in Campania, Metropolitan City of Naples","global_code":"8FGPW6H5+86"},"price_level":2,"rating":4.7,"reference":"ChIJZbFtyZEGOxMROVc1pb6SCkY","types":["restaurant","food","point_of_interest","establishment"],"user_ratings_total":111},{"business_status":"OPERATIONAL","formatted_address":"C.so Vittorio Emanuele, 135, 80121 Napoli NA","geometry":{"location":{"lat":40.8372141,"lng":14.23006},"viewport":{"northeast":{"lat":40.83851467989272,"lng":14.23147692989272},"southwest":{"lat":40.83581502010728,"lng":14.22877727010728}}},"icon":"https://maps.gstatic.com/mapfiles/place_api/icons/v1/png_71/restaurant-71.png","icon_background_color":"#FF9E67","icon_mask_base_uri":"https://maps.gstatic.com/mapfiles/place_api/icons/v2/restaurant_pinlet","name":"George Restaurant","opening_hours":{"open_now":false},"photos":[{"height":4000,"html_attributions":["<a href=\"https://maps.google.com/maps/contrib/113590524854629948355\">A Google User</a>"],"photo_reference":"AeJbb3dDFA82o4N3GhUYMWbAXjmAaniNop7QjAc5JDVrmf11EbZ5iLZ1IHr9QOlY00TH2r8LqjdM4wNuuN1KtoI0maUPhXCKJzY1TJjRhiG92AfBvnO_lgNGQ0lFqIiF4vyXYsBYM18HykJN9zHXXMDbWV7QMMbQWU6wUpy5wQbNdfo7b16O","width":2667}],"place_id":"ChIJLQKHEf0IOxMRMClP898p2_k","plus_code":{"compound_code":"R6PJ+V2 Naples, Metropolitan City of Naples","global_code":"8FGPR6PJ+V2"},"price_level":3,"rating":4.7,"reference":"ChIJLQKHEf0IOxMRMClP898p2_k","types":["restaurant","food","point_of_interest","establishment"],"user_ratings_total":86},{"business_status":"OPERATIONAL","formatted_address":"Via Cicerone, 23, 80070 Bacoli NA","geometry":{"location":{"lat":40.8252443,"lng":14.0758516},"viewport":{"northeast":{"lat":40.82663467989272,"lng":14.07707652989272},"southwest":{"lat":40.82393502010728,"lng":14.07437687010728}}},"icon":"https://maps.gstatic.com/mapfiles/place_api/icons/v1/png_71/restaurant-71.png","icon_background_color":"#FF9E67","icon_mask_base_uri":"https://maps.gstatic.com/mapfiles/place_api/icons/v2/restaurant_pinlet","name":"Coevo Ristorante","opening_hours":{"open_now":false},"photos":[{"height":3803,"html_attributions":["<a href=\"https://maps.google.com/maps/contrib/109883433489149098294\">A Google User</a>"],"photo_reference":"AeJbb3fsD3isS0v4a06TVn90KSV9oNlQ6IuXx5uaGo0Z36ExZEPtHg_5y8wA8txyS1ZCFmC9ouAAgFSyYRBofdR0MlRbuRFHsMS3yWxuKSlAD9bX3mgSBhnhnxiqkQSklkzHjuVBLxWoTmgdNrYiGZz68znw4ISGhYUNoxg39yJPIxAMfkTB","width":4979}],"place_id":"ChIJI0cznxEROxMRmAaiZu-7XvA","plus_code":{"compound_code":"R3GG+38 Bacoli, Metropolitan City of Naples","global_code":"8FGPR3GG+38"},"rating":4.7,"reference":"ChIJI0cznxEROxMRmAaiZu-7XvA","types":["restaurant","point_of_interest","food","establishment"],"user_ratings_total":50},{"business_status":"OPERATIONAL","formatted_address":"Via Santa Maria di Costantinopoli, 11, 80135 Napoli NA","geometry":{"location":{"lat":40.8525514,"lng":14.2517395},"viewport":{"northeast":{"lat":40.85389627989272,"lng":14.25302672989272},"southwest":{"lat":40.85119662010727,"lng":14.25032707010728}}},"icon":"https://maps.gstatic.com/mapfiles/place_api/icons/v1/png_71/restaurant-71.png","icon_background_color":"#FF9E67","icon_mask_base_uri":"https://maps.gstatic.com/mapfiles/place_api/icons/v2/restaurant_pinlet","name":"Re Lazzarone","opening_hours":{"open_now":true},"photos":[{"height":4032,"html_attributions":["<a href=\"https://maps.google.com/maps/contrib/108970148546489295512\">Re Lazzarone</a>"],"photo_reference":"AeJbb3fL6k-lBSfuUohFqSsiWV4Q4cinf5l5rmYfNbYcH4QNKbSDnd5lO_YZ8MhM0LcsfcKI_S6AzgHBljNDFP9I1bLuL9yfdxQCgjULyBaO4lhjGxfvDck55DO4urjYflSz07o6Sb7C9N5-aQuTGtzs2XG6dmn1T0AK6XfxINFFQrisNULU","width":3024}],"place_id":"ChIJOVsmc2gIOxMRyXLJcl8bxHU","plus_code":{"compound_code":"V732+2M Naples, Metropolitan City of Naples","global_code":"8FGPV732+2M"},"price_level":2,"rating":4.6,"reference":"ChIJOVsmc2gIOxMRyXLJcl8bxHU","types":["restaurant","point_of_interest","food","establishment"],"user_ratings_total":1023},{"business_status":"OPERATIONAL","formatted_address":"154, Vico San Nicola Alla Carità, 13, 80134 Napoli NA","geometry":{"location":{"lat":40.8456908,"lng":14.2484193},"viewport":{"northeast":{"lat":40.84706572989272,"lng":14.24977302989272},"southwest":{"lat":40.84436607010728,"lng":14.24707337010728}}},"icon":"https://maps.gstatic.com/mapfiles/place_api/icons/v1/png_71/restaurant-71.png","icon_background_color":"#FF9E67","icon_mask_base_uri":"https://maps.gstatic.com/mapfiles/place_api/icons/v2/restaurant_pinlet","name":"Biancomangiare - Cucina tipica napoletana Trattoria Osteria Napoli","opening_hours":{"open_now":true},"photos":[{"height":1365,"html_attributions":["<a href=\"https://maps.google.com/maps/contrib/108514173978149989414\">A Google User</a>"],"photo_reference":"AeJbb3dLuBw1EbgVEiGjB_o_JVAOhJ0AkvDJs_bsCqhRYo37M5D-loA9yBDktXNMGR_llYMFel9vNvl4L3wfn80hVsRUOLHUZI1mVYYphTuIDa7hAogNVQ5OvjwpJFyUmgRr2GGbI6V2sDYXBddTRJpz2w_O1XHyGOREyeXQoNm4RySq_V35","width":2048}],"place_id":"ChIJaf77_1oIOxMR6TRXC8vBJvc","plus_code":{"compound_code":"R6WX+79 Naples, Metropolitan City of Naples","global_code":"8FGPR6WX+79"},"rating":4.6,"reference":"ChIJaf77_1oIOxMR6TRXC8vBJvc","types":["restaurant","point_of_interest","food","establishment"],"user_ratings_total":748},{"business_status":"OPERATIONAL","formatted_address":"Via Monte di Dio, 77/78, 80132 Napoli NA","geometry":{"location":{"lat":40.83493319999999,"lng":14.2450273},"viewport":{"northeast":{"lat":40.83629222989273,"lng":14.24638402989272},"southwest":{"lat":40.83359257010728,"lng":14.24368437010728}}},"icon":"https://maps.gstatic.com/mapfiles/place_api/icons/v1/png_71/restaurant-71.png","icon_background_color":"#FF9E67","icon_mask_base_uri":"https://maps.gstatic.com/mapfiles/place_api/icons/v2/restaurant_pinlet","name":"Ristorante Amici Miei","opening_hours":{"open_now":true},"photos":[{"height":2848,"html_attributions":["<a href=\"https://maps.google.com/maps/contrib/118197735537956514672\">Ristorante Amici Miei Srl</a>"],"photo_reference":"AeJbb3d_QDD-eHHc0B6kRi5ZkBlsnoAxjWfQ1pMtVguCT2JiNp1CT1FSYv4DsM7HrmYdhechFy2pg8V03PoK8UL42ZcjGlRYCfLFc1ejlP1lzb70ZKeYKs8pEOrYB1d5Y9xl5xtvc0HAzb43Q_DLNMwGLkqOH3pgHbeTDuFqbOWMWJ0Y0-OD","width":4288}],"place_id":"ChIJH2bPplQIOxMRxrKFlsIYzRE","plus_code":{"compound_code":"R6MV+XX Naples, Metropolitan City of Naples","global_code":"8FGPR6MV+XX"},"price_level":2,"rating":4.6,"reference":"ChIJH2bPplQIOxMRxrKFlsIYzRE","types":["restaurant","point_of_interest","food","establishment"],"user_ratings_total":490},{"business_status":"OPERATIONAL","formatted_address":"Rampe S. Giovanni Maggiore, 1, 80134 Napoli NA","geometry":{"location":{"lat":40.845789,"lng":14.2561606},"viewport":{"northeast":{"lat":40.84709512989272,"lng":14.25754052989272},"southwest":{"lat":40.84439547010727,"lng":14.25484087010728}}},"icon":"https://maps.gstatic.com/mapfiles/place_api/icons/v1/png_71/restaurant-71.png","icon_background_color":"#FF9E67","icon_mask_base_uri":"https://maps.gstatic.com/mapfiles/place_api/icons/v2/restaurant_pinlet","name":"Taverna dell'Arte","opening_hours":{"open_now":false},"photos":[{"height":2736,"html_attributions":["<a href=\"https://maps.google.com/maps/contrib/114993567045741540453\">Luca Gallina</a>"],"photo_reference":"AeJbb3eqJXVax6Z_8xSgHC71rRTPWQo8fjR97h-NbNvRqlTtijTl-iDDhhYqOrsU5RkXoulYYqvinpYWNc-s8bhOvUi69VE4bSEbZQk0KV1PtTTKjxPjq_oCKSqD_pcCEqYlJaHRNnH2jsU4c2sswwDGgmTCnf_Sw6OzmE0M7Z0OYiaBNq_2","width":3648}],"place_id":"ChIJm6HFhl0IOxMRoSXTJEXgvQs","plus_code":{"compound_code":"R7W4+8F Naples, Metropolitan City of Naples","global_code":"8FGPR7W4+8F"},"price_level":2,"rating":4.6,"reference":"ChIJm6HFhl0IOxMRoSXTJEXgvQs","types":["restaurant","point_of_interest","food","establishment"],"user_ratings_total":452},{"business_status":"OPERATIONAL","formatted_address":"Via Guido De Ruggiero, 108, 80031 Brusciano NA","geometry":{"location":{"lat":40.9083451,"lng":14.4231301},"viewport":{"northeast":{"lat":40.90969212989272,"lng":14.42464092989272},"southwest":{"lat":40.90699247010728,"lng":14.42194127010728}}},"icon":"https://maps.gstatic.com/mapfiles/place_api/icons/v1/png_71/restaurant-71.png","icon_background_color":"#FF9E67","icon_mask_base_uri":"https://maps.gstatic.com/mapfiles/place_api/icons/v2/restaurant_pinlet","name":"Taverna Estia","opening_hours":{"open_now":false},"photos":[{"height":3024,"html_attributions":["<a href=\"https://maps.google.com/maps/contrib/117524524144599822179\">Robert Sjöström</a>"],"photo_reference":"AeJbb3d5bEWU0KUQgC7csMoWTrcjVG_obvuHrz_anLyLLe5MjLB5M_YVLgnQT0fFRRIRFWMKhmlfWfOObhImBuFB68pe4KfaYBodAvV6JroqPKP2VdWnfN_n2myGCO-BqQM-HsD1Jwrvj_zRey2dltYw959WWUpPvVf80bzEYhy-cmAUVEOP","width":4032}],"place_id":"ChIJayYsomKuOxMRQINDUOZQjaY","plus_code":{"compound_code":"WC5F+87 Brusciano, Metropolitan City of Naples","global_code":"8FGPWC5F+87"},"price_level":4,"rating":4.6,"reference":"ChIJayYsomKuOxMRQINDUOZQjaY","types":["restaurant","food","point_of_interest","establishment"],"user_ratings_total":307},{"business_status":"OPERATIONAL","formatted_address":"Via Nazionale, 283, 80059 Torre del Greco NA","geometry":{"location":{"lat":40.7778031,"lng":14.3888549},"viewport":{"northeast":{"lat":40.77918852989272,"lng":14.39025287989272},"southwest":{"lat":40.77648887010728,"lng":14.38755322010728}}},"icon":"https://maps.gstatic.com/mapfiles/place_api/icons/v1/png_71/restaurant-71.png","icon_background_color":"#FF9E67","icon_mask_base_uri":"https://maps.gstatic.com/mapfiles/place_api/icons/v2/restaurant_pinlet","name":"Ristorante Donna Maria","opening_hours":{"open_now":false},"photos":[{"height":2736,"html_attributions":["<a href=\"https://maps.google.com/maps/contrib/109333578145372072239\">ULTIMO500</a>"],"photo_reference":"AeJbb3ccg7vgi9Uc8Ea28xbp7y3ACJjU0Z7IB6uqkekCwlQ4-kFbZ1Wm5-eTMxoRbhteYwqoDa7USnFkCE5hPXR6FEK5NVGD6aX_gKl6oMtp2Be87KvCKi653trvPesApDhZoh460tkcWk7AlzX1AYIshl8j6C6I7mTd1v2pCgxkHu8ME5ww","width":3648}],"place_id":"ChIJswe7sAekOxMRfKldp-MolN0","plus_code":{"compound_code":"Q9HQ+4G Torre del Greco, Metropolitan City of Naples","global_code":"8FGPQ9HQ+4G"},"price_level":2,"rating":4.6,"reference":"ChIJswe7sAekOxMRfKldp-MolN0","types":["restaurant","food","point_of_interest","establishment"],"user_ratings_total":171},{"business_status":"OPERATIONAL","formatted_address":"Via Mergellina, 1A, 80122 Napoli NA","geometry":{"location":{"lat":40.8236571,"lng":14.2190938},"viewport":{"northeast":{"lat":40.82502722989273,"lng":14.22057507989272},"southwest":{"lat":40.82232757010728,"lng":14.21787542010728}}},"icon":"https://maps.gstatic.com/mapfiles/place_api/icons/v1/png_71/restaurant-71.png","icon_background_color":"#FF9E67","icon_mask_base_uri":"https://maps.gstatic.com/mapfiles/place_api/icons/v2/restaurant_pinlet","name":"Casa a tre pizzi","opening_hours":{"open_now":false},"photos":[{"height":3024,"html_attributions":["<a href=\"https://maps.google.com/maps/contrib/108920460779910635378\">A Google User</a>"],"photo_reference":"AeJbb3ffzXM10SkSuZ8aK4SqIyPdrT9LpnrAgh0A3ZTn4XFrR7mM1SmRH2_jKM9QWXfIM82TeU1pln0uiZnGgdz0768S0vA8PywU-sCSdUp1Ygytnig0f0olaDkqVPgawv6xfBlijgf-U24GeMfpTp3SXGE5ijMx3jbSxeVQc8P_pcvN4iqw","width":4032}],"place_id":"ChIJp3OHWBYJOxMR6cb163kT73o","plus_code":{"compound_code":"R6F9+FJ Naples, Metropolitan City of Naples","global_code":"8FGPR6F9+FJ"},"rating":4.6,"reference":"ChIJp3OHWBYJOxMR6cb163kT73o","types":["restaurant","point_of_interest","food","establishment"],"user_ratings_total":111},{"business_status":"OPERATIONAL","formatted_address":"Via Posillipo, 253, 80123 Napoli NA","geometry":{"location":{"lat":40.8144384,"lng":14.2082143},"viewport":{"northeast":{"lat":40.81575197989272,"lng":14.20958197989272},"southwest":{"lat":40.81305232010728,"lng":14.20688232010728}}},"icon":"https://maps.gstatic.com/mapfiles/place_api/icons/v1/png_71/restaurant-71.png","icon_background_color":"#FF9E67","icon_mask_base_uri":"https://maps.gstatic.com/mapfiles/place_api/icons/v2/restaurant_pinlet","name":"DAVÌ","opening_hours":{"open_now":true},"photos":[{"height":2268,"html_attributions":["<a href=\"https://maps.google.com/maps/contrib/105649550282617312755\">A Google User</a>"],"photo_reference":"AeJbb3cI-5k-eg9fhXB2zmBXfeIwzWFJjF2au0RBVZYUO41tIu0Pm6F7c8G7P-ZeWxoT0S8X12VD8WdSyXgNYycSrM3N-BM_0kinKmg_8NOtQwGeoQfGc-GkQVUtudNBuwsKxESISjYYcgTmVyEqzBAq51Wqe4657uIkJKmZAfEeaizlvqFa","width":4032}],"place_id":"ChIJm8D2blUJOxMR2Ef_fH1DUCE","plus_code":{"compound_code":"R675+Q7 Naples, Metropolitan City of Naples","global_code":"8FGPR675+Q7"},"rating":4.6,"reference":"ChIJm8D2blUJOxMR2Ef_fH1DUCE","types":["restaurant","food","point_of_interest","establishment"],"user_ratings_total":52},{"business_status":"OPERATIONAL","formatted_address":"Via Chiatamone, 31, 80121 Napoli NA","geometry":{"location":{"lat":40.83054,"lng":14.2465712},"viewport":{"northeast":{"lat":40.83187132989271,"lng":14.24792022989272},"southwest":{"lat":40.82917167010727,"lng":14.24522057010727}}},"icon":"https://maps.gstatic.com/mapfiles/place_api/icons/v1/png_71/restaurant-71.png","icon_background_color":"#FF9E67","icon_mask_base_uri":"https://maps.gstatic.com/mapfiles/place_api/icons/v2/restaurant_pinlet","name":"My Seacret","opening_hours":{"open_now":false},"photos":[{"height":9000,"html_attributions":["<a href=\"https://maps.google.com/maps/contrib/114708640755515381981\">A Google User</a>"],"photo_reference":"AeJbb3dcN3Tv4O9C86LnKnPT_-H0p2PAd014ypUBHvYVZLrua-EJW7mbxq6G5QBUcJDm4u5bO7be1xraIqYpqFPoRF6ywRcx2KREWuqVTOAArlzVPZVfacI15Svu1fTd0D2UC7T0P1D8UoH6ZW8iEa-q5Vytj4tFiuPlPlK_RXuf5BxvzuDQ","width":12000}],"place_id":"ChIJL38WYgUJOxMRco8d8qHlRG4","plus_code":{"compound_code":"R6JW+6J Naples, Metropolitan City of Naples","global_code":"8FGPR6JW+6J"},"rating":4.6,"reference":"ChIJL38WYgUJOxMRco8d8qHlRG4","types":["restaurant","food","point_of_interest","establishment"],"user_ratings_total":28},{"business_status":"OPERATIONAL","formatted_address":"Piazza Francese, 42, 80133 Napoli NA","geometry":{"location":{"lat":40.8398764,"lng":14.2546883},"viewport":{"northeast":{"lat":40.84126567989273,"lng":14.25609797989272},"southwest":{"lat":40.83856602010729,"lng":14.25339832010728}}},"icon":"https://maps.gstatic.com/mapfiles/place_api/icons/v1/png_71/restaurant-71.png","icon_background_color":"#FF9E67","icon_mask_base_uri":"https://maps.gstatic.com/mapfiles/place_api/icons/v2/restaurant_pinlet","name":"Trattoria Castel Nuovo","opening_hours":{"open_now":true},"photos":[{"height":3000,"html_attributions":["<a href=\"https://maps.google.com/maps/contrib/111818772302660996111\">גיא מחלב</a>"],"photo_reference":"AeJbb3fSfo1NiZvpisKnaPQFAjwk9oWakw5D8MW2XOUWoprL9LxDVcHz4xDF3wD9hS8LW__dfAYOTjk4rQ04lqsD_PZkM-ppnKBEv4GtZBxWIVoppMzIb--HEbkE5SBD60J-K33aCV42tKL1XPbWJBC_fw5dNFRqIlY5jUTtDsbfZp9QsFoj","width":4000}],"place_id":"ChIJG8J__U4IOxMRy0KOtpfhebs","plus_code":{"compound_code":"R7Q3+XV Naples, Metropolitan City of Naples","global_code":"8FGPR7Q3+XV"},"price_level":2,"rating":4.5,"reference":"ChIJG8J__U4IOxMRy0KOtpfhebs","types":["restaurant","food","point_of_interest","establishment"],"user_ratings_total":1706},{"business_status":"OPERATIONAL","formatted_address":"Via Posillipo, 16 C, 80123 Napoli NA","geometry":{"location":{"lat":40.821511,"lng":14.2147829},"viewport":{"northeast":{"lat":40.82289012989272,"lng":14.21610532989272},"southwest":{"lat":40.82019047010728,"lng":14.21340567010728}}},"icon":"https://maps.gstatic.com/mapfiles/place_api/icons/v1/png_71/restaurant-71.png","icon_background_color":"#FF9E67","icon_mask_base_uri":"https://maps.gstatic.com/mapfiles/place_api/icons/v2/restaurant_pinlet","name":"Palazzo Petrucci Ristorante","opening_hours":{"open_now":false},"photos":[{"height":2677,"html_attributions":["<a href=\"https://maps.google.com/maps/contrib/107272760241398745981\">A Google User</a>"],"photo_reference":"AeJbb3dmQTarIERPkjohY8F8_fMZG62GRdvo2r2uFrmIhi0CngcIwb9s_VzmOPRT0AFjM2hCPBmcLRhKfb9Rk19hyUjfeYQ0D9_uHtplwHhWL0RBW-5y4hDyw_Nt5aMZOXF0Z_8UIJ_K6IqzidvH729k0k5fj0-KfHzULh1GJhjBJ3aGo-5M","width":4016}],"place_id":"ChIJqaNumUMIOxMR2qaF2pufj7Q","plus_code":{"compound_code":"R6C7+JW Naples, Metropolitan City of Naples","global_code":"8FGPR6C7+JW"},"price_level":4,"rating":4.5,"reference":"ChIJqaNumUMIOxMR2qaF2pufj7Q","types":["restaurant","food","point_of_interest","establishment"],"user_ratings_total":1058},{"business_status":"OPERATIONAL","formatted_address":"Strada Provinciale per Pianura, 4/5, 80078 Pozzuoli NA","geometry":{"location":{"lat":40.859666,"lng":14.1290276},"viewport":{"northeast":{"lat":40.86096022989272,"lng":14.13036662989272},"southwest":{"lat":40.85826057010728,"lng":14.12766697010728}}},"icon":"https://maps.gstatic.com/mapfiles/place_api/icons/v1/png_71/restaurant-71.png","icon_background_color":"#FF9E67","icon_mask_base_uri":"https://maps.gstatic.com/mapfiles/place_api/icons/v2/restaurant_pinlet","name":"La Cantina dell'Abbazia Bistrot","opening_hours":{"open_now":false},"photos":[{"height":1536,"html_attributions":["<a href=\"https://maps.google.com/maps/contrib/114080443352665624231\">La Cantina dell&#39;Abbazia srl</a>"],"photo_reference":"AeJbb3ckUoLODnOnnQtN4bocBPiliKHvzQjn0n3Q1YQFgbGVcToV66DaDQw5hbw39OPyAW8iNr4EdN1cmMk54F6sDFCzCTMk1esNpjFiqXaNfeS_1NO4xL8h23rXaH8E1adUab9J5nPWktc0axXnwXiZIr4RaUTat8lEYt0XT_3IoiYPXYF8","width":2048}],"place_id":"ChIJBV4FirkPOxMRWotRYCCFzgo","plus_code":{"compound_code":"V45H+VM Pozzuoli, Metropolitan City of Naples","global_code":"8FGPV45H+VM"},"price_level":2,"rating":4.5,"reference":"ChIJBV4FirkPOxMRWotRYCCFzgo","types":["restaurant","food","point_of_interest","establishment"],"user_ratings_total":527},{"business_status":"OPERATIONAL","formatted_address":"Via Cegnacolo, 55, 80056 Ercolano NA","geometry":{"location":{"lat":40.8304966,"lng":14.3639954},"viewport":{"northeast":{"lat":40.83154562989272,"lng":14.36541737989272},"southwest":{"lat":40.82884597010728,"lng":14.36271772010728}}},"icon":"https://maps.gstatic.com/mapfiles/place_api/icons/v1/png_71/restaurant-71.png","icon_background_color":"#FF9E67","icon_mask_base_uri":"https://maps.gstatic.com/mapfiles/place_api/icons/v2/restaurant_pinlet","name":"Masseria Guida","opening_hours":{"open_now":true},"photos":[{"height":3024,"html_attributions":["<a href=\"https://maps.google.com/maps/contrib/102890160977380122736\">Florentia Pistofidou</a>"],"photo_reference":"AeJbb3c8vZz59k-hQweF8JTBt_uHPwfw1eQA0JSZEn3NbuHIAvE0mOEEmT0EbawPd7Ki7l7a8-JVTaP01YgoVyjggaZecwsZ5Wz5ZTSZHG6rdLHM2_FTekf1qt_yeXpkBBwXGlKAvOw0gd0ntkB1eZ2_b3uM9CSvp_fqA8xhdH7H4L7aI8ow","width":4032}],"place_id":"ChIJe7TKT2-mOxMRT8bBaQTP8z4","plus_code":{"compound_code":"R9J7+5H Ercolano, Metropolitan City of Naples","global_code":"8FGPR9J7+5H"},"rating":4.5,"reference":"ChIJe7TKT2-mOxMRT8bBaQTP8z4","types":["restaurant","spa","lodging","food","point_of_interest","establishment"],"user_ratings_total":483},{"business_status":"OPERATIONAL","formatted_address":"Via Michele Kerbaker, 112, 80129 Napoli NA","geometry":{"location":{"lat":40.8451983,"lng":14.2326793},"viewport":{"northeast":{"lat":40.84655452989272,"lng":14.23399532989272},"southwest":{"lat":40.84385487010728,"lng":14.23129567010728}}},"icon":"https://maps.gstatic.com/mapfiles/place_api/icons/v1/png_71/restaurant-71.png","icon_background_color":"#FF9E67","icon_mask_base_uri":"https://maps.gstatic.com/mapfiles/place_api/icons/v2/restaurant_pinlet","name":"Borbonika Napulitan Restaurant","opening_hours":{"open_now":true},"photos":[{"height":3508,"html_attributions":["<a href=\"https://maps.google.com/maps/contrib/113244468750438188686\">Léa Zacharis</a>"],"photo_reference":"AeJbb3cIbt-woIXYbodIqb5byjofgVSvCgHGxx90lgvptJOdLkK_hVQKmldlkgtls-aH4noqWFkS65W040i676OTxCp0WpmbCFLoBhAjLkZmM4-h-mFghdXsYzjM2YH-wAo98QcgsqF76_n-invFYyrHfmBoRlB-oPvjjw7eK3lh24WwdIOg","width":2891}],"place_id":"ChIJb0XlCfoIOxMR4L0kZ-67SuM","plus_code":{"compound_code":"R6WM+33 Naples, Metropolitan City of Naples","global_code":"8FGPR6WM+33"},"price_level":2,"rating":4.5,"reference":"ChIJb0XlCfoIOxMR4L0kZ-67SuM","types":["restaurant","food","point_of_interest","establishment"],"user_ratings_total":403},{"business_status":"OPERATIONAL","formatted_address":"P.za Municipio, 1, 80133 Napoli NA","geometry":{"location":{"lat":40.8395117,"lng":14.2516264},"viewport":{"northeast":{"lat":40.84091562989272,"lng":14.25299272989272},"southwest":{"lat":40.83821597010728,"lng":14.25029307010728}}},"icon":"https://maps.gstatic.com/mapfiles/place_api/icons/v1/png_71/restaurant-71.png","icon_background_color":"#FF9E67","icon_mask_base_uri":"https://maps.gstatic.com/mapfiles/place_api/icons/v2/restaurant_pinlet","name":"Sea Front Di Martino Pasta Bar","opening_hours":{"open_now":true},"photos":[{"height":768,"html_attributions":["<a href=\"https://maps.google.com/maps/contrib/106680244349308538645\">A Google User</a>"],"photo_reference":"AeJbb3c6O-A4ZV3YZHkM-fsDNbDnAqlGyZ79lqMS6Ooe8SfLnvnDW3xhN_rvF6mVSQwaLBupzpV_px1TvfNg3JUsP9eIkj783j5NxkRRzy4U4ZfQB7yrUyJq7GuZrMM_jL_cv78WgqDRiDg5IeGn49INrf6dMgJGcBv-8p3ZC8G7bQAIeKf5","width":1024}],"place_id":"ChIJmV7SJU4IOxMR6G-N-Il9fvI","plus_code":{"compound_code":"R7Q2+RM Naples, Metropolitan City of Naples","global_code":"8FGPR7Q2+RM"},"rating":4.5,"reference":"ChIJmV7SJU4IOxMR6G-N-Il9fvI","types":["restaurant","bar","point_of_interest","food","establishment"],"user_ratings_total":391},{"business_status":"OPERATIONAL","formatted_address":"Via S. Pietro e S. Paolo, 8, 80010 Quarto NA","geometry":{"location":{"lat":40.8747179,"lng":14.1234578},"viewport":{"northeast":{"lat":40.87603232989272,"lng":14.12476087989272},"southwest":{"lat":40.87333267010728,"lng":14.12206122010728}}},"icon":"https://maps.gstatic.com/mapfiles/place_api/icons/v1/png_71/restaurant-71.png","icon_background_color":"#FF9E67","icon_mask_base_uri":"https://maps.gstatic.com/mapfiles/place_api/icons/v2/restaurant_pinlet","name":"Sud Ristorante","opening_hours":{"open_now":false},"photos":[{"height":2988,"html_attributions":["<a href=\"https://maps.google.com/maps/contrib/116971735536783784892\">Gianluca Raia</a>"],"photo_reference":"AeJbb3f_v0HgNLVKpMtqMf-eZhh56V79BTXt8LF0rT4Wj7T2_EsKVMrVIABr1zzskhkdYWUgnWgutNkiyFXlmiKRGbWyf_Cov2nIhkTFvk3jEIF1jVoic4_8YV6smyIdDgA95jmINl6oz1uKlC28dCNmm3J9gx5cVqBL0EMa8NcfI4XxQ36f","width":5312}],"place_id":"ChIJoVkcNpMPOxMRgCbdte2qjjU","plus_code":{"compound_code":"V4FF+V9 Quarto, Metropolitan City of Naples","global_code":"8FGPV4FF+V9"},"price_level":3,"rating":4.5,"reference":"ChIJoVkcNpMPOxMRgCbdte2qjjU","types":["restaurant","food","point_of_interest","establishment"],"user_ratings_total":386},{"business_status":"OPERATIONAL","formatted_address":"C.so Vittorio Emanuele, 141, 80121 Napoli NA","geometry":{"location":{"lat":40.8372406,"lng":14.2313767},"viewport":{"northeast":{"lat":40.83854062989273,"lng":14.23270652989272},"southwest":{"lat":40.83584097010728,"lng":14.23000687010728}}},"icon":"https://maps.gstatic.com/mapfiles/place_api/icons/v1/png_71/restaurant-71.png","icon_background_color":"#FF9E67","icon_mask_base_uri":"https://maps.gstatic.com/mapfiles/place_api/icons/v2/restaurant_pinlet","name":"Veritas Restaurant","opening_hours":{"open_now":false},"photos":[{"height":2268,"html_attributions":["<a href=\"https://maps.google.com/maps/contrib/105499965156238704239\">Ettore B.</a>"],"photo_reference":"AeJbb3f3y49xp_m47ia-jCxq3am0egmP-WwUdS00e9984wBpR7LyGIQtiGaSDwSTV_i7vRxTfxgHFQ9Q3se2nwkt4tYw_Ro0jRNkhjtadpl_0Q6CcOCOtfUMJuGq8aqhoG61ctZpeTPaweY46WpQndHuwP7Bphe90rcTstDiovn4zBKYF8MP","width":4032}],"place_id":"ChIJhQf7Dv0IOxMRE0ElVRpF8II","plus_code":{"compound_code":"R6PJ+VH Naples, Metropolitan City of Naples","global_code":"8FGPR6PJ+VH"},"price_level":3,"rating":4.5,"reference":"ChIJhQf7Dv0IOxMRE0ElVRpF8II","types":["restaurant","food","point_of_interest","establishment"],"user_ratings_total":225},{"business_status":"OPERATIONAL","formatted_address":"Vico Lungo Teatro Nuovo, 103/104/105, 80134 Napoli NA","geometry":{"location":{"lat":40.8419551,"lng":14.2475452},"viewport":{"northeast":{"lat":40.84335957989272,"lng":14.24890652989272},"southwest":{"lat":40.84065992010728,"lng":14.24620687010728}}},"icon":"https://maps.gstatic.com/mapfiles/place_api/icons/v1/png_71/restaurant-71.png","icon_background_color":"#FF9E67","icon_mask_base_uri":"https://maps.gstatic.com/mapfiles/place_api/icons/v2/restaurant_pinlet","name":"Trattoria da Nennella","opening_hours":{"open_now":true},"photos":[{"height":4000,"html_attributions":["<a href=\"https://maps.google.com/maps/contrib/113384730737972230194\">Monica Zanardo</a>"],"photo_reference":"AeJbb3fkW6UB00J7Fxn7ZrA1VmwY2YEDQG-ez3DuwzS-O4Y9jMsA0aS4Urz3oWFBK4yjtxlAEAH5EpS-mryHxeDPhYUmOyr2mYDeOj55hrZw6et-iMtWqTqqshBQLbL3L0R2CdEpD-DHa9ChyO1SOewfUoc3PVlGK1L3KTLFkj_T07XkmDog","width":3000}],"place_id":"ChIJh9uA7VAIOxMRQzTt01pxSBM","plus_code":{"compound_code":"R6RX+Q2 Naples, Metropolitan City of Naples","global_code":"8FGPR6RX+Q2"},"price_level":1,"rating":4.4,"reference":"ChIJh9uA7VAIOxMRQzTt01pxSBM","types":["restaurant","point_of_interest","food","establishment"],"user_ratings_total":12395},{"business_status":"OPERATIONAL","formatted_address":"Via Giovanni Paladino, 51, 80100 Napoli NA","geometry":{"location":{"lat":40.8482357,"lng":14.2562916},"viewport":{"northeast":{"lat":40.84958807989272,"lng":14.25726912989272},"southwest":{"lat":40.84688842010728,"lng":14.25456947010728}}},"icon":"https://maps.gstatic.com/mapfiles/place_api/icons/v1/png_71/restaurant-71.png","icon_background_color":"#FF9E67","icon_mask_base_uri":"https://maps.gstatic.com/mapfiles/place_api/icons/v2/restaurant_pinlet","name":"Tandem Ragù","opening_hours":{"open_now":true},"photos":[{"height":2976,"html_attributions":["<a href=\"https://maps.google.com/maps/contrib/105637341824985492912\">Giuseppe Morrone</a>"],"photo_reference":"AeJbb3cSODBQ417xs3w5nVjnaiWzXE85MBvIzpk6z0XPiEJ8HlO2EDN5jbiHeGMejnHwbJqDAhBdpiKTLyMKsN7B7OWDl_MTvIqeFg8FqrlpPccqnh6jMB-39sqyRjcF6CPdnvjt7eyzNyGcFAUz1LUQU50Jjzl9bLVgaHIjH4BToQNkpDYV","width":3968}],"place_id":"ChIJKeOz_UMIOxMRziks1vDh8M4","plus_code":{"compound_code":"R7X4+7G Naples, Metropolitan City of Naples","global_code":"8FGPR7X4+7G"},"price_level":1,"rating":4.4,"reference":"ChIJKeOz_UMIOxMRziks1vDh8M4","types":["restaurant","point_of_interest","food","establishment"],"user_ratings_total":3980},{"business_status":"OPERATIONAL","formatted_address":"Via Sergente Maggiore, 8, 80132 Napoli NA","geometry":{"location":{"lat":40.8379588,"lng":14.2479014},"viewport":{"northeast":{"lat":40.83931797989272,"lng":14.24924862989272},"southwest":{"lat":40.83661832010728,"lng":14.24654897010728}}},"icon":"https://maps.gstatic.com/mapfiles/place_api/icons/v1/png_71/restaurant-71.png","icon_background_color":"#FF9E67","icon_mask_base_uri":"https://maps.gstatic.com/mapfiles/place_api/icons/v2/restaurant_pinlet","name":"Osteria Il Gobbetto","opening_hours":{"open_now":false},"photos":[{"height":2592,"html_attributions":["<a href=\"https://maps.google.com/maps/contrib/115461143869458653197\">Peter finch</a>"],"photo_reference":"AeJbb3e07FvH6QHI6FtYMYuT5CpB4fhz9tD3W4vLL8crh2v0XyNvLwsk4P_SxEi_vIaxViCQqELbHpICsPdxXN_MJXAnYzNNi7ppj7GplQSdMuuB-osM-eNn1fJSlnzfpmgF5e7V_oqrj6fuzmCIA6EmqFObJctcrEHvV7uqAUQw1B46dhmQ","width":1456}],"place_id":"ChIJG61Z0VMIOxMRMr98COBYS5c","plus_code":{"compound_code":"R6QX+55 Naples, Metropolitan City of Naples","global_code":"8FGPR6QX+55"},"price_level":1,"rating":4.4,"reference":"ChIJG61Z0VMIOxMRMr98COBYS5c","types":["restaurant","point_of_interest","food","establishment"],"user_ratings_total":2305},{"business_status":"OPERATIONAL","formatted_address":"Via Carlo de Cesare, 14, 80132 Napoli NA","geometry":{"location":{"lat":40.8375565,"lng":14.2476455},"viewport":{"northeast":{"lat":40.83892727989272,"lng":14.24898887989272},"southwest":{"lat":40.83622762010728,"lng":14.24628922010728}}},"icon":"https://maps.gstatic.com/mapfiles/place_api/icons/v1/png_71/restaurant-71.png","icon_background_color":"#FF9E67","icon_mask_base_uri":"https://maps.gstatic.com/mapfiles/place_api/icons/v2/restaurant_pinlet","name":"A Cucina Ra Casa Mia","opening_hours":{"open_now":true},"photos":[{"height":2268,"html_attributions":["<a href=\"https://maps.google.com/maps/contrib/114172171310285509649\">Sylvia Zhao</a>"],"photo_reference":"AeJbb3ciPHYv_gArWrGQ9liocUzfSUEDrjSHJSDJShw-6qgDmp9vsEeCHitaMRAkkia4z8GIDfGrh9SSLEOrsgIHy7DWngUCFZrctGwT1WEIve4JmMc8yQId5llYDeylYiRBggrMXhw5hEq-H7aCiwAbYlQGol2k2ozCub3fNmg9W7Cs7G_Z","width":4032}],"place_id":"ChIJLQN_xVMIOxMRVQnMYk4rn2U","plus_code":{"compound_code":"R6QX+23 Naples, Metropolitan City of Naples","global_code":"8FGPR6QX+23"},"price_level":1,"rating":4.4,"reference":"ChIJLQN_xVMIOxMRVQnMYk4rn2U","types":["restaurant","food","point_of_interest","establishment"],"user_ratings_total":1232},{"business_status":"OPERATIONAL","formatted_address":"Via Michele Kerbaker, 58, 80129 Napoli NA","geometry":{"location":{"lat":40.8438289,"lng":14.2328759},"viewport":{"northeast":{"lat":40.84510427989272,"lng":14.23418142989272},"southwest":{"lat":40.84240462010727,"lng":14.23148177010728}}},"icon":"https://maps.gstatic.com/mapfiles/place_api/icons/v1/png_71/restaurant-71.png","icon_background_color":"#FF9E67","icon_mask_base_uri":"https://maps.gstatic.com/mapfiles/place_api/icons/v2/restaurant_pinlet","name":"Donna Teresa","opening_hours":{"open_now":true},"photos":[{"height":2062,"html_attributions":["<a href=\"https://maps.google.com/maps/contrib/105019750416175677961\">Peter C</a>"],"photo_reference":"AeJbb3cG_8F1RAr43L18ASKBBmJecZPXc6IjXchvSB2LMN3MuOD0OA1VbYHaF-OHJ52z4lPsCGSQiX5MR6yYZFfS5UUtImSTegTi-MmscJyraVOm-d5OByLMS6K0Wdiq4Hk-Lv_zR8irBCVf90AYB1jl_3xflAQYDC-TteTf119pLnIeU1B9","width":2448}],"place_id":"ChIJeRwKPfoIOxMRCA8m6_ONd0c","plus_code":{"compound_code":"R6VM+G5 Naples, Metropolitan City of Naples","global_code":"8FGPR6VM+G5"},"price_level":1,"rating":4.4,"reference":"ChIJeRwKPfoIOxMRCA8m6_ONd0c","types":["restaurant","food","point_of_interest","establishment"],"user_ratings_total":604},{"business_status":"OPERATIONAL","formatted_address":"Via Cappella degli Orefici, 11, 80059 Torre del Greco NA","geometry":{"location":{"lat":40.7829341,"lng":14.4174461},"viewport":{"northeast":{"lat":40.78424142989272,"lng":14.41875327989272},"southwest":{"lat":40.78154177010727,"lng":14.41605362010728}}},"icon":"https://maps.gstatic.com/mapfiles/place_api/icons/v1/png_71/restaurant-71.png","icon_background_color":"#FF9E67","icon_mask_base_uri":"https://maps.gstatic.com/mapfiles/place_api/icons/v2/restaurant_pinlet","name":"Ristorante grappolo d'oro villa Nina eventi","opening_hours":{"open_now":true},"photos":[{"height":4160,"html_attributions":["<a href=\"https://maps.google.com/maps/contrib/107403188800093630999\">nunzio stango</a>"],"photo_reference":"AeJbb3eCGrJSFpAWfjMWzlF9QAej1SMTlK6LULOgdsXfwBlMkR5V4oRk-upwXIcLPTeD-mwR3uKcgaBZ4gGBY9fC-D0wjkor_ZSLybPobHy3fT-7_AcDUJhdVRQXT6EGa2wv5vTlHop8UsNHUYx00dIKCRRM9oZRAnBOVLooALlXghu-MaR5","width":3120}],"place_id":"ChIJc14R2mSkOxMRkvnNTtLebtQ","plus_code":{"compound_code":"QCM8+5X Torre del Greco, Metropolitan City of Naples","global_code":"8FGPQCM8+5X"},"price_level":2,"rating":4.4,"reference":"ChIJc14R2mSkOxMRkvnNTtLebtQ","types":["restaurant","food","point_of_interest","establishment"],"user_ratings_total":337},{"business_status":"OPERATIONAL","formatted_address":"Via Giulio Palermo, 31, 80131 Napoli NA","geometry":{"location":{"lat":40.861317,"lng":14.220228},"viewport":{"northeast":{"lat":40.86272112989273,"lng":14.22164397989272},"southwest":{"lat":40.86002147010728,"lng":14.21894432010728}}},"icon":"https://maps.gstatic.com/mapfiles/place_api/icons/v1/png_71/restaurant-71.png","icon_background_color":"#FF9E67","icon_mask_base_uri":"https://maps.gstatic.com/mapfiles/place_api/icons/v2/restaurant_pinlet","name":"Trattoria le nonnerie","opening_hours":{"open_now":true},"photos":[{"height":3113,"html_attributions":["<a href=\"https://maps.google.com/maps/contrib/109822394458751299327\">Anna Toriello</a>"],"photo_reference":"AeJbb3dudLKTcyZeCWfscbh5ZpmY5nDFzjrD-pJiPRkRfw5ko86mAVbbuPomTX8rSOxPViB9vldr7sbWTLdUYZfVjyCB4CQZhHqkqRQR5C2olHQduFc_5ZOj0vQZafSOjZ236Ckpe5HocKyrfnI170y7sbGA6ZMfw877B_jESqfTlc71YPMa","width":4669}],"place_id":"ChIJgTUlIZQIOxMR5FOOX7ObeEM","plus_code":{"compound_code":"V66C+G3 Naples, Metropolitan City of Naples","global_code":"8FGPV66C+G3"},"price_level":2,"rating":4.4,"reference":"ChIJgTUlIZQIOxMR5FOOX7ObeEM","types":["restaurant","point_of_interest","food","establishment"],"user_ratings_total":290},{"business_status":"OPERATIONAL","formatted_address":"P.za Giuseppe Garibaldi, 9/10, 80142 Napoli NA","geometry":{"location":{"lat":40.8517783,"lng":14.2674704},"viewport":{"northeast":{"lat":40.85313342989272,"lng":14.26886627989272},"southwest":{"lat":40.85043377010728,"lng":14.26616662010728}}},"icon":"https://maps.gstatic.com/mapfiles/place_api/icons/v1/png_71/restaurant-71.png","icon_background_color":"#FF9E67","icon_mask_base_uri":"https://maps.gstatic.com/mapfiles/place_api/icons/v2/restaurant_pinlet","name":"Vesuvio Roof Bar & Restaurant by \"UNA cucina\"","opening_hours":{"open_now":true},"photos":[{"height":3648,"html_attributions":["<a href=\"https://maps.google.com/maps/contrib/110324524947375687130\">Ann Fly</a>"],"photo_reference":"AeJbb3dBMpFNeL4FEGqtYhT1EfdCE3j_-OucRu68ct0ENJeHMFzdLfx_dP71hg0YxyZr4Yxz62p09ywklcToPdGmGhSZoKZUMjZ-0MdVr50hP0bK-XlZVuziZYHaf0pyLsqyTyXksAhCtVLHlmOItMO7Ad47wiihLNbBgi4Kg7st7zyN2OUb","width":2736}],"place_id":"ChIJ000d_7YJOxMRccU9OwNI_XM","plus_code":{"compound_code":"V728+PX Naples, Metropolitan City of Naples","global_code":"8FGPV728+PX"},"rating":4.4,"reference":"ChIJ000d_7YJOxMRccU9OwNI_XM","types":["restaurant","bar","point_of_interest","food","establishment"],"user_ratings_total":198},{"business_status":"OPERATIONAL","formatted_address":"Via Piedigrotta, 56, 80122 Napoli NA","geometry":{"location":{"lat":40.8312554,"lng":14.2205838},"viewport":{"northeast":{"lat":40.83256432989273,"lng":14.22200327989272},"southwest":{"lat":40.82986467010728,"lng":14.21930362010728}}},"icon":"https://maps.gstatic.com/mapfiles/place_api/icons/v1/png_71/restaurant-71.png","icon_background_color":"#FF9E67","icon_mask_base_uri":"https://maps.gstatic.com/mapfiles/place_api/icons/v2/restaurant_pinlet","name":"Trattoria vini e cucina","opening_hours":{"open_now":true},"photos":[{"height":3024,"html_attributions":["<a href=\"https://maps.google.com/maps/contrib/109317323675946876118\">Rina Mooij</a>"],"photo_reference":"AeJbb3c4J-GSGKXkz6imjew7FH3S6-bxG1d9_zJFU7whv6ee88b4pKAuS2UVCI06zX2sRe27cZ5uV24WpiDHsVG8-WnjK8m67wb09T5haWw_y0SkLm6f7348K3OZ-BChFBQPhhryUtOdSNr4C-7Jn1bodVwyxtQ1znNgiDCORqlwOu6NwrMn","width":4032}],"place_id":"ChIJo71qLBkJOxMR1TgD88ddbEU","plus_code":{"compound_code":"R6JC+F6 Naples, Metropolitan City of Naples","global_code":"8FGPR6JC+F6"},"rating":4.4,"reference":"ChIJo71qLBkJOxMR1TgD88ddbEU","types":["restaurant","point_of_interest","food","establishment"],"user_ratings_total":176},{"business_status":"OPERATIONAL","formatted_address":"Via Alabardieri, 30, 80121 Napoli NA","geometry":{"location":{"lat":40.8348311,"lng":14.2411962},"viewport":{"northeast":{"lat":40.83619347989272,"lng":14.24255192989272},"southwest":{"lat":40.83349382010728,"lng":14.23985227010728}}},"icon":"https://maps.gstatic.com/mapfiles/place_api/icons/v1/png_71/restaurant-71.png","icon_background_color":"#FF9E67","icon_mask_base_uri":"https://maps.gstatic.com/mapfiles/place_api/icons/v2/restaurant_pinlet","name":"Umberto","opening_hours":{"open_now":true},"photos":[{"height":717,"html_attributions":["<a href=\"https://maps.google.com/maps/contrib/114247032184063224295\">Mike Hiwaymann</a>"],"photo_reference":"AeJbb3eNHcES_cfdfi-V6NswZpw4QMeTXTCyno_nHfDZcnqvLHzN7w4Lrnj3y44f52zwWt2KaIVw5B2GRoWxGq7k_8T0GT4pW4m4SEkzqZKqTdBNcd3DITVH2oLf9cwYp1eA1uuH9LDF8WO1KE-Z8YhKBdLqP-i-xYc08Dx1TKZCO4GtbJFF","width":1076}],"place_id":"ChIJJ_vyN1UIOxMRpytTlVUdi_4","plus_code":{"compound_code":"R6MR+WF Naples, Metropolitan City of Naples","global_code":"8FGPR6MR+WF"},"price_level":2,"rating":4.3,"reference":"ChIJJ_vyN1UIOxMRpytTlVUdi_4","types":["restaurant","food","point_of_interest","establishment"],"user_ratings_total":1179},{"business_status":"OPERATIONAL","formatted_address":"Via Partenope, 12, 80121 Napoli NA","geometry":{"location":{"lat":40.8306347,"lng":14.2445796},"viewport":{"northeast":{"lat":40.83197547989272,"lng":14.24591022989272},"southwest":{"lat":40.82927582010728,"lng":14.24321057010728}}},"icon":"https://maps.gstatic.com/mapfiles/place_api/icons/v1/png_71/restaurant-71.png","icon_background_color":"#FF9E67","icon_mask_base_uri":"https://maps.gstatic.com/mapfiles/place_api/icons/v2/restaurant_pinlet","name":"Molo17","opening_hours":{"open_now":true},"photos":[{"height":4656,"html_attributions":["<a href=\"https://maps.google.com/maps/contrib/112192952671741544042\">vincenzo cecchini</a>"],"photo_reference":"AeJbb3ejOgtQisKXG5-OVe-FRNaT04VQvKAUAJHjOoUg7nX9oNQFq8oTVy3daxx8SFpERtLgQ55M5PUMtNbLElSEBBGc7RjHKN21cC5mqcAXHwWKFm2npgWovvlR8_YCge4yeBNw3QuGNZPLLfzaIcs-6IsvunD__hlV0zrtBCtmkWNsErsP","width":3492}],"place_id":"ChIJt1K4VxkJOxMRl1ILF6vKSG8","plus_code":{"compound_code":"R6JV+7R Naples, Metropolitan City of Naples","global_code":"8FGPR6JV+7R"},"rating":4.3,"reference":"ChIJt1K4VxkJOxMRl1ILF6vKSG8","types":["restaurant","food","point_of_interest","establishment"],"user_ratings_total":502},{"business_status":"OPERATIONAL","formatted_address":"via spiaggia, 36, 80070 Bacoli NA","geometry":{"location":{"lat":40.8017526,"lng":14.0813005},"viewport":{"northeast":{"lat":40.80310182989272,"lng":14.08265927989272},"southwest":{"lat":40.80040217010727,"lng":14.07995962010728}}},"icon":"https://maps.gstatic.com/mapfiles/place_api/icons/v1/png_71/restaurant-71.png","icon_background_color":"#FF9E67","icon_mask_base_uri":"https://maps.gstatic.com/mapfiles/place_api/icons/v2/restaurant_pinlet","name":"Ristorante Garibaldi","opening_hours":{"open_now":true},"photos":[{"height":4032,"html_attributions":["<a href=\"https://maps.google.com/maps/contrib/110323897962501805669\">Domenico De Chiara</a>"],"photo_reference":"AeJbb3defNl9h7HqSXg3Xh_kG-nwSFpotk3yjlTyWgqkEeep1-dJygHJI4GHbTJzFmmIjQCGbPIofvZUXFCi4A4CSMRXEeUiuWTS7tWs9y_6TezO7OTNl_IjZhdpXC7E2DxfmuBT4KVSjb1taU2QvVUZ20kApwuCMtBlD1NxkuzRI_Eemkw","width":3024}],"place_id":"ChIJUeduRBcSOxMRd6oa0itDqUQ","plus_code":{"compound_code":"R32J+PG Bacoli, Metropolitan City of Naples","global_code":"8FGPR32J+PG"},"price_level":2,"rating":4.3,"reference":"ChIJUeduRBcSOxMRd6oa0itDqUQ","types":["restaurant","food","point_of_interest","establishment"],"user_ratings_total":427},{"business_status":"OPERATIONAL","formatted_address":"Vico II Alabardieri, 7, 80121 Napoli NA","geometry":{"location":{"lat":40.8351901,"lng":14.2413148},"viewport":{"northeast":{"lat":40.83653722989273,"lng":14.24267777989272},"southwest":{"lat":40.83383757010728,"lng":14.23997812010728}}},"icon":"https://maps.gstatic.com/mapfiles/place_api/icons/v1/png_71/restaurant-71.png","icon_background_color":"#FF9E67","icon_mask_base_uri":"https://maps.gstatic.com/mapfiles/place_api/icons/v2/restaurant_pinlet","name":"Muu Muuzzarella Lounge","opening_hours":{"open_now":true},"photos":[{"height":2336,"html_attributions":["<a href=\"https://maps.google.com/maps/contrib/103909946865120847401\">khalil ben said</a>"],"photo_reference":"AeJbb3eUWshljI-CrT0SpKhYT84u-7LvSHeAIla8nE28_RJo4bxmamLRF9PJXD26wkGSdRrzgxvCbWsk0ktY8hVrw8HVko2T_8M6VbND-ZX3v47FpFtGVawKsA9L1ydkLOydmMqYqqQE5uJcFfNH3707ZnlxhlOHoaCHuvghnTguYRBAyFFS","width":4160}],"place_id":"ChIJeTAPFlUIOxMRHEpzugIuZzQ","plus_code":{"compound_code":"R6PR+3G Naples, Metropolitan City of Naples","global_code":"8FGPR6PR+3G"},"price_level":2,"rating":4.3,"reference":"ChIJeTAPFlUIOxMRHEpzugIuZzQ","types":["restaurant","food","point_of_interest","establishment"],"user_ratings_total":418},{"business_status":"OPERATIONAL","formatted_address":"Via Santa Lucia, 115, 80132 Napoli NA","geometry":{"location":{"lat":40.8311517,"lng":14.2489737},"viewport":{"northeast":{"lat":40.83251547989272,"lng":14.25020422989272},"southwest":{"lat":40.82981582010728,"lng":14.24750457010728}}},"icon":"https://maps.gstatic.com/mapfiles/place_api/icons/v1/png_71/restaurant-71.png","icon_background_color":"#FF9E67","icon_mask_base_uri":"https://maps.gstatic.com/mapfiles/place_api/icons/v2/restaurant_pinlet","name":"Il Ristorantino dell'Avvocato","opening_hours":{"open_now":true},"photos":[{"height":3024,"html_attributions":["<a href=\"https://maps.google.com/maps/contrib/113487723488608578061\">Cristiano Amarelli</a>"],"photo_reference":"AeJbb3dFtMgvlwcUFCAP1KjGc5s58Xx8GbY-6fIIy5mgKxcUV0F3zlAl_9wcsEz0AdKlov2dzKo8IMNwhk3wyvd6YaiErmFl4P617NG3o1YZ7cMV2kN1NqZoZ7KpDNBfHJZFsCqEQ39yIoCA9idqP2MSxr7eNTpsNbd4ukJgKctGzhRrWenb","width":4032}],"place_id":"ChIJGcOzBa0JOxMR3r4wiLJsGHY","plus_code":{"compound_code":"R6JX+FH Naples, Metropolitan City of Naples","global_code":"8FGPR6JX+FH"},"price_level":2,"rating":4.3,"reference":"ChIJGcOzBa0JOxMR3r4wiLJsGHY","types":["restaurant","food","point_of_interest","establishment"],"user_ratings_total":395},{"business_status":"OPERATIONAL","formatted_address":"Via Belvedere, 113/115, 81031 Aversa CE","geometry":{"location":{"lat":40.9693845,"lng":14.2053132},"viewport":{"northeast":{"lat":40.97070087989272,"lng":14.20667097989272},"southwest":{"lat":40.96800122010728,"lng":14.20397132010728}}},"icon":"https://maps.gstatic.com/mapfiles/place_api/icons/v1/png_71/restaurant-71.png","icon_background_color":"#FF9E67","icon_mask_base_uri":"https://maps.gstatic.com/mapfiles/place_api/icons/v2/restaurant_pinlet","name":"Ristorante Enamor Risto Wine Aversa","opening_hours":{"open_now":false},"photos":[{"height":1349,"html_attributions":["<a href=\"https://maps.google.com/maps/contrib/116450918776938610579\">A Google User</a>"],"photo_reference":"AeJbb3cM1e5PGmqLaxXWfYbmlY3tls38U5FMxqJ7LsLztWcB6WBkPTgU9gEerS-GHbQkrkh5E5I2Y50zzbx3Nz2ECMXop7KGQIrH6FUZ6SuqY7SlW3xTeETZi5Z3YB2HCAA2L2vNTqYBTCXfJ-JqH4EwsFCUwowfge1etv0GddteemYhTL01","width":1080}],"place_id":"ChIJM8Ux20kBOxMRwkd9xriGS9M","plus_code":{"compound_code":"X694+Q4 Aversa, Province of Caserta","global_code":"8FGPX694+Q4"},"price_level":2,"rating":4.3,"reference":"ChIJM8Ux20kBOxMRwkd9xriGS9M","types":["restaurant","point_of_interest","food","establishment"],"user_ratings_total":325},{"business_status":"OPERATIONAL","formatted_address":"Corso Giuseppe Garibaldi, 235, 80055 Portici NA","geometry":{"location":{"lat":40.8202656,"lng":14.3244231},"viewport":{"northeast":{"lat":40.82143072989272,"lng":14.32612162989272},"southwest":{"lat":40.81873107010728,"lng":14.32342197010728}}},"icon":"https://maps.gstatic.com/mapfiles/place_api/icons/v1/png_71/restaurant-71.png","icon_background_color":"#FF9E67","icon_mask_base_uri":"https://maps.gstatic.com/mapfiles/place_api/icons/v2/restaurant_pinlet","name":"Ristorante Litho55","opening_hours":{"open_now":true},"photos":[{"height":4000,"html_attributions":["<a href=\"https://maps.google.com/maps/contrib/117539265891042321961\">nunzio costa</a>"],"photo_reference":"AeJbb3fCSAp8aNoqaTTjOR3Sc8VLQC9OEJwXXW8n83e0PePnvfTvjb4jCQSWRy28Fk-9I_I9z5_AV4-KqmTGZ0edDiYiHdtbwayTn0Lhd27ZYvycSCjuzGvrm0FjouL2e2vfTz8mKRy8EU0paN4rj9DyMBt5kXEwigGnkhBbgVJ6KB6FzHAb","width":3000}],"place_id":"ChIJKwt9G5OnOxMRTdREm2hEpP8","plus_code":{"compound_code":"R8CF+4Q Portici, Metropolitan City of Naples","global_code":"8FGPR8CF+4Q"},"rating":4.3,"reference":"ChIJKwt9G5OnOxMRTdREm2hEpP8","types":["restaurant","food","point_of_interest","establishment"],"user_ratings_total":125},{"business_status":"OPERATIONAL","formatted_address":"C.so Vittorio Emanuele, 328, 80135 Napoli NA","geometry":{"location":{"lat":40.843483,"lng":14.2445891},"viewport":{"northeast":{"lat":40.84480157989272,"lng":14.24599792989272},"southwest":{"lat":40.84210192010728,"lng":14.24329827010728}}},"icon":"https://maps.gstatic.com/mapfiles/place_api/icons/v1/png_71/restaurant-71.png","icon_background_color":"#FF9E67","icon_mask_base_uri":"https://maps.gstatic.com/mapfiles/place_api/icons/v2/restaurant_pinlet","name":"Ristorante La Terrazza dei Barbanti","opening_hours":{"open_now":false},"photos":[{"height":480,"html_attributions":["<a href=\"https://maps.google.com/maps/contrib/114249284819516720280\">Ristorante La Terrazza dei Barbanti</a>"],"photo_reference":"AeJbb3fAkQfQOTKg7aMisuaS87bUFeKrHgi_slgBIfWWBRO61YN6J5gPyhBQc_JPEq57Aiwzbh3JtaleSAvTxM2d4qYJ4ryfNyC6wPH5DuxPrcYKzKkGSA7CtT08Sg3A3Hl5sfIXobd-t8s_iKGP9X_bPBE3hPNhp2p_95h8SoahGQNfY22p","width":720}],"place_id":"ChIJU6y4WVcIOxMRMBmPOdbyYWE","plus_code":{"compound_code":"R6VV+9R Naples, Metropolitan City of Naples","global_code":"8FGPR6VV+9R"},"rating":4.3,"reference":"ChIJU6y4WVcIOxMRMBmPOdbyYWE","types":["restaurant","food","point_of_interest","establishment"],"user_ratings_total":64},{"business_status":"OPERATIONAL","formatted_address":"Vico Lungo del Gelso, 110/112, 80134 Napoli NA","geometry":{"location":{"lat":40.8427077,"lng":14.248219},"viewport":{"northeast":{"lat":40.84405977989272,"lng":14.24955232989272},"southwest":{"lat":40.84136012010728,"lng":14.24685267010728}}},"icon":"https://maps.gstatic.com/mapfiles/place_api/icons/v1/png_71/restaurant-71.png","icon_background_color":"#FF9E67","icon_mask_base_uri":"https://maps.gstatic.com/mapfiles/place_api/icons/v2/restaurant_pinlet","name":"Trattoria A Pignata","opening_hours":{"open_now":false},"photos":[{"height":4160,"html_attributions":["<a href=\"https://maps.google.com/maps/contrib/100748113252037554561\">gigi la calma</a>"],"photo_reference":"AeJbb3dKuLeZNZLtD-mxEUidAcjncnlu6bItoxCmmLeg0Ja7E-Yvhx348MhBJ38gAEwMdr1APuF0ycEjaP6AgNdf3FDkg9arIsRVgJiDFmHeVa74P0ILOpC5AeSwxHeee8JeBX24wgC2su7V43UgyLX7lMFXzDC888FRea5ilDOvWtUubBup","width":3120}],"place_id":"ChIJ0V_8h1AIOxMR-uHNi09_RSI","plus_code":{"compound_code":"R6VX+36 Naples, Metropolitan City of Naples","global_code":"8FGPR6VX+36"},"price_level":1,"rating":4.2,"reference":"ChIJ0V_8h1AIOxMR-uHNi09_RSI","types":["restaurant","food","point_of_interest","establishment"],"user_ratings_total":1909},{"business_status":"OPERATIONAL","formatted_address":"Via Santa Maria di Costantinopoli, 43, 80138 Napoli NA","geometry":{"location":{"lat":40.8509062,"lng":14.2519059},"viewport":{"northeast":{"lat":40.85225202989272,"lng":14.25320472989272},"southwest":{"lat":40.84955237010728,"lng":14.25050507010728}}},"icon":"https://maps.gstatic.com/mapfiles/place_api/icons/v1/png_71/restaurant-71.png","icon_background_color":"#FF9E67","icon_mask_base_uri":"https://maps.gstatic.com/mapfiles/place_api/icons/v2/restaurant_pinlet","name":"NAM43","opening_hours":{"open_now":true},"photos":[{"height":1151,"html_attributions":["<a href=\"https://maps.google.com/maps/contrib/117055673954296307621\">A Google User</a>"],"photo_reference":"AeJbb3fIm8H1f-SFXsIPxRPQjYnqlsjhNBf9x4_vIn05bZP69Hv7tnYppItr6pkXzFbUcAddeoGaxLUMl-6idJF8EZDRyhfOxutfHRN0_1IWPmXAooXPXbZq9bE5f_LaxPHuscpccP0wo0Q1NZZGIe7swdG3MkiwyaWcCIr19sEi9FNuta5D","width":1229}],"place_id":"ChIJ4aTyz0IIOxMRTC2weJBWNFM","plus_code":{"compound_code":"V722+9Q Naples, Metropolitan City of Naples","global_code":"8FGPV722+9Q"},"price_level":2,"rating":4.2,"reference":"ChIJ4aTyz0IIOxMRTC2weJBWNFM","types":["restaurant","point_of_interest","food","establishment"],"user_ratings_total":685},{"business_status":"OPERATIONAL","formatted_address":"Vicolo Santa Maria Cappella Vecchia, 5, 80121 Napoli NA","geometry":{"location":{"lat":40.8338707,"lng":14.2432555},"viewport":{"northeast":{"lat":40.83525367989272,"lng":14.24457742989272},"southwest":{"lat":40.83255402010727,"lng":14.24187777010728}}},"icon":"https://maps.gstatic.com/mapfiles/place_api/icons/v1/png_71/restaurant-71.png","icon_background_color":"#FF9E67","icon_mask_base_uri":"https://maps.gstatic.com/mapfiles/place_api/icons/v2/restaurant_pinlet","name":"Coco Loco","opening_hours":{"open_now":false},"photos":[{"height":3024,"html_attributions":["<a href=\"https://maps.google.com/maps/contrib/104422358184140882029\">adrienne monaco</a>"],"photo_reference":"AeJbb3c5qmsXRNo16dQ7v8ZfIWIZT01SrTBFDX65sAerBb2DvaIaWAytsZie6GxcB7QQ9fV2fgvVxJdP8uvQf9Nlp4HFaWEmoQu5T8b6vGMJpOfyzU3_d8APAi1_ExZUJsnoXa_bPfgtw9RSYcUC3x6jqyivKUR5P3g1B-eQHmvymmnzu3Oo","width":4032}],"place_id":"ChIJe9nuylQIOxMRwPQOWI3KxMM","plus_code":{"compound_code":"R6MV+G8 Naples, Metropolitan City of Naples","global_code":"8FGPR6MV+G8"},"rating":4.2,"reference":"ChIJe9nuylQIOxMRwPQOWI3KxMM","types":["restaurant","bar","food","point_of_interest","establishment"],"user_ratings_total":323},{"business_status":"OPERATIONAL","formatted_address":"Piazza Bellini, 62, 80138 Napoli NA","geometry":{"location":{"lat":40.8502044,"lng":14.2523256},"viewport":{"northeast":{"lat":40.85157047989272,"lng":14.25346817989272},"southwest":{"lat":40.84887082010728,"lng":14.25076852010728}}},"icon":"https://maps.gstatic.com/mapfiles/place_api/icons/v1/png_71/restaurant-71.png","icon_background_color":"#FF9E67","icon_mask_base_uri":"https://maps.gstatic.com/mapfiles/place_api/icons/v2/restaurant_pinlet","name":"'A casa r'a' Signora","opening_hours":{"open_now":true},"photos":[{"height":2048,"html_attributions":["<a href=\"https://maps.google.com/maps/contrib/112079670484181791715\">A Google User</a>"],"photo_reference":"AeJbb3dUJgSGiw-P0lffgwoJ8ejjWFBYd0dhgJn1ISlHzcRkNAOO9sQqX91mr81V9zNgTF0JoFhAx4Yy4LuNzzTFLCH_vFGz5EM59j7Ntr10lxfN5gZmjZTRLVx8TrAilgOpcFWB4eECqS1eXcVe9RBYJYIJyuvjze9qhRWi4o76VbZhuvfy","width":1536}],"place_id":"ChIJE6EoS0IIOxMRMPqSb9El9_k","plus_code":{"compound_code":"V722+3W Naples, Metropolitan City of Naples","global_code":"8FGPV722+3W"},"price_level":2,"rating":4.2,"reference":"ChIJE6EoS0IIOxMRMPqSb9El9_k","types":["restaurant","point_of_interest","food","establishment"],"user_ratings_total":169},{"business_status":"OPERATIONAL","formatted_address":"Via Nazionale delle Puglie, 362/364, 80013 Casalnuovo di Napoli NA","geometry":{"location":{"lat":40.9021225,"lng":14.3568872},"viewport":{"northeast":{"lat":40.90360247989272,"lng":14.35821662989272},"southwest":{"lat":40.90090282010728,"lng":14.35551697010728}}},"icon":"https://maps.gstatic.com/mapfiles/place_api/icons/v1/png_71/restaurant-71.png","icon_background_color":"#FF9E67","icon_mask_base_uri":"https://maps.gstatic.com/mapfiles/place_api/icons/v2/restaurant_pinlet","name":"Addù Mammà Trattoria Gourmet","opening_hours":{"open_now":true},"photos":[{"height":2126,"html_attributions":["<a href=\"https://maps.google.com/maps/contrib/100710835216132279015\">Sal Balsamo</a>"],"photo_reference":"AeJbb3duwtUtnS82Z3qmukoHfjszzMUirlzoklgLpjGdxkIEfztI0FUqYNXwDeaGqFo340U1hyUwMCJGGoLYPoPfNUJNDvFphoJFk4__7LhQZxJywANcRDcaBqZhnaLIk2QaDfYjdCMLYNmTPbZZPOoO00V8JlhbWWrGCzJbVq3j-3JqKBie","width":4608}],"place_id":"ChIJQ9jLX7OpOxMRMGOq4ACQDXI","plus_code":{"compound_code":"W924+RQ Casalnuovo di Napoli, Metropolitan City of Naples","global_code":"8FGPW924+RQ"},"rating":4.2,"reference":"ChIJQ9jLX7OpOxMRMGOq4ACQDXI","types":["restaurant","point_of_interest","food","establishment"],"user_ratings_total":141},{"business_status":"OPERATIONAL","formatted_address":"Via Cuma Angolo, Via Nazario Sauro, 42, 80132 Napoli NA","geometry":{"location":{"lat":40.8321952,"lng":14.2511816},"viewport":{"northeast":{"lat":40.83353102989272,"lng":14.25257507989272},"southwest":{"lat":40.83083137010728,"lng":14.24987542010728}}},"icon":"https://maps.gstatic.com/mapfiles/place_api/icons/v1/png_71/restaurant-71.png","icon_background_color":"#FF9E67","icon_mask_base_uri":"https://maps.gstatic.com/mapfiles/place_api/icons/v2/restaurant_pinlet","name":"La Cantinella | Ristoranti Via Nazario Sauro angolo via cuma n.42","opening_hours":{"open_now":true},"photos":[{"height":3840,"html_attributions":["<a href=\"https://maps.google.com/maps/contrib/104127527949805783262\">Angelo Tortorella</a>"],"photo_reference":"AeJbb3fc67Zk1dTzeDWptd1MxKISrdsG06oeZ4bDJCtUyuwcizBGxjOin5mJ64NKhjCeF6SEeprhefMp-sfn3N52-c44LC8nxljDWx5V4rmCDwTWj7FZj-yyK-V9YnRIIno8qjKN3YaTcU5Pqd1ZjZPoflOWRciA9CsYrPwjpFGTsNwTJPiw","width":5760}],"place_id":"ChIJjRrgT60JOxMRSxPR84NBGhw","plus_code":{"compound_code":"R7J2+VF Naples, Metropolitan City of Naples","global_code":"8FGPR7J2+VF"},"price_level":3,"rating":4.1,"reference":"ChIJjRrgT60JOxMRSxPR84NBGhw","types":["restaurant","food","point_of_interest","establishment"],"user_ratings_total":616},{"business_status":"OPERATIONAL","formatted_address":"Via Alabardieri, 8/11, 80121 Napoli NA","geometry":{"location":{"lat":40.8347786,"lng":14.2410788},"viewport":{"northeast":{"lat":40.83614237989273,"lng":14.24246807989272},"southwest":{"lat":40.83344272010728,"lng":14.23976842010728}}},"icon":"https://maps.gstatic.com/mapfiles/place_api/icons/v1/png_71/restaurant-71.png","icon_background_color":"#FF9E67","icon_mask_base_uri":"https://maps.gstatic.com/mapfiles/place_api/icons/v2/restaurant_pinlet","name":"Gourmeet","opening_hours":{"open_now":true},"photos":[{"height":3840,"html_attributions":["<a href=\"https://maps.google.com/maps/contrib/105196547476298206830\">Gourmeet</a>"],"photo_reference":"AeJbb3eJH-vKqF1Z7Ma3D2BkwftWDZkZsHrrEzFphXFj3ShhGoiP9tUCmNGB8supdXiF3Gkzzy3uQGmpVZEmNn6YAsAshh-uzJ68pVShDzLp6oewi0aObqQI7_MdlIJPZfGIX39ETlBf_wOTj8tVycN2SVuX5B-sw6v8dYQJViA4UoGgw7_k","width":5760}],"place_id":"ChIJcy0XN1UIOxMRm6YJRgEaD4w","plus_code":{"compound_code":"R6MR+WC Naples, Metropolitan City of Naples","global_code":"8FGPR6MR+WC"},"price_level":2,"rating":4.1,"reference":"ChIJcy0XN1UIOxMRm6YJRgEaD4w","types":["restaurant","grocery_or_supermarket","bakery","bar","food","point_of_interest","store","establishment"],"user_ratings_total":172},{"business_status":"OPERATIONAL","formatted_address":"Piazza Monteoliveto, 2/A, 80134 Napoli NA","geometry":{"location":{"lat":40.8451297,"lng":14.2503381},"viewport":{"northeast":{"lat":40.84651477989271,"lng":14.25182757989272},"southwest":{"lat":40.84381512010727,"lng":14.24912792010728}}},"icon":"https://maps.gstatic.com/mapfiles/place_api/icons/v1/png_71/restaurant-71.png","icon_background_color":"#FF9E67","icon_mask_base_uri":"https://maps.gstatic.com/mapfiles/place_api/icons/v2/restaurant_pinlet","name":"Osteria Il Garum","opening_hours":{"open_now":false},"photos":[{"height":4032,"html_attributions":["<a href=\"https://maps.google.com/maps/contrib/106347292838909742263\">Sara Borgioli</a>"],"photo_reference":"AeJbb3dCOXSqkgTJPj2ZgbjLy3czkKx8lP0uahfiQlU0qcM8dkuEh4urcKr_2XoW6Jdyjy2xnIKioWtjp1whqt5zkhvQRQlE-ciGAbvuj39HdhIVRc9QWQYGjgcrWOSdLTO5-ZddBCh3g7lc2WYWvdpZairNETmV_5ThcPXNqXgvhvlB1wZn","width":3024}],"place_id":"ChIJmbOw21oIOxMRkBiy4FEitFo","plus_code":{"compound_code":"R7W2+34 Naples, Metropolitan City of Naples","global_code":"8FGPR7W2+34"},"price_level":2,"rating":4,"reference":"ChIJmbOw21oIOxMRkBiy4FEitFo","types":["restaurant","point_of_interest","food","establishment"],"user_ratings_total":391},{"business_status":"OPERATIONAL","formatted_address":"Corso Meridionale, 15, 80143 Napoli NA","geometry":{"location":{"lat":40.8545226,"lng":14.2729179},"viewport":{"northeast":{"lat":40.85582372989272,"lng":14.27429157989272},"southwest":{"lat":40.85312407010728,"lng":14.27159192010728}}},"icon":"https://maps.gstatic.com/mapfiles/place_api/icons/v1/png_71/restaurant-71.png","icon_background_color":"#FF9E67","icon_mask_base_uri":"https://maps.gstatic.com/mapfiles/place_api/icons/v2/restaurant_pinlet","name":"La Falena","opening_hours":{"open_now":false},"photos":[{"height":798,"html_attributions":["<a href=\"https://maps.google.com/maps/contrib/103434080977337623753\">A Google User</a>"],"photo_reference":"AeJbb3eX84NuV106xZCkR36eNy8Wk5mZ910xllXlGOIKuCOaw9KLd5lJN_lHgNbe24pmm_SFtnU0Rk1jEi-MPk92a_fj2MG7O-JwTgqn7xpSVHVbJpIn-_AOyATkA4fN7TbaGWAi3QLA936GnotPBWazacFVZLCbmiIDvVezAv7bWeXYhQ_q","width":1200}],"place_id":"ChIJP7UuJBcIOxMRJLXV60yJBLU","plus_code":{"compound_code":"V73F+R5 Naples, Metropolitan City of Naples","global_code":"8FGPV73F+R5"},"rating":4,"reference":"ChIJP7UuJBcIOxMRJLXV60yJBLU","types":["restaurant","food","point_of_interest","establishment"],"user_ratings_total":7},{"business_status":"OPERATIONAL","formatted_address":"NLG S.r.l, Via Guglielmo Melisurgo, 4, 80133 Napoli NA","geometry":{"location":{"lat":40.840201,"lng":14.2552117},"viewport":{"northeast":{"lat":40.84157982989272,"lng":14.25656172989272},"southwest":{"lat":40.83888017010728,"lng":14.25386207010728}}},"icon":"https://maps.gstatic.com/mapfiles/place_api/icons/v1/png_71/restaurant-71.png","icon_background_color":"#FF9E67","icon_mask_base_uri":"https://maps.gstatic.com/mapfiles/place_api/icons/v2/restaurant_pinlet","name":"Castel Nuevo","place_id":"ChIJWYbAIoYJOxMRk1p3OR9YVPQ","plus_code":{"compound_code":"R7R4+33 Naples, Metropolitan City of Naples","global_code":"8FGPR7R4+33"},"rating":0,"reference":"ChIJWYbAIoYJOxMRk1p3OR9YVPQ","types":["restaurant","food","point_of_interest","establishment"],"user_ratings_total":0}]