[{"business_status":"OPERATIONAL","formatted_address":"Av. Fátima, 19, 29009 Málaga","geometry":{"location":{"lat":36.7253892,"lng":-4.4266282},"viewport":{"northeast":{"lat":36.72672157989272,"lng":-4.425234670107278},"southwest":{"lat":36.72402192010728,"lng":-4.427934329892722}}},"icon":"https://maps.gstatic.com/mapfiles/place_api/icons/v1/png_71/restaurant-71.png","icon_background_color":"#FF9E67","icon_mask_base_uri":"https://maps.gstatic.com/mapfiles/place_api/icons/v2/restaurant_pinlet","name":"Sala","opening_hours":{"open_now":false},"photos":[{"height":4000,"html_attributions":["<a href=\"https://maps.google.com/maps/contrib/117930142387460588661\">A Google User</a>"],"photo_reference":"AeJbb3e4Qo7V9wg_DJPLCNAQNTP3iCD7BK9bfpiM2YPui20mZnlDPqCXPtRRkQtYOc02lR-lfLCrx3wpM4Zwu3ZHejV7qju7qYLCFqVs6saGklaLclkfuPFMrXkVD_Udd4Saga8mkJMsXAzq7odZO0h5fOx9X7Tngf9UZ6sUmhaFxADOdo4k","width":6000}],"place_id":"ChIJ8XJKkwH3cg0REa5MChQ6mjg","plus_code":{"compound_code":"PHGF+58 Málaga","global_code":"8C8QPHGF+58"},"rating":5,"reference":"ChIJ8XJKkwH3cg0REa5MChQ6mjg","types":["restaurant","food","point_of_interest","establishment"],"user_ratings_total":78},{"business_status":"OPERATIONAL","formatted_address":"29013, C. Cristo de la Epidemia, 12, 29013 Málaga","geometry":{"location":{"lat":36.7276744,"lng":-4.4142449},"viewport":{"northeast":{"lat":36.72902307989272,"lng":-4.412903870107278},"southwest":{"lat":36.72632342010728,"lng":-4.415603529892722}}},"icon":"https://maps.gstatic.com/mapfiles/place_api/icons/v1/png_71/restaurant-71.png","icon_background_color":"#FF9E67","icon_mask_base_uri":"https://maps.gstatic.com/mapfiles/place_api/icons/v2/restaurant_pinlet","name":"Aloe Vegan Store","place_id":"ChIJC25otsb3cg0RwLICDzShDS8","plus_code":{"compound_code":"PHHP+38 Málaga","global_code":"8C8QPHHP+38"},"rating":5,"reference":"ChIJC25otsb3cg0RwLICDzShDS8","types":["restaurant","food","point_of_interest","establishment"],"user_ratings_total":1},{"business_status":"OPERATIONAL","formatted_address":"C. Sta. Lucía, 11, 29008 Málaga","geometry":{"location":{"lat":36.7220581,"lng":-4.421928299999999},"viewport":{"northeast":{"lat":36.72355537989272,"lng":-4.420712570107278},"southwest":{"lat":36.72085572010728,"lng":-4.423412229892722}}},"icon":"https://maps.gstatic.com/mapfiles/place_api/icons/v1/png_71/restaurant-71.png","icon_background_color":"#FF9E67","icon_mask_base_uri":"https://maps.gstatic.com/mapfiles/place_api/icons/v2/restaurant_pinlet","name":"Açaí Natura","opening_hours":{"open_now":true},"photos":[{"height":1323,"html_attributions":["<a href=\"https://maps.google.com/maps/contrib/112257675962494793906\">A Google User</a>"],"photo_reference":"AeJbb3eLXqyYiCi5VjOSl2miQz1a-q3sk4enITXX5X7q_aHLsCxihs9pGqqz4Gm9p_ZWCD3z4SZLMPapmMDDm3fYRCe29-3Cn96L_GJtEZg2EJT20IpgsWSZYZmwS4KxEYokq2XgOlSiCp3NNCjNlMqhcbex2MhXv29ibH0QxpicQG-BN3ht","width":1228}],"place_id":"ChIJyQ0Oqrf3cg0RMCNb-fab5zM","plus_code":{"compound_code":"PHCH+R6 Málaga","global_code":"8C8QPHCH+R6"},"rating":4.9,"reference":"ChIJyQ0Oqrf3cg0RMCNb-fab5zM","types":["restaurant","food","point_of_interest","store","establishment"],"user_ratings_total":239},{"business_status":"OPERATIONAL","formatted_address":"C. Mármoles, 39, 29007 Málaga","geometry":{"location":{"lat":36.7214551,"lng":-4.4302829},"viewport":{"northeast":{"lat":36.72283392989272,"lng":-4.428934870107278},"southwest":{"lat":36.72013427010728,"lng":-4.431634529892722}}},"icon":"https://maps.gstatic.com/mapfiles/place_api/icons/v1/png_71/restaurant-71.png","icon_background_color":"#FF9E67","icon_mask_base_uri":"https://maps.gstatic.com/mapfiles/place_api/icons/v2/restaurant_pinlet","name":"Kinoa","opening_hours":{"open_now":false},"photos":[{"height":659,"html_attributions":["<a href=\"https://maps.google.com/maps/contrib/105918872014102051943\">A Google User</a>"],"photo_reference":"AeJbb3cGJAhaeWFIxGqxEfmVZPfF4CRFKmB-boSLVQmceepxwuRWEK3bSd2z8cfCdk0V70otvW0n1KkJ2Iz_XO_7Ug1l67ZQL57PPGklrFNc0rt6fLcwgV-6FSFepHs85uGzwlA7g7k-d25HohEunSbblT1VM-sZS2yc9Xix6DkRjiaecsuZ","width":1170}],"place_id":"ChIJFaXnf5L3cg0RbQRf08TkPDw","plus_code":{"compound_code":"PHC9+HV Málaga","global_code":"8C8QPHC9+HV"},"rating":4.9,"reference":"ChIJFaXnf5L3cg0RbQRf08TkPDw","types":["restaurant","food","point_of_interest","establishment"],"user_ratings_total":169},{"business_status":"OPERATIONAL","formatted_address":"C. Fajardo, 4, 29005 Málaga","geometry":{"location":{"lat":36.7209729,"lng":-4.4242678},"viewport":{"northeast":{"lat":36.72219867989272,"lng":-4.422882070107278},"southwest":{"lat":36.71949902010728,"lng":-4.425581729892722}}},"icon":"https://maps.gstatic.com/mapfiles/place_api/icons/v1/png_71/restaurant-71.png","icon_background_color":"#FF9E67","icon_mask_base_uri":"https://maps.gstatic.com/mapfiles/place_api/icons/v2/restaurant_pinlet","name":"REVIV","opening_hours":{"open_now":false},"photos":[{"height":4032,"html_attributions":["<a href=\"https://maps.google.com/maps/contrib/114874567989033784920\">dida petrova</a>"],"photo_reference":"AeJbb3d-pxwN7ka1hJ-cek8wgyRbM8pPd_jnhUZODp6BuK8fSAQRyZDz4Q4K7GH8DxQBOfXvqc8c-q3PlcgA-EknKZ4ciGmKNrSIBTrDmnaTI-aJmQeupBs9qJxdONzjMwYoITU8UA92L5odR9C4MBsYW05SCCFJKhVOtSVmYTI-Gh2rzJm-","width":3024}],"place_id":"ChIJTw7ue1r3cg0R3uoGlwHTmIM","plus_code":{"compound_code":"PHCG+97 Málaga","global_code":"8C8QPHCG+97"},"rating":4.9,"reference":"ChIJTw7ue1r3cg0R3uoGlwHTmIM","types":["bakery","cafe","restaurant","food","point_of_interest","store","establishment"],"user_ratings_total":165},{"business_status":"OPERATIONAL","formatted_address":"C. Trafalgar, 8, 29003 Málaga","geometry":{"location":{"lat":36.697236,"lng":-4.443544999999999},"viewport":{"northeast":{"lat":36.69856842989272,"lng":-4.442203670107278},"southwest":{"lat":36.69586877010727,"lng":-4.444903329892722}}},"icon":"https://maps.gstatic.com/mapfiles/place_api/icons/v1/png_71/restaurant-71.png","icon_background_color":"#FF9E67","icon_mask_base_uri":"https://maps.gstatic.com/mapfiles/place_api/icons/v2/restaurant_pinlet","name":"Estación Quimera (Cocina 100% Vegetal)","opening_hours":{"open_now":false},"photos":[{"height":2035,"html_attributions":["<a href=\"https://maps.google.com/maps/contrib/100585997872200460422\">A Google User</a>"],"photo_reference":"AeJbb3cNw0J-Hi6ZcQLDfIlQWWzh3VGtoxxW6jGhChOIRPYfWB53HuBQGK6HQJhjbY0npSB6DRLmb_fiegjqj5FeIeIneYbrB-4Qm-U9siCJDdg6zZ5OB75h6MBiLEELIp-6dWNjD8sa1fpikrdgFqVNkRnFrjCLDvJ7WJbE0P1wLvk_ELgZ","width":3616}],"place_id":"ChIJ-Qqh0NX5cg0RwZTevckkYCo","plus_code":{"compound_code":"MHW4+VH Málaga","global_code":"8C8QMHW4+VH"},"rating":4.9,"reference":"ChIJ-Qqh0NX5cg0RwZTevckkYCo","types":["meal_takeaway","restaurant","food","point_of_interest","establishment"],"user_ratings_total":69},{"business_status":"OPERATIONAL","formatted_address":"C. San Miguel, 1, Local, 29639 Benalmádena, Málaga","geometry":{"location":{"lat":36.5939413,"lng":-4.573445},"viewport":{"northeast":{"lat":36.59528567989272,"lng":-4.572006420107278},"southwest":{"lat":36.59258602010728,"lng":-4.574706079892722}}},"icon":"https://maps.gstatic.com/mapfiles/place_api/icons/v1/png_71/restaurant-71.png","icon_background_color":"#FF9E67","icon_mask_base_uri":"https://maps.gstatic.com/mapfiles/place_api/icons/v2/restaurant_pinlet","name":"Querida Nieta","opening_hours":{"open_now":false},"photos":[{"height":809,"html_attributions":["<a href=\"https://maps.google.com/maps/contrib/100130260046947682731\">A Google User</a>"],"photo_reference":"AeJbb3d7-rkJPQ1Op2XbmbNxNvj9FltXb3XXTQlAoIy6JnZShGb26H5K36M8pa9lerPpzw2CJ4zqzHPKXGb0Z2DD9jRgyxBlx3PTP8C5dBQvRKaNpQhXlaJ7mOGX9y-qbAoRNueOd1Jqu331obSWLTIwhZjix4O228_MfY_2y83Y57jkbf99","width":1440}],"place_id":"ChIJcSot_1Djcg0RNGqgyDDCYzg","plus_code":{"compound_code":"HCVG+HJ Benalmádena","global_code":"8C8QHCVG+HJ"},"rating":4.9,"reference":"ChIJcSot_1Djcg0RNGqgyDDCYzg","types":["restaurant","food","point_of_interest","establishment"],"user_ratings_total":61},{"business_status":"OPERATIONAL","formatted_address":"C. Ancha del Carmen, 30, 29002 Málaga","geometry":{"location":{"lat":36.714422,"lng":-4.4286355},"viewport":{"northeast":{"lat":36.71578007989272,"lng":-4.427314770107277},"southwest":{"lat":36.71308042010727,"lng":-4.430014429892721}}},"icon":"https://maps.gstatic.com/mapfiles/place_api/icons/v1/png_71/restaurant-71.png","icon_background_color":"#FF9E67","icon_mask_base_uri":"https://maps.gstatic.com/mapfiles/place_api/icons/v2/restaurant_pinlet","name":"Restaurante Italiano Da Saveria","opening_hours":{"open_now":false},"photos":[{"height":751,"html_attributions":["<a href=\"https://maps.google.com/maps/contrib/111381631911195181092\">A Google User</a>"],"photo_reference":"AeJbb3dBEc60UIE27AFuffIJSo4_X1PMwN48wYNFVoH2YXKduIZz9DOhSdSBN02mpW6wp5eQLx2n221ev5YDAgvhX3m2Bc0WI4DEqAuElgPVDaY0Fy3hh8UUlEXrqE-tCVDvZZn0wTkQ7Mu_iau-1smNDZwADr7OAVIhKtGWXZEmEXe31epY","width":1333}],"place_id":"ChIJZVGxdZr3cg0RiANeE6ti80Q","plus_code":{"compound_code":"PH7C+QG Málaga","global_code":"8C8QPH7C+QG"},"price_level":1,"rating":4.8,"reference":"ChIJZVGxdZr3cg0RiANeE6ti80Q","types":["restaurant","food","point_of_interest","establishment"],"user_ratings_total":2015},{"business_status":"OPERATIONAL","formatted_address":"C. Vendeja, 29, 29001 Málaga","geometry":{"location":{"lat":36.7160372,"lng":-4.4244844},"viewport":{"northeast":{"lat":36.71740632989273,"lng":-4.423131320107278},"southwest":{"lat":36.71470667010728,"lng":-4.425830979892722}}},"icon":"https://maps.gstatic.com/mapfiles/place_api/icons/v1/png_71/restaurant-71.png","icon_background_color":"#FF9E67","icon_mask_base_uri":"https://maps.gstatic.com/mapfiles/place_api/icons/v2/restaurant_pinlet","name":"MIMO Vegan Bistro","opening_hours":{"open_now":false},"photos":[{"height":3024,"html_attributions":["<a href=\"https://maps.google.com/maps/contrib/116175806262398321393\">Michael Stokeley</a>"],"photo_reference":"AeJbb3eP8wpUGFVsSvhMQQVOfwCZhb-osnRJr4Z9vvh0VAlxqh7b7uoV7Mz6C4Gyqn5PN4FJql1v3xEPt0qu4CI5u5iYFs2gZXqoU1HaGxSOQAA14M3J_VwFCBY5dVZrFWOYVHxd5-YdXYOwpRjeshW2H0xFdu99gfTdbGFOkkrlvgmRmV0_","width":4032}],"place_id":"ChIJnzsJ-Lb3cg0RQt63IOk-G2o","plus_code":{"compound_code":"PH8G+C6 Málaga","global_code":"8C8QPH8G+C6"},"price_level":2,"rating":4.8,"reference":"ChIJnzsJ-Lb3cg0RQt63IOk-G2o","types":["restaurant","food","point_of_interest","establishment"],"user_ratings_total":749},{"business_status":"OPERATIONAL","formatted_address":"Av. Federico García Lorca, 37, 29631 Benalmádena, Málaga","geometry":{"location":{"lat":36.5991962,"lng":-4.5318469},"viewport":{"northeast":{"lat":36.60062092989272,"lng":-4.530374420107279},"southwest":{"lat":36.59792127010728,"lng":-4.533074079892723}}},"icon":"https://maps.gstatic.com/mapfiles/place_api/icons/v1/png_71/restaurant-71.png","icon_background_color":"#FF9E67","icon_mask_base_uri":"https://maps.gstatic.com/mapfiles/place_api/icons/v2/restaurant_pinlet","name":"King of Curries Indian Restaurant Benalmádena","opening_hours":{"open_now":true},"photos":[{"height":3024,"html_attributions":["<a href=\"https://maps.google.com/maps/contrib/112981910208063357529\">A Google User</a>"],"photo_reference":"AeJbb3e3Oza6USCArDMTP0DTW_x2fpS0XcmFXPOf-4zyl0QxNLf1GBd0Iz2S51AkaCZvyevfv9nLkWZdBu5LCkecY2MHxFl3U3QF2uVDs3aVBiZCgbIm-dOw-PYr2ivfofOsLRG_GKtnJ9rNrzspa6CNlp3vrtPhnOqx7FjlGzeL-eKaOPde","width":4032}],"place_id":"ChIJw2FHDzv9cg0RNNJc7Kde76w","plus_code":{"compound_code":"HFX9+M7 Benalmádena","global_code":"8C8QHFX9+M7"},"rating":4.8,"reference":"ChIJw2FHDzv9cg0RNNJc7Kde76w","types":["restaurant","food","point_of_interest","establishment"],"user_ratings_total":555},{"business_status":"OPERATIONAL","formatted_address":"Av. las Palmeras, 22, Local 8, 29630 Benalmádena, Málaga","geometry":{"location":{"lat":36.5891221,"lng":-4.5322615},"viewport":{"northeast":{"lat":36.59043692989273,"lng":-4.530951770107277},"southwest":{"lat":36.58773727010728,"lng":-4.533651429892721}}},"icon":"https://maps.gstatic.com/mapfiles/place_api/icons/v1/png_71/restaurant-71.png","icon_background_color":"#FF9E67","icon_mask_base_uri":"https://maps.gstatic.com/mapfiles/place_api/icons/v2/restaurant_pinlet","name":"Pirañaconda Restaurante","opening_hours":{"open_now":false},"photos":[{"height":3000,"html_attributions":["<a href=\"https://maps.google.com/maps/contrib/111032094314608527621\">max grifhorst</a>"],"photo_reference":"AeJbb3fRSLyRV8XFTAqrOf__Sccl6c53po_wlPvw2HTslkBUJRv24Ex3QJHl3rWr9fuT5GecGUAKLVtSvtqJ-yPOR6eWtwh-KmirbARqgTn5hWTC576PPqO_PZZsgoWTLYHd4LyXzmPOAbTlDSfBHHqVjo2yPYAS9VFNtRM_phZc0LWiWNw6","width":4000}],"place_id":"ChIJibMg7MX9cg0RD2-YSd4LQLc","plus_code":{"compound_code":"HFQ9+M4 Benalmádena","global_code":"8C8QHFQ9+M4"},"rating":4.8,"reference":"ChIJibMg7MX9cg0RD2-YSd4LQLc","types":["restaurant","food","point_of_interest","establishment"],"user_ratings_total":214},{"business_status":"OPERATIONAL","formatted_address":"C. Mariblanca, 4, 29012 Málaga","geometry":{"location":{"lat":36.724458,"lng":-4.420233899999999},"viewport":{"northeast":{"lat":36.72582117989272,"lng":-4.418898770107278},"southwest":{"lat":36.72312152010728,"lng":-4.421598429892722}}},"icon":"https://maps.gstatic.com/mapfiles/place_api/icons/v1/png_71/restaurant-71.png","icon_background_color":"#FF9E67","icon_mask_base_uri":"https://maps.gstatic.com/mapfiles/place_api/icons/v2/restaurant_pinlet","name":"Fonzo - Cosy Eatery -","opening_hours":{"open_now":false},"photos":[{"height":809,"html_attributions":["<a href=\"https://maps.google.com/maps/contrib/117655577402940939028\">A Google User</a>"],"photo_reference":"AeJbb3e5PqLWNPzVV8DApw5U7Yl_eyj9k3hD2ZbCp7UjXd2wRE0bIelnFsro7Vr2XTAAfEEzlghBwzdfpDdsnZ95zFD4vZaZiyu1555lp-OiKi6j9_uY3z4QfpsbDIKWxGSa-q1aYMSY7pCBh6ysypIqIMSKlNmbOc6QD3BOJrxRwlIs3uHy","width":1440}],"place_id":"ChIJd_8ghKP3cg0R5x5rXGr9tJE","plus_code":{"compound_code":"PHFH+QW Málaga","global_code":"8C8QPHFH+QW"},"price_level":1,"rating":4.8,"reference":"ChIJd_8ghKP3cg0R5x5rXGr9tJE","types":["restaurant","food","point_of_interest","establishment"],"user_ratings_total":187},{"business_status":"OPERATIONAL","formatted_address":"C. Marín García, 6, 29005 Málaga","geometry":{"location":{"lat":36.7192499,"lng":-4.4225596},"viewport":{"northeast":{"lat":36.72058192989272,"lng":-4.42181735},"southwest":{"lat":36.71788227010728,"lng":-4.424685150000002}}},"icon":"https://maps.gstatic.com/mapfiles/place_api/icons/v1/png_71/restaurant-71.png","icon_background_color":"#FF9E67","icon_mask_base_uri":"https://maps.gstatic.com/mapfiles/place_api/icons/v2/restaurant_pinlet","name":"Meet Vegano","opening_hours":{"open_now":false},"photos":[{"height":4032,"html_attributions":["<a href=\"https://maps.google.com/maps/contrib/116466896077573141609\">A Google User</a>"],"photo_reference":"AeJbb3fdWGgts1Ip30Aj6d43Zj1vElgT3ZuZFC356Tdv9ykTa4pu0rf0gmnqoxAANLXjIMx_EP_1JCSlo_BDnbM99FhbIOV8QFnF-rKjbOjDk3Azp_rDJ7Ukd-Qss59Ei459sE953VnoD4dkHySTT7miU50LzuqRG_zvINOWvtt3n4dSCMMV","width":3024}],"place_id":"ChIJZxadalD3cg0RGhiE4xA-z9Y","plus_code":{"compound_code":"PH9G+MX Málaga","global_code":"8C8QPH9G+MX"},"rating":4.8,"reference":"ChIJZxadalD3cg0RGhiE4xA-z9Y","types":["restaurant","food","point_of_interest","establishment"],"user_ratings_total":124},{"business_status":"OPERATIONAL","formatted_address":"C. Casablanca, 7, 29620 Torremolinos, Málaga","geometry":{"location":{"lat":36.6219446,"lng":-4.4979036},"viewport":{"northeast":{"lat":36.62331167989272,"lng":-4.496611420107278},"southwest":{"lat":36.62061202010728,"lng":-4.499311079892721}}},"icon":"https://maps.gstatic.com/mapfiles/place_api/icons/v1/png_71/restaurant-71.png","icon_background_color":"#FF9E67","icon_mask_base_uri":"https://maps.gstatic.com/mapfiles/place_api/icons/v2/restaurant_pinlet","name":"Healthy life Torremolinos","opening_hours":{"open_now":false},"photos":[{"height":2268,"html_attributions":["<a href=\"https://maps.google.com/maps/contrib/110234115170116054402\">federica arnolfo</a>"],"photo_reference":"AeJbb3cSh3FXOaWIwKmdxDBEA_yaEhCYM274R2XSBX1NtOAGmp-x1XnvUyDkimO_MR-JEuiDOkdcndi-FOpTd_XSAk2JjK1T0vgZRQd0cVoGdXzUWUPC79tZoAZPIYPJwXikUU4-1brXDvQiFB9BFUihMUsT_JVHCxhICAHfW4SWOU_1Pv8f","width":4032}],"place_id":"ChIJ7U4ot1D7cg0Rq3zcXyswTqY","plus_code":{"compound_code":"JGC2+QR Torremolinos","global_code":"8C8QJGC2+QR"},"rating":4.8,"reference":"ChIJ7U4ot1D7cg0Rq3zcXyswTqY","types":["restaurant","food","point_of_interest","establishment"],"user_ratings_total":31},{"business_status":"OPERATIONAL","formatted_address":"C. Salvador Allende, 42, 29620 Torremolinos, Málaga","geometry":{"location":{"lat":36.6039825,"lng":-4.5093273},"viewport":{"northeast":{"lat":36.60536437989273,"lng":-4.507892820107277},"southwest":{"lat":36.60266472010728,"lng":-4.510592479892721}}},"icon":"https://maps.gstatic.com/mapfiles/place_api/icons/v1/png_71/restaurant-71.png","icon_background_color":"#FF9E67","icon_mask_base_uri":"https://maps.gstatic.com/mapfiles/place_api/icons/v2/restaurant_pinlet","name":"Bombay Grill","opening_hours":{"open_now":false},"photos":[{"height":3024,"html_attributions":["<a href=\"https://maps.google.com/maps/contrib/107126396430059405448\">Raj Rana</a>"],"photo_reference":"AeJbb3fi6BkHRkZ-3ykYGPk5Fl3voFw7Qmo_qbwv5q5FUwLl_Wse1uNfOVGS6RoKAhmIERLhZI7f6weFxOVhwqFmqJgdAPGclLt4ASoWE-85V46KnKTzk3O32Mo7j10D47Ve-Zr-8JSOiUpXQkhiY08QrIZvbsRTZPXFDf2dFH2xd1Yf2EeS","width":4032}],"place_id":"ChIJH1xkeXD8cg0RF-nBR8Os83c","plus_code":{"compound_code":"JF3R+H7 Torremolinos","global_code":"8C8QJF3R+H7"},"price_level":1,"rating":4.7,"reference":"ChIJH1xkeXD8cg0RF-nBR8Os83c","types":["restaurant","food","point_of_interest","establishment"],"user_ratings_total":642},{"business_status":"OPERATIONAL","formatted_address":"Blvr. Louis Pasteur, 21, local 3, 29010 Málaga","geometry":{"location":{"lat":36.7166674,"lng":-4.466216999999999},"viewport":{"northeast":{"lat":36.71830967989272,"lng":-4.464933120107277},"southwest":{"lat":36.71561002010728,"lng":-4.467632779892721}}},"icon":"https://maps.gstatic.com/mapfiles/place_api/icons/v1/png_71/restaurant-71.png","icon_background_color":"#FF9E67","icon_mask_base_uri":"https://maps.gstatic.com/mapfiles/place_api/icons/v2/restaurant_pinlet","name":"Bibra Real Food Teatinos","opening_hours":{"open_now":false},"photos":[{"height":4480,"html_attributions":["<a href=\"https://maps.google.com/maps/contrib/108270294737364446436\">A Google User</a>"],"photo_reference":"AeJbb3fI00Ivb8ixu_WJm044GQANwCcrqT9pKIIbh0l-nevDh3Xi2vrLZlpVGESK3HL8qV5NsVnkSnCVPN3JMmPPzVEGPlGpmd8DDj8i1sbNuE3-JqFM7Rq4nz8FGCSDfUuS0tHQxqfeGzv-EPc3JRxrhRonb2zq5k5BLfr7_VI6XlUIAedS","width":6720}],"place_id":"ChIJ5Qm99KP3cg0RAmDF3FhdN2o","plus_code":{"compound_code":"PG8M+MG Málaga","global_code":"8C8QPG8M+MG"},"price_level":1,"rating":4.7,"reference":"ChIJ5Qm99KP3cg0RAmDF3FhdN2o","types":["meal_delivery","meal_takeaway","restaurant","food","store","point_of_interest","establishment"],"user_ratings_total":601},{"business_status":"OPERATIONAL","formatted_address":"C. la Toja, 1, 29620 Torremolinos, Málaga","geometry":{"location":{"lat":36.6425509,"lng":-4.4817947},"viewport":{"northeast":{"lat":36.64393752989272,"lng":-4.480402970107278},"southwest":{"lat":36.64123787010728,"lng":-4.483102629892722}}},"icon":"https://maps.gstatic.com/mapfiles/place_api/icons/v1/png_71/restaurant-71.png","icon_background_color":"#FF9E67","icon_mask_base_uri":"https://maps.gstatic.com/mapfiles/place_api/icons/v2/restaurant_pinlet","name":"The Wala Room","opening_hours":{"open_now":false},"photos":[{"height":720,"html_attributions":["<a href=\"https://maps.google.com/maps/contrib/107952297352037855756\">The Wala Room</a>"],"photo_reference":"AeJbb3e3ikZkLNlxgzMbGUO_PshRkpHoD-uKcLHX4paRT0565qNlUg3uOcJ5sjtziZByM5neyuiqzLyKuCTcIu-qP6633XhK7uQ5fFJ6YA2jGmSs4K07UvjWTpQBssypjNaepESnUJl5fN5CwHEgiFjow84coYy-x_t3cjZLmaCqzbd4C2HS","width":960}],"place_id":"ChIJRWAYONj7cg0RK_XfSFWTmIw","plus_code":{"compound_code":"JGV9+27 Torremolinos","global_code":"8C8QJGV9+27"},"price_level":2,"rating":4.7,"reference":"ChIJRWAYONj7cg0RK_XfSFWTmIw","types":["restaurant","food","point_of_interest","establishment"],"user_ratings_total":591},{"business_status":"OPERATIONAL","formatted_address":"C. San Juan de Letrán, 13, 29012 Málaga","geometry":{"location":{"lat":36.7240128,"lng":-4.418333899999999},"viewport":{"northeast":{"lat":36.72538157989272,"lng":-4.416962620107277},"southwest":{"lat":36.72268192010727,"lng":-4.419662279892721}}},"icon":"https://maps.gstatic.com/mapfiles/place_api/icons/v1/png_71/restaurant-71.png","icon_background_color":"#FF9E67","icon_mask_base_uri":"https://maps.gstatic.com/mapfiles/place_api/icons/v2/restaurant_pinlet","name":"La Vegana","opening_hours":{"open_now":false},"photos":[{"height":4000,"html_attributions":["<a href=\"https://maps.google.com/maps/contrib/107489491075025058972\">José García Martín</a>"],"photo_reference":"AeJbb3d-fcs2VsjHR0licQjdXNwTsVgCRSKO0fvzq7g8hAEZNQ0Omn0PpeuTRu2NQ26S6VTzU2bGEDJT_4hVf5Vgy9C4JIb3xpNPOyn5NpAO60Lg6TIjKJmt_T7AZxIpR8ljErphyDNUrI4E_lmPYsZ95CdqH_dRTm0TisVjdgLARLqmWfzD","width":3000}],"place_id":"ChIJqda_xHr3cg0RNlIRLz1vHBQ","plus_code":{"compound_code":"PHFJ+JM Málaga","global_code":"8C8QPHFJ+JM"},"price_level":1,"rating":4.7,"reference":"ChIJqda_xHr3cg0RNlIRLz1vHBQ","types":["restaurant","food","point_of_interest","establishment"],"user_ratings_total":415},{"business_status":"OPERATIONAL","formatted_address":"C. Ancha del Carmen, 35, Local 2, 29002 Málaga","geometry":{"location":{"lat":36.7143763,"lng":-4.4285648},"viewport":{"northeast":{"lat":36.71572897989272,"lng":-4.427224620107278},"southwest":{"lat":36.71302932010727,"lng":-4.429924279892722}}},"icon":"https://maps.gstatic.com/mapfiles/place_api/icons/v1/png_71/restaurant-71.png","icon_background_color":"#FF9E67","icon_mask_base_uri":"https://maps.gstatic.com/mapfiles/place_api/icons/v2/restaurant_pinlet","name":"Vegan-té La Siria","opening_hours":{"open_now":false},"photos":[{"height":3024,"html_attributions":["<a href=\"https://maps.google.com/maps/contrib/118226229902618327240\">Rui Gomes</a>"],"photo_reference":"AeJbb3cgnwXc-iOS_oamVephIBIqo0YlWURdWM8Qf_mbXiSY2WQsRC8Maw6ypQ8YTHjJioqw-AheRKXrw2_nxujqITLayhJ5yZBRC1_ECozps61ATJ_KGbNdirHLS7nKZuPVM2LlIOGuDtf3oZN_C7tBeyUqhZT99kS5k_5VSSteuv5cxrz9","width":4032}],"place_id":"ChIJA2ghG7j3cg0RriiDNMpL3kI","plus_code":{"compound_code":"PH7C+PH Málaga","global_code":"8C8QPH7C+PH"},"price_level":1,"rating":4.7,"reference":"ChIJA2ghG7j3cg0RriiDNMpL3kI","types":["restaurant","food","point_of_interest","establishment"],"user_ratings_total":246},{"business_status":"OPERATIONAL","formatted_address":"C. Chiriva, 30, 29620 Torremolinos, Málaga","geometry":{"location":{"lat":36.61344709999999,"lng":-4.5016433},"viewport":{"northeast":{"lat":36.61475112989272,"lng":-4.500322520107278},"southwest":{"lat":36.61205147010728,"lng":-4.503022179892722}}},"icon":"https://maps.gstatic.com/mapfiles/place_api/icons/v1/png_71/restaurant-71.png","icon_background_color":"#FF9E67","icon_mask_base_uri":"https://maps.gstatic.com/mapfiles/place_api/icons/v2/restaurant_pinlet","name":"Ellen Restaurant","opening_hours":{"open_now":true},"photos":[{"height":3072,"html_attributions":["<a href=\"https://maps.google.com/maps/contrib/109756508484148286028\">Ian Sisperez</a>"],"photo_reference":"AeJbb3eTnHrSpVXZnj52On6l7ZFdPEK1oD0AbNS72R_Zb1bhRtICC-cDiiwyBxMRsUm50ElVj7qC_Mz-5-FiKmVnlw73irVR24gym0ehr9pNVF2IuR8fZmwL5lifyT9wxXbsQvpKAhBLHCtKFhs9Vkgizx-S_yZLVBSpIigkylsRiKvtwdIu","width":4080}],"place_id":"ChIJL7J-o0_7cg0RQmU25o8Lzfg","plus_code":{"compound_code":"JF7X+98 Torremolinos","global_code":"8C8QJF7X+98"},"rating":4.7,"reference":"ChIJL7J-o0_7cg0RQmU25o8Lzfg","types":["restaurant","food","point_of_interest","establishment"],"user_ratings_total":116},{"business_status":"OPERATIONAL","formatted_address":"Av. Gamonal, 29630 Benalmádena, Málaga","geometry":{"location":{"lat":36.5963298,"lng":-4.5262578},"viewport":{"northeast":{"lat":36.59763367989272,"lng":-4.525006920107278},"southwest":{"lat":36.59493402010727,"lng":-4.527706579892722}}},"icon":"https://maps.gstatic.com/mapfiles/place_api/icons/v1/png_71/restaurant-71.png","icon_background_color":"#FF9E67","icon_mask_base_uri":"https://maps.gstatic.com/mapfiles/place_api/icons/v2/restaurant_pinlet","name":"Namaste Indian Restaurant","opening_hours":{"open_now":true},"photos":[{"height":720,"html_attributions":["<a href=\"https://maps.google.com/maps/contrib/105104215133440837484\">A Google User</a>"],"photo_reference":"AeJbb3evX8IBASNoMYaFGNCm2yJT-8vgwKt8rySRlr_MJkULpEp4We6pmPQrYpkRJfrJdgZAV9HKdyZGw4jfpUIaJyUEmzS2lPJcQZcszXQo7mc46ZiQ236Lq6OyHq1cV2O8SrB13_2MjoO4kcRoEweWPURV1WuWE9Lhvd7cEaJ2WrQgyqk6","width":960}],"place_id":"ChIJHThuY7H9cg0RvJIlCCIeKMw","plus_code":{"compound_code":"HFWF+GF Benalmádena","global_code":"8C8QHFWF+GF"},"rating":4.7,"reference":"ChIJHThuY7H9cg0RvJIlCCIeKMw","types":["restaurant","food","point_of_interest","establishment"],"user_ratings_total":107},{"business_status":"OPERATIONAL","formatted_address":"C. Martínez, 12, 29005 Málaga","geometry":{"location":{"lat":36.7183524,"lng":-4.4221074},"viewport":{"northeast":{"lat":36.71975252989272,"lng":-4.420752870107277},"southwest":{"lat":36.71705287010728,"lng":-4.423452529892721}}},"icon":"https://maps.gstatic.com/mapfiles/place_api/icons/v1/png_71/restaurant-71.png","icon_background_color":"#FF9E67","icon_mask_base_uri":"https://maps.gstatic.com/mapfiles/place_api/icons/v2/restaurant_pinlet","name":"Healthy Poke Málaga - Calle Martínez","opening_hours":{"open_now":true},"photos":[{"height":3712,"html_attributions":["<a href=\"https://maps.google.com/maps/contrib/109588584417744339395\">A Google User</a>"],"photo_reference":"AeJbb3eT0xCAbrAGja4QOWnBMMct-Y5JtUSZZLd4gnc2xIHqsh9a38Vks8MEpXkpD4dxypw8AJL78O3JLmNG1VeOfpf86TaFkBd1SDfjXZXdHuefxEdKH5e8YvzxwVx6xB5bkTgUrVEIOcWBaJm7cq8It9AsTE8SV8RKpTCpfVXgF-rtpr0","width":5568}],"place_id":"ChIJY9eRxCX3cg0RsYyQGzf9Gns","plus_code":{"compound_code":"PH9H+85 Málaga","global_code":"8C8QPH9H+85"},"rating":4.7,"reference":"ChIJY9eRxCX3cg0RsYyQGzf9Gns","types":["restaurant","food","point_of_interest","establishment"],"user_ratings_total":73},{"business_status":"OPERATIONAL","formatted_address":"C. Bolsa, 6, 29015 Málaga","geometry":{"location":{"lat":36.7192479,"lng":-4.420831},"viewport":{"northeast":{"lat":36.72042522989272,"lng":-4.419526570107278},"southwest":{"lat":36.71772557010728,"lng":-4.422226229892722}}},"icon":"https://maps.gstatic.com/mapfiles/place_api/icons/v1/png_71/restaurant-71.png","icon_background_color":"#FF9E67","icon_mask_base_uri":"https://maps.gstatic.com/mapfiles/place_api/icons/v2/restaurant_pinlet","name":"Amigos Malaga Centro","opening_hours":{"open_now":true},"photos":[{"height":4160,"html_attributions":["<a href=\"https://maps.google.com/maps/contrib/109365655465190472969\">Malachi Witt</a>"],"photo_reference":"AeJbb3c9iYlrjySIpcafNDia_P_HUURcF9xsxIWSJxU8bM_9XeIkFnmdc4ieUuGd-FPpvIISppNQ_bntIYgVEuy3YSESV1TWEwkiKUU6rITIH8w2LB4hk1OWDjRdHGyx-U4SJzB89WyaF_z5eqtv4fZGLPuN1SF2KEFGhdhwVNT5QRy0b6on","width":3120}],"place_id":"ChIJXXEmqpX3cg0RtkM9ID2jajo","plus_code":{"compound_code":"PH9H+MM Málaga","global_code":"8C8QPH9H+MM"},"price_level":2,"rating":4.6,"reference":"ChIJXXEmqpX3cg0RtkM9ID2jajo","types":["meal_delivery","meal_takeaway","restaurant","food","point_of_interest","establishment"],"user_ratings_total":2267},{"business_status":"OPERATIONAL","formatted_address":"C. Alfonso Ponce de León, 3, 29140 Málaga","geometry":{"location":{"lat":36.6574314,"lng":-4.4789243},"viewport":{"northeast":{"lat":36.65880597989271,"lng":-4.477298420107279},"southwest":{"lat":36.65610632010727,"lng":-4.479998079892723}}},"icon":"https://maps.gstatic.com/mapfiles/place_api/icons/v1/png_71/restaurant-71.png","icon_background_color":"#FF9E67","icon_mask_base_uri":"https://maps.gstatic.com/mapfiles/place_api/icons/v2/restaurant_pinlet","name":"Amigos Plaza Mayor","opening_hours":{"open_now":true},"photos":[{"height":2160,"html_attributions":["<a href=\"https://maps.google.com/maps/contrib/113290029295383375689\">Alvaro Arrebola</a>"],"photo_reference":"AeJbb3dNH9FhghGKdZX7M-LfrQSedZr5iQWtWGb8ViCKCSY1jjBw3wqTj5TUWaSJI35FzcFx2Rp9S4FsmXT1dcZtoP1JqMpjbLkN1tdeXvZ84sAcS0bYL7SZthMHrQlLVgjcf6wGJOjA-89VDwDo4KEYEdux-w_Eqb5MAIwLRgOwPpcFpXtQ","width":3840}],"place_id":"ChIJY5qthyz5cg0RJwo_T9l4qPo","plus_code":{"compound_code":"MG4C+XC Málaga","global_code":"8C8QMG4C+XC"},"rating":4.6,"reference":"ChIJY5qthyz5cg0RJwo_T9l4qPo","types":["meal_delivery","restaurant","food","point_of_interest","establishment"],"user_ratings_total":1997},{"business_status":"OPERATIONAL","formatted_address":"Pl. de la Merced, 22, 29012 Málaga","geometry":{"location":{"lat":36.7233792,"lng":-4.416681},"viewport":{"northeast":{"lat":36.72468667989271,"lng":-4.415346120107277},"southwest":{"lat":36.72198702010727,"lng":-4.418045779892721}}},"icon":"https://maps.gstatic.com/mapfiles/place_api/icons/v1/png_71/restaurant-71.png","icon_background_color":"#FF9E67","icon_mask_base_uri":"https://maps.gstatic.com/mapfiles/place_api/icons/v2/restaurant_pinlet","name":"BYOKO","opening_hours":{"open_now":true},"photos":[{"height":1836,"html_attributions":["<a href=\"https://maps.google.com/maps/contrib/103949517651351936483\">Paul Dawes</a>"],"photo_reference":"AeJbb3c8ezPBEWkHVHTg_UiGdeDFfvOCvwMqFiKfYvZGYcf7UpWIUFd0o0VAYYwNlLIAnpzUwr_uPRKMshBDgs_L89JjGUWigJ93kfvWj72CWhA9g8nV-mq0SgMpz3wnQHZ9aDMwKotYdPlVOv5Dj9nGPRevWNK4TKYZ2eh-KHFHjTU2DtTw","width":3264}],"place_id":"ChIJzwJRppX3cg0RGWF3Yn83GlI","plus_code":{"compound_code":"PHFM+98 Málaga","global_code":"8C8QPHFM+98"},"price_level":2,"rating":4.6,"reference":"ChIJzwJRppX3cg0RGWF3Yn83GlI","types":["restaurant","food","point_of_interest","establishment"],"user_ratings_total":1775},{"business_status":"OPERATIONAL","formatted_address":"C. Eolo, 7, 29010 Málaga","geometry":{"location":{"lat":36.7205194,"lng":-4.4749181},"viewport":{"northeast":{"lat":36.72168592989272,"lng":-4.473672720107277},"southwest":{"lat":36.71898627010728,"lng":-4.476372379892721}}},"icon":"https://maps.gstatic.com/mapfiles/place_api/icons/v1/png_71/restaurant-71.png","icon_background_color":"#FF9E67","icon_mask_base_uri":"https://maps.gstatic.com/mapfiles/place_api/icons/v2/restaurant_pinlet","name":"Restaurante Avocado","opening_hours":{"open_now":false},"photos":[{"height":3264,"html_attributions":["<a href=\"https://maps.google.com/maps/contrib/115924904949961889123\">Maria Jose Recio</a>"],"photo_reference":"AeJbb3dmC81FNuB1uEuclP0VTQ7Zy7QhcmrHccy9xPrl6aJlShFvPiQFLlF2N45T7LHxtbYFFvLyOuSkkNdjxN4MTFY8N8Jb38rmOO_A870kM_M5U03mMeFtu7q_jzAl57x-7Koe2H1M2TvPTjPUubXSLbUNqWf4RvGaeNteGgw76SeVrIrc","width":2448}],"place_id":"ChIJeZQi4jX3cg0RkEiTQmlCFqo","plus_code":{"compound_code":"PGCG+62 Málaga","global_code":"8C8QPGCG+62"},"price_level":1,"rating":4.6,"reference":"ChIJeZQi4jX3cg0RkEiTQmlCFqo","types":["restaurant","food","point_of_interest","establishment"],"user_ratings_total":659},{"business_status":"OPERATIONAL","formatted_address":"Dársena de Levante, Local B3, 29630, Málaga","geometry":{"location":{"lat":36.5979437,"lng":-4.5132438},"viewport":{"northeast":{"lat":36.59942337989272,"lng":-4.511934970107278},"southwest":{"lat":36.59672372010728,"lng":-4.514634629892722}}},"icon":"https://maps.gstatic.com/mapfiles/place_api/icons/v1/png_71/restaurant-71.png","icon_background_color":"#FF9E67","icon_mask_base_uri":"https://maps.gstatic.com/mapfiles/place_api/icons/v2/restaurant_pinlet","name":"Cinnamon Club Benalmadena PUERTO MARINA - BENALMÁDENA - MÁLAGA (Indian Restaurant, Tex-Mex - Restaurante Indio y Mexicano)","opening_hours":{"open_now":true},"photos":[{"height":1152,"html_attributions":["<a href=\"https://maps.google.com/maps/contrib/114887629261335296513\">Cinnamon Club</a>"],"photo_reference":"AeJbb3eT95L1WANwXkK5zFEKitrw18JOEmLOYJxcj4hjBWtn819AqEZp6gGvlwbUOs4QRrQNshi_B_ziboD05pCPXi6xEhOBS4FH5K_l8LCM0nQCPi3GzE4bwTs4elaipr9zuoSqDiaNtsN6bI4EewzaVkvmWFBsEcovionyxuwq-YyrHy3i","width":1728}],"place_id":"ChIJj6YjGWX8cg0RcdB6znZu_Y8","plus_code":{"compound_code":"HFXP+5P Benalmádena","global_code":"8C8QHFXP+5P"},"rating":4.6,"reference":"ChIJj6YjGWX8cg0RcdB6znZu_Y8","types":["meal_takeaway","bar","restaurant","food","point_of_interest","establishment"],"user_ratings_total":359},{"business_status":"OPERATIONAL","formatted_address":"C. Strachan, 5, 29015 Málaga","geometry":{"location":{"lat":36.7198233,"lng":-4.4209821},"viewport":{"northeast":{"lat":36.72066497989272,"lng":-4.419593520107277},"southwest":{"lat":36.71796532010728,"lng":-4.422293179892721}}},"icon":"https://maps.gstatic.com/mapfiles/place_api/icons/v1/png_71/restaurant-71.png","icon_background_color":"#FF9E67","icon_mask_base_uri":"https://maps.gstatic.com/mapfiles/place_api/icons/v2/restaurant_pinlet","name":"BYOKO","opening_hours":{"open_now":false},"photos":[{"height":5472,"html_attributions":["<a href=\"https://maps.google.com/maps/contrib/117053917588073430626\">A Google User</a>"],"photo_reference":"AeJbb3cvjsJM4C2t2HtKd9mZF13qp6j6P7eRgOycO6EiKhWAdUaibYP1MMhXZPixfNtqyYdBR3GDTdAG5FLFU8PFKFUQm7nUxTmXiGN7PyJGSlJVN5z_HIb4GJPFaMj9RzFEeFH2bXvgfv7swTT1aqcAEIVpKPZvZypVufYvrkPFg6V6IZcR","width":3648}],"place_id":"ChIJgTPTZE33cg0RfWCykNVhjy4","plus_code":{"compound_code":"PH9H+WJ Málaga","global_code":"8C8QPH9H+WJ"},"price_level":2,"rating":4.6,"reference":"ChIJgTPTZE33cg0RfWCykNVhjy4","types":["restaurant","food","point_of_interest","establishment"],"user_ratings_total":235},{"business_status":"OPERATIONAL","formatted_address":"Av. Terramar Alto, 14, 29630 Benalmádena, Málaga","geometry":{"location":{"lat":36.5988011,"lng":-4.5233262},"viewport":{"northeast":{"lat":36.60008402989272,"lng":-4.521950770107277},"southwest":{"lat":36.59738437010728,"lng":-4.524650429892722}}},"icon":"https://maps.gstatic.com/mapfiles/place_api/icons/v1/png_71/restaurant-71.png","icon_background_color":"#FF9E67","icon_mask_base_uri":"https://maps.gstatic.com/mapfiles/place_api/icons/v2/restaurant_pinlet","name":"El Refugio","opening_hours":{"open_now":true},"photos":[{"height":1152,"html_attributions":["<a href=\"https://maps.google.com/maps/contrib/102846916811162450616\">Juha Räsänen</a>"],"photo_reference":"AeJbb3djpsd2v8-LRlp_jjmkwsMhzuQqSAQmgzKSdhu7RFU_YwKom4l38tViqwq1-6eQggPf-OlZfXW_s0xVoyVPrRBF-yERqKN2WP0oe50gEcijTmLbeVU3kp8834mNRlqaIsEeEsL4bnuXztrsEPh0o6qxV_TEnWbl0NeaYPzMLOwpaQBe","width":2048}],"place_id":"ChIJzXgPKob8cg0RUy-ZBkx5I-A","plus_code":{"compound_code":"HFXG+GM Benalmádena","global_code":"8C8QHFXG+GM"},"price_level":1,"rating":4.6,"reference":"ChIJzXgPKob8cg0RUy-ZBkx5I-A","types":["restaurant","food","point_of_interest","establishment"],"user_ratings_total":149},{"business_status":"OPERATIONAL","formatted_address":"Pl. Enrique García-Herrera, 16, 29005 Málaga","geometry":{"location":{"lat":36.7195421,"lng":-4.4249002},"viewport":{"northeast":{"lat":36.72085202989272,"lng":-4.423524220107277},"southwest":{"lat":36.71815237010728,"lng":-4.426223879892721}}},"icon":"https://maps.gstatic.com/mapfiles/place_api/icons/v1/png_71/restaurant-71.png","icon_background_color":"#FF9E67","icon_mask_base_uri":"https://maps.gstatic.com/mapfiles/place_api/icons/v2/restaurant_pinlet","name":"Recyclo Bike Café","opening_hours":{"open_now":true},"photos":[{"height":3024,"html_attributions":["<a href=\"https://maps.google.com/maps/contrib/116718234354364868972\">Pedro Andrés Cedenilla Jiménez</a>"],"photo_reference":"AeJbb3eV4nQarWlpw1ia0aPguqgWzTuxDJh6VpDY2-9zn7rFsnyxdJr4RTg6lo2rA4k1kZ9ENIj76IfOlaSFlIRZbv7mgNFhMREqp8KD2tYgWmHLicTzM7BxbzvMbs6uvNThTj0xPMg33D5Z9tXEx5DrVQFLdz1DNghMeZK-BgO815c17y7M","width":4032}],"place_id":"ChIJGzpIQ5b3cg0R6kJ8U9UDjTM","plus_code":{"compound_code":"PH9G+R2 Málaga","global_code":"8C8QPH9G+R2"},"price_level":1,"rating":4.5,"reference":"ChIJGzpIQ5b3cg0R6kJ8U9UDjTM","types":["cafe","restaurant","food","store","point_of_interest","establishment"],"user_ratings_total":3042},{"business_status":"OPERATIONAL","formatted_address":"C. Calderón de la Barca, 3, 29005 Málaga","geometry":{"location":{"lat":36.7202753,"lng":-4.423909},"viewport":{"northeast":{"lat":36.72158347989273,"lng":-4.422652470107279},"southwest":{"lat":36.71888382010728,"lng":-4.425352129892723}}},"icon":"https://maps.gstatic.com/mapfiles/place_api/icons/v1/png_71/restaurant-71.png","icon_background_color":"#FF9E67","icon_mask_base_uri":"https://maps.gstatic.com/mapfiles/place_api/icons/v2/restaurant_pinlet","name":"Andino Gastrobar","opening_hours":{"open_now":true},"photos":[{"height":4032,"html_attributions":["<a href=\"https://maps.google.com/maps/contrib/104486191969562644946\">Diane Bensoussan</a>"],"photo_reference":"AeJbb3c2jg-c3NSwLu06UsFjfHoNLWipl5yArANO3H2cFs0Dvfawgu_EpKPE-Q8Yb5P-rmA0I_PlpnIs2PCRxKWxdATVo0ruJizAtFhlJN17WeJ7e0c7Z2QMsPXHSm3ajUcamBDVywulz59ZPVodq2hz0vWgUXmFtCBe6tkDnNlqCTtZYrOw","width":3024}],"place_id":"ChIJQe4UDZb3cg0RlGufGBrCupk","plus_code":{"compound_code":"PHCG+4C Málaga","global_code":"8C8QPHCG+4C"},"price_level":1,"rating":4.5,"reference":"ChIJQe4UDZb3cg0RlGufGBrCupk","types":["restaurant","food","point_of_interest","establishment"],"user_ratings_total":1499},{"business_status":"OPERATIONAL","formatted_address":"Pl. de la Merced, 21, 29012 Málaga","geometry":{"location":{"lat":36.723461,"lng":-4.416817},"viewport":{"northeast":{"lat":36.72479582989271,"lng":-4.415546170107278},"southwest":{"lat":36.72209617010727,"lng":-4.418245829892722}}},"icon":"https://maps.gstatic.com/mapfiles/place_api/icons/v1/png_71/restaurant-71.png","icon_background_color":"#FF9E67","icon_mask_base_uri":"https://maps.gstatic.com/mapfiles/place_api/icons/v2/restaurant_pinlet","name":"Cañadú","opening_hours":{"open_now":false},"photos":[{"height":1536,"html_attributions":["<a href=\"https://maps.google.com/maps/contrib/103160020423874855730\">Björn Haglund</a>"],"photo_reference":"AeJbb3eyix_s0ALPc7uzugJbSGdtxDxGpAaMa9PkwE7RMq5opmIN3eQgYwvwkKTOh2Q2Tb8n38u6A99pgHviSN3MLxHy-LB-q_Ag090RUmmplMIL4twIKKqfn9LfgUNoRB9bBUnKu5RUUFdrm8QwPErMPKVUIQN4O9HmuS8wObmoNuzvi9sH","width":2048}],"place_id":"ChIJad6aQcD3cg0RuXcOa3lk7s4","plus_code":{"compound_code":"PHFM+97 Málaga","global_code":"8C8QPHFM+97"},"price_level":2,"rating":4.5,"reference":"ChIJad6aQcD3cg0RuXcOa3lk7s4","types":["restaurant","food","point_of_interest","establishment"],"user_ratings_total":1330},{"business_status":"OPERATIONAL","formatted_address":"Av. Federico García Lorca, 7, 29630 Benalmádena, Málaga","geometry":{"location":{"lat":36.591522,"lng":-4.526593},"viewport":{"northeast":{"lat":36.59291707989272,"lng":-4.525207770107278},"southwest":{"lat":36.59021742010728,"lng":-4.527907429892722}}},"icon":"https://maps.gstatic.com/mapfiles/place_api/icons/v1/png_71/restaurant-71.png","icon_background_color":"#FF9E67","icon_mask_base_uri":"https://maps.gstatic.com/mapfiles/place_api/icons/v2/restaurant_pinlet","name":"Milan Indian-Italian Restaurant","opening_hours":{"open_now":false},"photos":[{"height":2268,"html_attributions":["<a href=\"https://maps.google.com/maps/contrib/105873406872834189356\">gavin cox</a>"],"photo_reference":"AeJbb3eO1ni0B01BFEP6jSw57INlAsscW6chMTY7-J7oWJIPYTkbklBloGvgtsHL_lnDPvsM2tL0_eOwvhMZlcYe_Drc6rz3MuHCUFkTjnb0wz0MVnDoj1iwEQ-AM2NnTR3L3AOweUuPXmyxhqZc_imi7Ay2lx3RV-V5bh00oxfVz6VLI0s6","width":4032}],"place_id":"ChIJoXH7eYz8cg0R35c6P3dRuOw","plus_code":{"compound_code":"HFRF+J9 Benalmádena","global_code":"8C8QHFRF+J9"},"price_level":2,"rating":4.5,"reference":"ChIJoXH7eYz8cg0R35c6P3dRuOw","types":["restaurant","food","point_of_interest","establishment"],"user_ratings_total":1071},{"business_status":"OPERATIONAL","formatted_address":"C. Pozo del Rey, 5, 29015 Málaga","geometry":{"location":{"lat":36.7221416,"lng":-4.4168714},"viewport":{"northeast":{"lat":36.72372937989272,"lng":-4.415616470107278},"southwest":{"lat":36.72102972010727,"lng":-4.418316129892722}}},"icon":"https://maps.gstatic.com/mapfiles/place_api/icons/v1/png_71/restaurant-71.png","icon_background_color":"#FF9E67","icon_mask_base_uri":"https://maps.gstatic.com/mapfiles/place_api/icons/v2/restaurant_pinlet","name":"El Vegetariano de la Alcazabilla","opening_hours":{"open_now":false},"photos":[{"height":1190,"html_attributions":["<a href=\"https://maps.google.com/maps/contrib/114314950382536197837\">El Vegetariano de la Alcazabilla</a>"],"photo_reference":"AeJbb3f8eXtUl-_kFr3YXz15s68HlOyTdeytrU-WwQzZq5RBWTFRmUMW1YxlFzlHiJ0OYLnk_G70idrVrmqSCULaiaW3aKq20XUiZs7v4nE_pZN49jJ3ca7-YFqpckbbwYdDqEXwm8NnRC8QBr_I7y0ghiP4BPsoLipqXnN5ZYlPZIyOGLZr","width":1969}],"place_id":"ChIJveJIH8D3cg0RRqxiDZClsv0","plus_code":{"compound_code":"PHCM+V7 Málaga","global_code":"8C8QPHCM+V7"},"rating":4.5,"reference":"ChIJveJIH8D3cg0RRqxiDZClsv0","types":["restaurant","food","point_of_interest","establishment"],"user_ratings_total":633},{"business_status":"OPERATIONAL","formatted_address":"Calle Bulto, 18, 29620 Torremolinos, Málaga","geometry":{"location":{"lat":36.6103296,"lng":-4.5035932},"viewport":{"northeast":{"lat":36.61190052989272,"lng":-4.502160520107278},"southwest":{"lat":36.60920087010728,"lng":-4.504860179892722}}},"icon":"https://maps.gstatic.com/mapfiles/place_api/icons/v1/png_71/restaurant-71.png","icon_background_color":"#FF9E67","icon_mask_base_uri":"https://maps.gstatic.com/mapfiles/place_api/icons/v2/restaurant_pinlet","name":"Spice Grill","opening_hours":{"open_now":true},"photos":[{"height":2000,"html_attributions":["<a href=\"https://maps.google.com/maps/contrib/113392114754564689892\">A Google User</a>"],"photo_reference":"AeJbb3etgLbEoCLZmVGuJkfAuI1kamXGpAIw5SPXcXqqz75f2zAxL3hOXEFmAFCn50vLSKu6klRKOR_jU09NXX-EKWfM6sgxpEDaYUHJrlUlDAVwEq0MlI8Awc9F6RwPiMKXEP8wNE0WMIepDQBjciacFpoxKflgl89bRb6OZHNVdT_5idzK","width":2992}],"place_id":"ChIJm1_whHX8cg0R3KEksFJYyXE","plus_code":{"compound_code":"JF6W+4H Torremolinos","global_code":"8C8QJF6W+4H"},"price_level":2,"rating":4.5,"reference":"ChIJm1_whHX8cg0R3KEksFJYyXE","types":["restaurant","food","point_of_interest","establishment"],"user_ratings_total":546},{"business_status":"OPERATIONAL","formatted_address":"Av. San Sebastián, 8, 29010 Málaga","geometry":{"location":{"lat":36.7231583,"lng":-4.4367445},"viewport":{"northeast":{"lat":36.72447027989272,"lng":-4.435395170107278},"southwest":{"lat":36.72177062010728,"lng":-4.438094829892722}}},"icon":"https://maps.gstatic.com/mapfiles/place_api/icons/v1/png_71/restaurant-71.png","icon_background_color":"#FF9E67","icon_mask_base_uri":"https://maps.gstatic.com/mapfiles/place_api/icons/v2/restaurant_pinlet","name":"Pizzería Artesanal La Fainá","opening_hours":{"open_now":false},"photos":[{"height":1024,"html_attributions":["<a href=\"https://maps.google.com/maps/contrib/103517625462358473013\">Juaan Batista</a>"],"photo_reference":"AeJbb3fd5Gxnr6Npm4Bzbp2UjIN_AhdMd3WM02VL0zuN1r-5gQhgzr-04OhGD8xAJVAN5Gst0V1Pf1AEwCn-cE9dq1C2jvtT43Qub76IjrGyeWv1EaPtlkZGRRhnOCiUolmQ74byLrgrO1K5rTL1Y7UlGWLo4wNIrGbvIP7_RwA-loXxLHsj","width":702}],"place_id":"ChIJgzVGUKD3cg0R2FT513KjBBY","plus_code":{"compound_code":"PHF7+78 Málaga","global_code":"8C8QPHF7+78"},"price_level":1,"rating":4.5,"reference":"ChIJgzVGUKD3cg0R2FT513KjBBY","types":["restaurant","food","point_of_interest","establishment"],"user_ratings_total":448},{"business_status":"CLOSED_TEMPORARILY","formatted_address":"Av. Joan Miró, 19, 29620 Torremolinos, Málaga","geometry":{"location":{"lat":36.6220311,"lng":-4.5023678},"viewport":{"northeast":{"lat":36.62350267989272,"lng":-4.501025920107278},"southwest":{"lat":36.62080302010727,"lng":-4.503725579892722}}},"icon":"https://maps.gstatic.com/mapfiles/place_api/icons/v1/png_71/restaurant-71.png","icon_background_color":"#FF9E67","icon_mask_base_uri":"https://maps.gstatic.com/mapfiles/place_api/icons/v2/restaurant_pinlet","name":"Restaurante Espiga","permanently_closed":true,"photos":[{"height":4032,"html_attributions":["<a href=\"https://maps.google.com/maps/contrib/109048764061814870026\">Quintie Bouwens</a>"],"photo_reference":"AeJbb3fO5D2lDmINcXYLTT-tqC_Szb2uD_SmslqW52a4uxHpDsQiFdfK0be_kmQwsYcTxrmxgcihG8NyNRLxUyjklK586GZoG5sJnW9HC_dEMXHDi1uSxLCyPH3Bo4sMMw6dCzwIGzJVmL3UlQ5Ipq_l2qlAPOv8-LL51jZfrtkz6j_ou8KS","width":1960}],"place_id":"ChIJvXy2m5L7cg0REwCMmTMOx3A","plus_code":{"compound_code":"JFCX+R3 Torremolinos","global_code":"8C8QJFCX+R3"},"price_level":1,"rating":4.5,"reference":"ChIJvXy2m5L7cg0REwCMmTMOx3A","types":["restaurant","food","point_of_interest","establishment"],"user_ratings_total":210},{"business_status":"OPERATIONAL","formatted_address":"C. Calderón de la Barca, 6, 29005 Málaga","geometry":{"location":{"lat":36.72030609999999,"lng":-4.4240453},"viewport":{"northeast":{"lat":36.72161962989272,"lng":-4.422737070107279},"southwest":{"lat":36.71891997010728,"lng":-4.425436729892723}}},"icon":"https://maps.gstatic.com/mapfiles/place_api/icons/v1/png_71/restaurant-71.png","icon_background_color":"#FF9E67","icon_mask_base_uri":"https://maps.gstatic.com/mapfiles/place_api/icons/v2/restaurant_pinlet","name":"Astrid - Organic Tapería","opening_hours":{"open_now":true},"photos":[{"height":3024,"html_attributions":["<a href=\"https://maps.google.com/maps/contrib/101150373109558917990\">Martin Bladon</a>"],"photo_reference":"AeJbb3cBlALjKdbEZZOkKdV9KfQf_pCtpo-HAnLBZV3XF-fTZjuyFuw1eY7GHhvr-zxkbITNYGJG4naEnpuU_dCmnvXHK69VKi_cJszrNagjq2asPUeJdVYddry0GqD_eo42FZ9wrlZlHe7-zQCG77dybgR6ys8G5GmqX6vlDfKlYn576Ks0","width":4032}],"place_id":"ChIJucp5DZb3cg0RibSwAjjR6Sw","plus_code":{"compound_code":"PHCG+49 Málaga","global_code":"8C8QPHCG+49"},"price_level":2,"rating":4.4,"reference":"ChIJucp5DZb3cg0RibSwAjjR6Sw","types":["restaurant","bakery","food","bar","point_of_interest","store","establishment"],"user_ratings_total":1303},{"business_status":"OPERATIONAL","formatted_address":"C. Andrés Pérez, 6, 29008 Málaga","geometry":{"location":{"lat":36.72272,"lng":-4.422772},"viewport":{"northeast":{"lat":36.72391537989272,"lng":-4.421152120107278},"southwest":{"lat":36.72121572010727,"lng":-4.423851779892722}}},"icon":"https://maps.gstatic.com/mapfiles/place_api/icons/v1/png_71/restaurant-71.png","icon_background_color":"#FF9E67","icon_mask_base_uri":"https://maps.gstatic.com/mapfiles/place_api/icons/v2/restaurant_pinlet","name":"Vegetariano El Calafate","opening_hours":{"open_now":false},"photos":[{"height":2448,"html_attributions":["<a href=\"https://maps.google.com/maps/contrib/114198120632255671137\">Sandiip Khanal</a>"],"photo_reference":"AeJbb3cjQ73sLPRu8XBRd_gDYJg8DatHgOawxocL6rdLOp6pqfdSXcZYYo3nvPMU0_bXfbrX53lIBvnpMn1ALm3TEM_QRvYr-fBIcfm8kHe0IXGRmaQmcI0-r1I_OGF2zW-2E7MEntDLNnjaTvk6a7qjItHIjC6P8WXvs98Yw04NbQQiC7go","width":3264}],"place_id":"ChIJXTaaDb73cg0RUcoZPCcXNh8","plus_code":{"compound_code":"PHFG+3V Málaga","global_code":"8C8QPHFG+3V"},"price_level":1,"rating":4.4,"reference":"ChIJXTaaDb73cg0RUcoZPCcXNh8","types":["restaurant","food","point_of_interest","establishment"],"user_ratings_total":991},{"business_status":"OPERATIONAL","formatted_address":"Plaza del Teatro, 3, Calle Betas, 2, 29008 Málaga","geometry":{"location":{"lat":36.72376870000001,"lng":-4.4207389},"viewport":{"northeast":{"lat":36.72513882989273,"lng":-4.419424820107278},"southwest":{"lat":36.72243917010729,"lng":-4.422124479892722}}},"icon":"https://maps.gstatic.com/mapfiles/place_api/icons/v1/png_71/bar-71.png","icon_background_color":"#FF9E67","icon_mask_base_uri":"https://maps.gstatic.com/mapfiles/place_api/icons/v2/bar_pinlet","name":"Anchoita El Pana","opening_hours":{"open_now":false},"photos":[{"height":1200,"html_attributions":["<a href=\"https://maps.google.com/maps/contrib/108322672568575800245\">Anchoita Bar</a>"],"photo_reference":"AeJbb3eyhszh2ETjVCE-IRoKCho5CBj0pS-bndlakuSnJ1DcLP5czA2StlCMh0g9mlrqedL9pvyq6wBLN9DeGdhDDBMX3QCqxYYUJqRrAdYbdYR7MH18f1_aIsTptfUrpvfF7RiikxYCt2ndDMuafNSZSDr1XnnZTS5GoyoZir2nlXhrNn6n","width":1600}],"place_id":"ChIJG5ferL_3cg0RBSIsRR-ey5A","plus_code":{"compound_code":"PHFH+GP Málaga","global_code":"8C8QPHFH+GP"},"price_level":1,"rating":4.4,"reference":"ChIJG5ferL_3cg0RBSIsRR-ey5A","types":["bar","restaurant","food","point_of_interest","establishment"],"user_ratings_total":677},{"business_status":"OPERATIONAL","formatted_address":"Av. del Sol, 18, Local 6, 29630 Benalmádena, Málaga","geometry":{"location":{"lat":36.5818197,"lng":-4.5389377},"viewport":{"northeast":{"lat":36.58312302989272,"lng":-4.537542020107278},"southwest":{"lat":36.58042337010728,"lng":-4.540241679892722}}},"icon":"https://maps.gstatic.com/mapfiles/place_api/icons/v1/png_71/restaurant-71.png","icon_background_color":"#FF9E67","icon_mask_base_uri":"https://maps.gstatic.com/mapfiles/place_api/icons/v2/restaurant_pinlet","name":"Amigos Grill - Indian & Mexican Cuisine","opening_hours":{"open_now":true},"photos":[{"height":3264,"html_attributions":["<a href=\"https://maps.google.com/maps/contrib/110092145214365513678\">Inma Perez</a>"],"photo_reference":"AeJbb3dcXdMtqu6nPUAtefFzEFI-vwbSX0mErItMnOQa4eDBhGI55t-zFIu_GEOUFnZwThVWRT5l-DDdsLPdO6uJEhQPfDIPxVyVHCXUZ8o8YIUPuJaJnahTtvU4yFYsvNa3e2c4DzfEqISFBp5SPr9IVW-9ikF00UzjvvrEmQRXMYj-H3k-","width":2448}],"place_id":"ChIJRxwwcen8cg0RBjOuf8jhdWg","plus_code":{"compound_code":"HFJ6+PC Benalmádena","global_code":"8C8QHFJ6+PC"},"price_level":2,"rating":4.4,"reference":"ChIJRxwwcen8cg0RBjOuf8jhdWg","types":["meal_delivery","meal_takeaway","restaurant","food","point_of_interest","establishment"],"user_ratings_total":425},{"business_status":"OPERATIONAL","formatted_address":"C. Reding, 10, 29016 Málaga","geometry":{"location":{"lat":36.7177656,"lng":-4.4113371},"viewport":{"northeast":{"lat":36.71913852989272,"lng":-4.409900220107279},"southwest":{"lat":36.71643887010728,"lng":-4.412599879892722}}},"icon":"https://maps.gstatic.com/mapfiles/place_api/icons/v1/png_71/restaurant-71.png","icon_background_color":"#FF9E67","icon_mask_base_uri":"https://maps.gstatic.com/mapfiles/place_api/icons/v2/restaurant_pinlet","name":"Albahaca restaurante","photos":[{"height":3024,"html_attributions":["<a href=\"https://maps.google.com/maps/contrib/108332671222716891218\">eric</a>"],"photo_reference":"AeJbb3duPJefZIkVQuFXSLsomNb5YnAx46HED5jPjvEehsyVPdY-ZMvVQ-ANfEz-2AWp5zDqN4VGRRVj1fOrbqGuxa4_ZSuTrPmySUFBgoEr6mjTKUuEu51PFG3sbsG9AI8QZ-vPjWXkw5VIsDPbbqP9D-cxWkSVQ4K0jQiUTIBhx9U1ql2Z","width":4032}],"place_id":"ChIJh3L2btb3cg0RyOGKLsYVGCQ","plus_code":{"compound_code":"PH9Q+4F Málaga","global_code":"8C8QPH9Q+4F"},"rating":4.4,"reference":"ChIJh3L2btb3cg0RyOGKLsYVGCQ","types":["restaurant","food","point_of_interest","establishment"],"user_ratings_total":47},{"business_status":"OPERATIONAL","formatted_address":"Av. de Cánovas del Castillo, 12, 29016 Málaga","geometry":{"location":{"lat":36.7186849,"lng":-4.4108547},"viewport":{"northeast":{"lat":36.72009807989272,"lng":-4.409422320107277},"southwest":{"lat":36.71739842010728,"lng":-4.412121979892721}}},"icon":"https://maps.gstatic.com/mapfiles/place_api/icons/v1/png_71/restaurant-71.png","icon_background_color":"#FF9E67","icon_mask_base_uri":"https://maps.gstatic.com/mapfiles/place_api/icons/v2/restaurant_pinlet","name":"Taj Tandoori y Vegano","opening_hours":{"open_now":true},"photos":[{"height":2736,"html_attributions":["<a href=\"https://maps.google.com/maps/contrib/112163131534186119314\">francisco manzano</a>"],"photo_reference":"AeJbb3fbaG8JImJfre58uyoBze14sB_ZMDIwGdCQTdGSHJO6RDvV2act-WCnDQneRRBgbNJeSUlCRqZ-Gfr6dv7lRQz4elOpEqdU6ZQAqGnRMLUXiDOfoKpwoNK6tz_bK4pXK0w5zggTpMDPiN44qWifSuDbtHo8v-Kdc0EfL2xPMh__MzEH","width":3648}],"place_id":"ChIJHVJGA-n3cg0RPbdYF0vjc60","plus_code":{"compound_code":"PH9Q+FM Málaga","global_code":"8C8QPH9Q+FM"},"rating":4.3,"reference":"ChIJHVJGA-n3cg0RPbdYF0vjc60","types":["restaurant","food","point_of_interest","establishment"],"user_ratings_total":737},{"business_status":"OPERATIONAL","formatted_address":"Paseo Marítimo Nuestra Señora del Carmen s/n, 29730 Rincón de la Victoria, Málaga","geometry":{"location":{"lat":36.71447819999999,"lng":-4.2814912},"viewport":{"northeast":{"lat":36.71582802989271,"lng":-4.280141370107278},"southwest":{"lat":36.71312837010727,"lng":-4.282841029892722}}},"icon":"https://maps.gstatic.com/mapfiles/place_api/icons/v1/png_71/restaurant-71.png","icon_background_color":"#FF9E67","icon_mask_base_uri":"https://maps.gstatic.com/mapfiles/place_api/icons/v2/restaurant_pinlet","name":"Pronto Factory","opening_hours":{"open_now":false},"photos":[{"height":4000,"html_attributions":["<a href=\"https://maps.google.com/maps/contrib/115786911012427487234\">PRONTO! PIZZA</a>"],"photo_reference":"AeJbb3c396PZrQeN8K2UAa6C_gwh_w5SAVbM81atvXa2WdPruOhfC2ujumDfSjojj9ptkLxOKiHBrImffW-5WOENdKC5DVpDBWDA_ThDdWnQLbRfDd-Q4KZRkdBwDBQ4Xz2iHDtngctDnlwpHWg_ub4qTjacfeydM87c0dzHziallqRneDCQ","width":6016}],"place_id":"ChIJ296eBXBacg0RnTDsxdTxIuE","plus_code":{"compound_code":"PP79+QC Rincón de la Victoria","global_code":"8C8QPP79+QC"},"price_level":1,"rating":4.3,"reference":"ChIJ296eBXBacg0RnTDsxdTxIuE","types":["restaurant","food","point_of_interest","establishment"],"user_ratings_total":491},{"business_status":"OPERATIONAL","formatted_address":"C. Peregrino, 2, 29002 Málaga","geometry":{"location":{"lat":36.7152405,"lng":-4.427363199999999},"viewport":{"northeast":{"lat":36.71669222989273,"lng":-4.426133120107278},"southwest":{"lat":36.71399257010729,"lng":-4.428832779892722}}},"icon":"https://maps.gstatic.com/mapfiles/place_api/icons/v1/png_71/restaurant-71.png","icon_background_color":"#FF9E67","icon_mask_base_uri":"https://maps.gstatic.com/mapfiles/place_api/icons/v2/restaurant_pinlet","name":"Lovinghutmalaga","opening_hours":{"open_now":false},"photos":[{"height":1080,"html_attributions":["<a href=\"https://maps.google.com/maps/contrib/114342726538086977495\">A Google User</a>"],"photo_reference":"AeJbb3c8cWOqgC12oCUu1lnMA4LmPhCSMbdZJ1pQa9A_N80ZfP8Xuv0PXAtWwtOCQ_3HOlFsRlEDvJ661STQeVKxAKMgstz6jGJW5ikW0z1qrg3_uTJSimu-BV26jU2pEws8373WOUw28x2m0tfVN4RTSZuIdvbRCB0lIkxSmqQ_F1Lq-m8a","width":1920}],"place_id":"ChIJvXVLuJD3cg0RlgAD1qPUGGQ","plus_code":{"compound_code":"PH8F+33 Málaga","global_code":"8C8QPH8F+33"},"price_level":1,"rating":4.3,"reference":"ChIJvXVLuJD3cg0RlgAD1qPUGGQ","types":["restaurant","food","point_of_interest","establishment"],"user_ratings_total":168},{"business_status":"OPERATIONAL","formatted_address":"Pl. de la Nogalera, 7, 29620 Torremolinos, Málaga","geometry":{"location":{"lat":36.6227858,"lng":-4.4987954},"viewport":{"northeast":{"lat":36.62371877989272,"lng":-4.497940720107278},"southwest":{"lat":36.62101912010728,"lng":-4.500640379892721}}},"icon":"https://maps.gstatic.com/mapfiles/place_api/icons/v1/png_71/restaurant-71.png","icon_background_color":"#FF9E67","icon_mask_base_uri":"https://maps.gstatic.com/mapfiles/place_api/icons/v2/restaurant_pinlet","name":"Restaurante Palette","opening_hours":{"open_now":true},"photos":[{"height":3456,"html_attributions":["<a href=\"https://maps.google.com/maps/contrib/108110335469099837632\">Pizzeria Palette</a>"],"photo_reference":"AeJbb3eBEEJ9JtpmuYQxLmqzbSZS0vrb2MQOhfQL6qP25qbupHQmVWirgpWEbfp6kBuZzOSQ50Q3Xo7hVzdqlKmTfO1FPShJehjrk8islSomamzL9vzy0_KFUvNF_cslKNZPJOIyvNrC_L1mQ86wFMSfvXb8wM7wRa1uK58QJvLscRw9sHdc","width":5184}],"place_id":"ChIJx24vZu37cg0Rn4NRZl_t14k","plus_code":{"compound_code":"JGF2+4F Torremolinos","global_code":"8C8QJGF2+4F"},"price_level":1,"rating":4.2,"reference":"ChIJx24vZu37cg0Rn4NRZl_t14k","types":["restaurant","meal_takeaway","food","point_of_interest","establishment"],"user_ratings_total":953},{"business_status":"OPERATIONAL","formatted_address":"C. Casablanca, 17, 29620 Torremolinos, Málaga","geometry":{"location":{"lat":36.6207489,"lng":-4.4984833},"viewport":{"northeast":{"lat":36.62211077989272,"lng":-4.497192420107278},"southwest":{"lat":36.61941112010728,"lng":-4.499892079892722}}},"icon":"https://maps.gstatic.com/mapfiles/place_api/icons/v1/png_71/restaurant-71.png","icon_background_color":"#FF9E67","icon_mask_base_uri":"https://maps.gstatic.com/mapfiles/place_api/icons/v2/restaurant_pinlet","name":"Con Dos Huevos Gastrobar","opening_hours":{"open_now":false},"photos":[{"height":1365,"html_attributions":["<a href=\"https://maps.google.com/maps/contrib/118120756139590008368\">A Google User</a>"],"photo_reference":"AeJbb3f1tlEjfuIvOQm37AXAEunILRV_r1EZ_pe1jR5Y9Ay8qIlQzm6QmaGiWFQFMN4qTfO6EYXis4Rxjt-uYtGLdxWIuA6irqkDXv0eLko8S3MUYlojNCZccrySd8bYhCCeQgjWDTKxoEODr9eA3RYd4dhsa54ilIiPqWjyYgiFXR5FakzX","width":2048}],"place_id":"ChIJadt4i_L7cg0R2O2ZSS6TfC0","plus_code":{"compound_code":"JGC2+7J Torremolinos","global_code":"8C8QJGC2+7J"},"price_level":2,"rating":4.2,"reference":"ChIJadt4i_L7cg0R2O2ZSS6TfC0","types":["restaurant","food","point_of_interest","establishment"],"user_ratings_total":364},{"business_status":"OPERATIONAL","formatted_address":"C. Álamos, 18, 29008 Málaga","geometry":{"location":{"lat":36.7237398,"lng":-4.4195766},"viewport":{"northeast":{"lat":36.72511002989272,"lng":-4.418242420107278},"southwest":{"lat":36.72241037010728,"lng":-4.420942079892722}}},"icon":"https://maps.gstatic.com/mapfiles/place_api/icons/v1/png_71/restaurant-71.png","icon_background_color":"#FF9E67","icon_mask_base_uri":"https://maps.gstatic.com/mapfiles/place_api/icons/v2/restaurant_pinlet","name":"Noviembre Healthy Food","opening_hours":{"open_now":true},"photos":[{"height":3024,"html_attributions":["<a href=\"https://maps.google.com/maps/contrib/118294518531814748195\">ran</a>"],"photo_reference":"AeJbb3eAHlduGEu9dS3T_v_aVKzv8zK3QWKSmcdeFy86H8W2oUy17tQckKG_pA4PIoFmlG0MQB6Q9MwGHtaXyCZvoYgRx9Vv_V7yOJCCHJETzTM5S1NKwJixtUKecwF9P8cCR0mDiBUkwEi63vl9S3CT9tOyJi39_01mo5f6Uy6SiCApWbSI","width":4032}],"place_id":"ChIJuRXIor_3cg0R-HkmpCBbLrg","plus_code":{"compound_code":"PHFJ+F5 Málaga","global_code":"8C8QPHFJ+F5"},"price_level":2,"rating":4.1,"reference":"ChIJuRXIor_3cg0R-HkmpCBbLrg","types":["restaurant","food","point_of_interest","establishment"],"user_ratings_total":2525},{"business_status":"OPERATIONAL","formatted_address":"Av. del Puerto Deportivo, 29630 Benalmádena, Málaga","geometry":{"location":{"lat":36.5967588,"lng":-4.5148348},"viewport":{"northeast":{"lat":36.59817637989273,"lng":-4.513665220107278},"southwest":{"lat":36.59547672010728,"lng":-4.516364879892722}}},"icon":"https://maps.gstatic.com/mapfiles/place_api/icons/v1/png_71/restaurant-71.png","icon_background_color":"#FF9E67","icon_mask_base_uri":"https://maps.gstatic.com/mapfiles/place_api/icons/v2/restaurant_pinlet","name":"Daneku Ecológico","opening_hours":{"open_now":true},"photos":[{"height":2988,"html_attributions":["<a href=\"https://maps.google.com/maps/contrib/109860997409620217247\">Paul Dalgarno</a>"],"photo_reference":"AeJbb3d097UheUhnyd1F7uIVaFHKBTG8GyQ2efQrezGjVt3CJFgHV7IUhwIJvAW-kCAYaKAVdBY01GT29LVG6Z6vD6IONZ0HF6ZBxEvAT4vDFhEwtbkkCvONkeepK1pWyRo92zLvKkwt21yAyO5-ZW5E6FjcYEDb8rhXQBHyLUtccQBv4lhj","width":5312}],"place_id":"ChIJKYDCM1b9cg0RGeS7IbAM7oU","plus_code":{"compound_code":"HFWP+P3 Benalmádena","global_code":"8C8QHFWP+P3"},"rating":3.8,"reference":"ChIJKYDCM1b9cg0RGeS7IbAM7oU","types":["restaurant","food","point_of_interest","establishment"],"user_ratings_total":121},{"business_status":"OPERATIONAL","formatted_address":"P.º de la Marina, 15, 29730 La Cala del Moral, Málaga","geometry":{"location":{"lat":36.7148451,"lng":-4.2919414},"viewport":{"northeast":{"lat":36.71627177989272,"lng":-4.291165370107278},"southwest":{"lat":36.71357212010727,"lng":-4.293865029892721}}},"icon":"https://maps.gstatic.com/mapfiles/place_api/icons/v1/png_71/restaurant-71.png","icon_background_color":"#FF9E67","icon_mask_base_uri":"https://maps.gstatic.com/mapfiles/place_api/icons/v2/restaurant_pinlet","name":"Chiringuito Mi Cielito","opening_hours":{"open_now":true},"photos":[{"height":720,"html_attributions":["<a href=\"https://maps.google.com/maps/contrib/108918625469938682169\">A Google User</a>"],"photo_reference":"AeJbb3eN3_C5kPTNp78Mog0RSMjYdfsJLP4wwlcR0JrLMLvPLYIftNTAHiAgoxlgkZjoY4CsnWKh2xBmj5VQyyUJbqEmkjl9XfTxX7A7-zUwCzwieVWWVXoGe-9tWktsWvbn3VF4MVAPzBUnb6bPJFCcdeqXHjgeEggb0hksr4LGxyVc2S_7","width":720}],"place_id":"ChIJi32SZHJacg0R5nZKqXkvENY","plus_code":{"compound_code":"PP75+W6 La Cala del Moral","global_code":"8C8QPP75+W6"},"rating":3.7,"reference":"ChIJi32SZHJacg0R5nZKqXkvENY","types":["restaurant","food","point_of_interest","establishment"],"user_ratings_total":370},{"business_status":"OPERATIONAL","formatted_address":"C. Corregidor Paz Guzmán, 2, 29006 Málaga","geometry":{"location":{"lat":36.7125478,"lng":-4.4475507},"viewport":{"northeast":{"lat":36.71385602989272,"lng":-4.446189470107278},"southwest":{"lat":36.71115637010728,"lng":-4.448889129892722}}},"icon":"https://maps.gstatic.com/mapfiles/place_api/icons/v1/png_71/restaurant-71.png","icon_background_color":"#FF9E67","icon_mask_base_uri":"https://maps.gstatic.com/mapfiles/place_api/icons/v2/restaurant_pinlet","name":"Restaurante Vegano MalagaSalsa","photos":[{"height":1500,"html_attributions":["<a href=\"https://maps.google.com/maps/contrib/103805957121475061394\">A Google User</a>"],"photo_reference":"AeJbb3fplY-TtWOH4k4zyypHHJFIz3UVmNX555CTrvv_gnHAFdrRcO9ZjNsdtWgBbVMSLY8o_jdBinV9fhiuN8Qw6Hnf-XPgsVSQq6rGX5uHg0a7uy2OYUGVtqhbMoUtMPLV2jH4CZ8fl0iaK9k4dEqqjLmmAiiDsDVsQt3dcgRctdk-108J","width":2000}],"place_id":"ChIJk1XhjcD3cg0RfCX3BuyDZjI","plus_code":{"compound_code":"PH72+2X Málaga","global_code":"8C8QPH72+2X"},"rating":0,"reference":"ChIJk1XhjcD3cg0RfCX3BuyDZjI","types":["restaurant","food","point_of_interest","establishment"],"user_ratings_total":0}]