[{"business_status":"OPERATIONAL","formatted_address":"60 Powis St, London SE18 6LQ","geometry":{"location":{"lat":51.4915672,"lng":0.06652129999999999},"viewport":{"northeast":{"lat":51.49285892989273,"lng":0.06783807989272223},"southwest":{"lat":51.49015927010728,"lng":0.06513842010727779}}},"icon":"https://maps.gstatic.com/mapfiles/place_api/icons/v1/png_71/restaurant-71.png","icon_background_color":"#FF9E67","icon_mask_base_uri":"https://maps.gstatic.com/mapfiles/place_api/icons/v2/restaurant_pinlet","name":"German Doner Kebab","opening_hours":{},"place_id":"ChIJ36ZEsHWp2EcRlX6pTtRc9Z0","plus_code":{"compound_code":"F3R8+JJ London","global_code":"9F32F3R8+JJ"},"rating":5,"reference":"ChIJ36ZEsHWp2EcRlX6pTtRc9Z0","types":["restaurant","food","point_of_interest","establishment"],"user_ratings_total":2},{"business_status":"OPERATIONAL","formatted_address":"Bateman St, London W1D 4AG","geometry":{"location":{"lat":51.51406129999999,"lng":-0.1314474},"viewport":{"northeast":{"lat":51.51542992989273,"lng":-0.1300693701072778},"southwest":{"lat":51.51273027010728,"lng":-0.1327690298927222}}},"icon":"https://maps.gstatic.com/mapfiles/place_api/icons/v1/png_71/restaurant-71.png","icon_background_color":"#FF9E67","icon_mask_base_uri":"https://maps.gstatic.com/mapfiles/place_api/icons/v2/restaurant_pinlet","name":"tavuuk gemuse doner","opening_hours":{"open_now":true},"photos":[{"height":1800,"html_attributions":["<a href=\"https://maps.google.com/maps/contrib/115299884408102183141\">Milan Parmar</a>"],"photo_reference":"AeJbb3dvQR8QAaLQNcCgsaBPmyjkMJQFzzwMpuS90qj6n5opgzYlcG0VEqO4A9xpDL8lQQ4hMiCclPQvv5kLKBS1Mb-yy6z-ON_AOXJb2tmB68IkMRWTMOnWFBqJ-ENH1dXpnhEcHunDBcDTHhUiSPKl8k-yPGTG92zNfNp6uB52FRffVww4","width":4000}],"place_id":"ChIJq34S6-QFdkgRiXNsDEiK2Rc","plus_code":{"compound_code":"GV79+JC London","global_code":"9C3XGV79+JC"},"rating":4.7,"reference":"ChIJq34S6-QFdkgRiXNsDEiK2Rc","types":["restaurant","food","point_of_interest","establishment"],"user_ratings_total":237},{"business_status":"OPERATIONAL","formatted_address":"10 White Hart Ln, London N17 8DP","geometry":{"location":{"lat":51.6055311,"lng":-0.0690003},"viewport":{"northeast":{"lat":51.60689277989272,"lng":-0.06761472010727777},"southwest":{"lat":51.60419312010728,"lng":-0.07031437989272221}}},"icon":"https://maps.gstatic.com/mapfiles/place_api/icons/v1/png_71/restaurant-71.png","icon_background_color":"#FF9E67","icon_mask_base_uri":"https://maps.gstatic.com/mapfiles/place_api/icons/v2/restaurant_pinlet","name":"Tottenham's Kebab House","opening_hours":{"open_now":true},"photos":[{"height":528,"html_attributions":["<a href=\"https://maps.google.com/maps/contrib/113767848880864923809\">A Google User</a>"],"photo_reference":"AeJbb3f0J826FOHrZ_jELNoFqcK-bghVTaWHeNhntL-zL7X9i46rcI6I0GHrvXnD0dlSdG1ZIVviDzzCSrg2JoPvFLVrXyiKCoTW0FboffnLhPdIp9nUNXHQKoYju1pSQDLF0PHOqW7REe3B97zwm8bnePJiYIyQgb1T3j3TbR6okgOCfQMa","width":826}],"place_id":"ChIJb6vSz_EfdkgRlYoWer0Xfs0","plus_code":{"compound_code":"JW4J+69 London","global_code":"9C3XJW4J+69"},"rating":4.7,"reference":"ChIJb6vSz_EfdkgRlYoWer0Xfs0","types":["restaurant","point_of_interest","food","establishment"],"user_ratings_total":13},{"business_status":"OPERATIONAL","formatted_address":"92-94 King St, London W6 0QW","geometry":{"location":{"lat":51.4926422,"lng":-0.2299194},"viewport":{"northeast":{"lat":51.49398702989272,"lng":-0.2286283701072778},"southwest":{"lat":51.49128737010728,"lng":-0.2313280298927222}}},"icon":"https://maps.gstatic.com/mapfiles/place_api/icons/v1/png_71/restaurant-71.png","icon_background_color":"#FF9E67","icon_mask_base_uri":"https://maps.gstatic.com/mapfiles/place_api/icons/v2/restaurant_pinlet","name":"German Doner Kebab","opening_hours":{"open_now":true},"photos":[{"height":1908,"html_attributions":["<a href=\"https://maps.google.com/maps/contrib/115608413107985999431\">Ahmed Nahrawy</a>"],"photo_reference":"AeJbb3fESCSe0wIs5rvRzhNtjuaasKqnpa-HI0H5Q-5DCIvfQ44XoKbs2jVK0BMrPfhaw1XGx7hjaZ3Z_Ji1_zo73PIWV1jQtGfAY9TynEphVtvaHdCFPhTxL_TeOmJg2N8mjWntEqQfAO89MgUOoPDCD60NYF3tMRWxJ6DP2h6kN78INKZM","width":4032}],"place_id":"ChIJiaKB2W4PdkgRDNB0SYul3CU","plus_code":{"compound_code":"FQVC+32 London","global_code":"9C3XFQVC+32"},"price_level":2,"rating":4.6,"reference":"ChIJiaKB2W4PdkgRDNB0SYul3CU","types":["meal_takeaway","restaurant","food","point_of_interest","establishment"],"user_ratings_total":325},{"business_status":"OPERATIONAL","formatted_address":"297a Stanstead Rd, London SE23 1JB","geometry":{"location":{"lat":51.4424447,"lng":-0.03490140000000001},"viewport":{"northeast":{"lat":51.44374252989272,"lng":-0.03356222010727778},"southwest":{"lat":51.44104287010727,"lng":-0.03626187989272221}}},"icon":"https://maps.gstatic.com/mapfiles/place_api/icons/v1/png_71/restaurant-71.png","icon_background_color":"#FF9E67","icon_mask_base_uri":"https://maps.gstatic.com/mapfiles/place_api/icons/v2/restaurant_pinlet","name":"Berlin Doner Kebab","opening_hours":{"open_now":true},"photos":[{"height":322,"html_attributions":["<a href=\"https://maps.google.com/maps/contrib/100685282214934591496\">A Google User</a>"],"photo_reference":"AeJbb3fNOVg8WHDjfZavnnYe6AJMQpHj-1VDOrWcsdVMiy6vx_M5TUBsVo7ska_8vNuBDyBCx8HtJg8Ks5NBUaQijl_V6dbv2ObsreANKjeAYdIMLSy7RloJEOqJJnScI6Kc7BcH-KPn2MWUbLJ0NH5_VR5rlmqI3V3P2-Z4hLfSJq_dXLBh","width":445}],"place_id":"ChIJzWiQPVYDdkgRGpPKt09JCWo","plus_code":{"compound_code":"CXR8+X2 London","global_code":"9C3XCXR8+X2"},"rating":4.6,"reference":"ChIJzWiQPVYDdkgRGpPKt09JCWo","types":["meal_takeaway","restaurant","point_of_interest","food","establishment"],"user_ratings_total":46},{"business_status":"OPERATIONAL","formatted_address":"The O2, Peninsula Square, London SE10 0DX","geometry":{"location":{"lat":51.50375529999999,"lng":0.004291},"viewport":{"northeast":{"lat":51.50533682989272,"lng":0.005957779892722216},"southwest":{"lat":51.50263717010728,"lng":0.003258120107277784}}},"icon":"https://maps.gstatic.com/mapfiles/place_api/icons/v1/png_71/restaurant-71.png","icon_background_color":"#FF9E67","icon_mask_base_uri":"https://maps.gstatic.com/mapfiles/place_api/icons/v2/restaurant_pinlet","name":"German Doner Kebab","opening_hours":{"open_now":true},"photos":[{"height":421,"html_attributions":["<a href=\"https://maps.google.com/maps/contrib/115032255403862599881\">A Google User</a>"],"photo_reference":"AeJbb3eUUObL2IEMx4dklurhOHZJU38ngz8wIrsgzfhT35ef7eOcjfgUnL7L6pT_5TuCYh6SQSIqLxcKN_KexbFt2uJjXnJKRzLSj5Q339tj0_S1tGj1dPU9d4JLrt3M-8Gd_2IqHniFp5dRXh2GbQbdq2t06CkAT20oKT9zgdN3Z9s39E_O","width":800}],"place_id":"ChIJ47evUDip2EcRx8tCKnbFyhE","plus_code":{"compound_code":"G233+GP London","global_code":"9F32G233+GP"},"price_level":2,"rating":4.5,"reference":"ChIJ47evUDip2EcRx8tCKnbFyhE","types":["meal_takeaway","restaurant","food","point_of_interest","establishment"],"user_ratings_total":583},{"business_status":"OPERATIONAL","formatted_address":"48 Pitshanger Ln, London W5 1QY","geometry":{"location":{"lat":51.5257735,"lng":-0.3159061},"viewport":{"northeast":{"lat":51.52708637989272,"lng":-0.3145366701072778},"southwest":{"lat":51.52438672010728,"lng":-0.3172363298927222}}},"icon":"https://maps.gstatic.com/mapfiles/place_api/icons/v1/png_71/restaurant-71.png","icon_background_color":"#FF9E67","icon_mask_base_uri":"https://maps.gstatic.com/mapfiles/place_api/icons/v2/restaurant_pinlet","name":"WEST KEBAB EALING(Pitshanger Lane)","opening_hours":{"open_now":true},"photos":[{"height":3024,"html_attributions":["<a href=\"https://maps.google.com/maps/contrib/102439052581883439255\">Alan Gurling</a>"],"photo_reference":"AeJbb3dz9qSICJxKIx-CAwWLVFZEKs7m46PtdCp4M9mkyaUWuHAs6XIEwObH6wZOl0zol-bDSTWyvlm4FdYdcCqHDRlq_esKxckcJoUIWb4w_K4RW-6jj8mI0N5jDwnd6WtpsvmphPZPgAKa_nL5Do7znYTOWu9fktBWJZNtQhjay5I6eTom","width":4032}],"place_id":"ChIJpfZM228SdkgRjc5mjfwyjfU","plus_code":{"compound_code":"GMGM+8J London","global_code":"9C3XGMGM+8J"},"price_level":1,"rating":4.5,"reference":"ChIJpfZM228SdkgRjc5mjfwyjfU","types":["meal_takeaway","restaurant","food","point_of_interest","establishment"],"user_ratings_total":369},{"business_status":"OPERATIONAL","formatted_address":"144 Eltham High St, London SE9 1BJ","geometry":{"location":{"lat":51.4505784,"lng":0.0554859},"viewport":{"northeast":{"lat":51.45200067989273,"lng":0.05684362989272222},"southwest":{"lat":51.44930102010728,"lng":0.05414397010727779}}},"icon":"https://maps.gstatic.com/mapfiles/place_api/icons/v1/png_71/restaurant-71.png","icon_background_color":"#FF9E67","icon_mask_base_uri":"https://maps.gstatic.com/mapfiles/place_api/icons/v2/restaurant_pinlet","name":"German Doner Kebab","opening_hours":{"open_now":true},"photos":[{"height":2268,"html_attributions":["<a href=\"https://maps.google.com/maps/contrib/110067604003189232967\">William connolly</a>"],"photo_reference":"AeJbb3cMw304KZqVdGjQgeB6juGSAvasNt7o0csceS0M0ZaQ7JIo0n0mO43iY9jzVqfg3y9TJY5BbeSRkdlVUCxuZ-0DPwy4q_gY_wipppWbKuNroXkOMcHrSpLgBx1Fz4s-ZYle_wI7o-zGQFBnWvaifat4t5BWTKlKFisuKxdDHHijg-_-","width":4032}],"place_id":"ChIJJfy8u6ap2EcREBu7txKcTcw","plus_code":{"compound_code":"F324+65 London","global_code":"9F32F324+65"},"price_level":2,"rating":4.5,"reference":"ChIJJfy8u6ap2EcREBu7txKcTcw","types":["meal_takeaway","restaurant","food","point_of_interest","establishment"],"user_ratings_total":349},{"business_status":"OPERATIONAL","formatted_address":"313 Lea Bridge Rd, London E10 7NE","geometry":{"location":{"lat":51.5702278,"lng":-0.0258561},"viewport":{"northeast":{"lat":51.57154757989272,"lng":-0.02447352010727778},"southwest":{"lat":51.56884792010728,"lng":-0.02717317989272221}}},"icon":"https://maps.gstatic.com/mapfiles/place_api/icons/v1/png_71/restaurant-71.png","icon_background_color":"#FF9E67","icon_mask_base_uri":"https://maps.gstatic.com/mapfiles/place_api/icons/v2/restaurant_pinlet","name":"BERLINER GERMAN DONER KEBAB & PIZZA","opening_hours":{"open_now":true},"photos":[{"height":4000,"html_attributions":["<a href=\"https://maps.google.com/maps/contrib/101814629093663997531\">A Google User</a>"],"photo_reference":"AeJbb3ecHZOjCeeIft25ill8887ac4XfGcOC1-NUDB3AhWbQBusMhWgRW7Y6ZVTeWrfxDj5Cy0Ji5pkwP0gdv85dJCJ2WCvKG8jn_ztlmzM8sHTkcyk1KiN3okMeP1gC_XTz-L0ATlitieZP9ozk9uoZIqpA9YqE8FZ7MY3EJrCh06ISNqQ","width":3000}],"place_id":"ChIJF9bpj4EddkgRDQ0WmfvSaRg","plus_code":{"compound_code":"HXCF+4J London","global_code":"9C3XHXCF+4J"},"rating":4.5,"reference":"ChIJF9bpj4EddkgRDQ0WmfvSaRg","types":["restaurant","meal_takeaway","food","point_of_interest","establishment"],"user_ratings_total":142},{"business_status":"OPERATIONAL","formatted_address":"54 High St, Southall UB1 3DB","geometry":{"location":{"lat":51.51072449999999,"lng":-0.3735226},"viewport":{"northeast":{"lat":51.51217717989272,"lng":-0.3721222701072777},"southwest":{"lat":51.50947752010728,"lng":-0.3748219298927222}}},"icon":"https://maps.gstatic.com/mapfiles/place_api/icons/v1/png_71/restaurant-71.png","icon_background_color":"#FF9E67","icon_mask_base_uri":"https://maps.gstatic.com/mapfiles/place_api/icons/v2/restaurant_pinlet","name":"London Doner Kebab","opening_hours":{"open_now":true},"photos":[{"height":2128,"html_attributions":["<a href=\"https://maps.google.com/maps/contrib/104554382827444345640\">priya bhatia</a>"],"photo_reference":"AeJbb3f3D-7wm0sdtA_ZOb16ciJ25RNkjg0DI4vVD6O9yDRe97K2wV1Hi1tZGCmXg8MCJ6AY7tV2LDHpqPZGpjWA8LQ6yZ0nld4N5sKdplXPkvBJFXPbH65R_G7U0u6Bcz3uReBbZ4uokl42v8mw8uFIXUvijA0su008RO0X6r798rtx47Wl","width":4608}],"place_id":"ChIJjUYLDagNdkgRHsAOJ8_IHvc","plus_code":{"compound_code":"GJ6G+7H Southall","global_code":"9C3XGJ6G+7H"},"rating":4.5,"reference":"ChIJjUYLDagNdkgRHsAOJ8_IHvc","types":["restaurant","food","point_of_interest","establishment"],"user_ratings_total":94},{"business_status":"OPERATIONAL","formatted_address":"2 Greycoat Pl, London SW1P 1SB","geometry":{"location":{"lat":51.4965625,"lng":-0.1339498},"viewport":{"northeast":{"lat":51.49790577989272,"lng":-0.1325158701072778},"southwest":{"lat":51.49520612010728,"lng":-0.1352155298927222}}},"icon":"https://maps.gstatic.com/mapfiles/place_api/icons/v1/png_71/restaurant-71.png","icon_background_color":"#FF9E67","icon_mask_base_uri":"https://maps.gstatic.com/mapfiles/place_api/icons/v2/restaurant_pinlet","name":"ANOSH DONER KEBAB","opening_hours":{},"photos":[{"height":674,"html_attributions":["<a href=\"https://maps.google.com/maps/contrib/112474801703164812171\">A Google User</a>"],"photo_reference":"AeJbb3eI8D78A0t-DwfpBZHM6ntBUG8qdHx9Jrsg_rDaNgnu3ps8PwQ9dcXt2FDslthe9mYPPHTqjGs_UUne-0QP7B23ISf0l_XtDQfTcE4obfr6LshdkTHNY9G2Lmq7Mhxf7z5C_y2PqrHNEnQDKEtPeg1GHag1U5pDE4rbx1DZ-DdzGl57","width":675}],"place_id":"ChIJXbn1xooFdkgRYu5TCWNwiNI","plus_code":{"compound_code":"FVW8+JC London","global_code":"9C3XFVW8+JC"},"rating":4.5,"reference":"ChIJXbn1xooFdkgRYu5TCWNwiNI","types":["restaurant","point_of_interest","food","establishment"],"user_ratings_total":72},{"business_status":"OPERATIONAL","formatted_address":"816 Hertford Rd, Enfield EN3 6UE","geometry":{"location":{"lat":51.6771106,"lng":-0.0351902},"viewport":{"northeast":{"lat":51.67843827989272,"lng":-0.03375962010727778},"southwest":{"lat":51.67573862010728,"lng":-0.03645927989272221}}},"icon":"https://maps.gstatic.com/mapfiles/place_api/icons/v1/png_71/restaurant-71.png","icon_background_color":"#FF9E67","icon_mask_base_uri":"https://maps.gstatic.com/mapfiles/place_api/icons/v2/restaurant_pinlet","name":"Zee Best Doner","opening_hours":{"open_now":true},"photos":[{"height":768,"html_attributions":["<a href=\"https://maps.google.com/maps/contrib/104334447136949599678\">Mary Jeffers</a>"],"photo_reference":"AeJbb3cuwBHTsTyLxXB-QZoX8Y_WXXs9aMw7IBnrOBzH5zSd4VudVFk63PMbgtwlAtivWV8Bb9R0k8tp78z7Wuew6VMjkpVYP7_tBtfj0gplt5G1OKGN3e_njjwjdMeW-3KtraIGIDUoH8kXzu_aQMt6sXER_Jlwd6yYeWjsGxIfKLq3bfgc","width":1024}],"place_id":"ChIJg3NX1qEfdkgR-Nqh77w9hh4","plus_code":{"compound_code":"MXG7+RW Enfield","global_code":"9C3XMXG7+RW"},"rating":4.5,"reference":"ChIJg3NX1qEfdkgR-Nqh77w9hh4","types":["restaurant","food","point_of_interest","establishment"],"user_ratings_total":65},{"business_status":"OPERATIONAL","formatted_address":"43 Grand Parade, Green Lanes, Harringay Ladder, London N4 1AQ","geometry":{"location":{"lat":51.57955639999999,"lng":-0.09903590000000001},"viewport":{"northeast":{"lat":51.58090367989272,"lng":-0.09771082010727777},"southwest":{"lat":51.57820402010728,"lng":-0.1004104798927222}}},"icon":"https://maps.gstatic.com/mapfiles/place_api/icons/v1/png_71/restaurant-71.png","icon_background_color":"#FF9E67","icon_mask_base_uri":"https://maps.gstatic.com/mapfiles/place_api/icons/v2/restaurant_pinlet","name":"Antepliler Doner","opening_hours":{"open_now":true},"photos":[{"height":1080,"html_attributions":["<a href=\"https://maps.google.com/maps/contrib/109346653637359106687\">A Google User</a>"],"photo_reference":"AeJbb3cQToaW0_FLpNvNVPvp5RNkBM06VhIoKY8vgpcFw0wxxZEiaBF35vrJP5KUyr5qDnZllDUHng7mlLIALBz7ggUc3I7SYzcubfKoP5ShmuhWUAReXLLKPURVq1DAh1uygRuEVfsUmyGyCJn7rFKnM-U3VBpBJDKQZR02hIT0ZYgo0EGQ","width":1080}],"place_id":"ChIJgY3UoNkbdkgRj45muRRwjZI","plus_code":{"compound_code":"HWH2+RC London","global_code":"9C3XHWH2+RC"},"rating":4.4,"reference":"ChIJgY3UoNkbdkgRj45muRRwjZI","types":["restaurant","food","point_of_interest","establishment"],"user_ratings_total":647},{"business_status":"OPERATIONAL","formatted_address":"19 Upper Tooting Rd, Tooting Bec, London SW17 7TS","geometry":{"location":{"lat":51.4351618,"lng":-0.1605465},"viewport":{"northeast":{"lat":51.43653877989272,"lng":-0.1592320201072778},"southwest":{"lat":51.43383912010728,"lng":-0.1619316798927222}}},"icon":"https://maps.gstatic.com/mapfiles/place_api/icons/v1/png_71/restaurant-71.png","icon_background_color":"#FF9E67","icon_mask_base_uri":"https://maps.gstatic.com/mapfiles/place_api/icons/v2/restaurant_pinlet","name":"Istanbul Kebab & Mangal","opening_hours":{"open_now":true},"photos":[{"height":4000,"html_attributions":["<a href=\"https://maps.google.com/maps/contrib/103125488149234457922\">ana vidlanovic</a>"],"photo_reference":"AeJbb3e1-wnvofMGqg5Kyd4mciGoAMBf8FhzY8kFxbs10t2heCLIiScE6XHTkTx7ai9C5ZciiNXCD-XPX7qwJS5elrdY1_wo2mXZjlNoV0OEKHRfQv6JM5G3xDiT9z3Z9qfVNvNYbK8WqT91wgY7Tay_kHdGhq13bkCPvcZ82QRD-zDLwOVn","width":3000}],"place_id":"ChIJt3ehkd4FdkgRtKfIsH6vrcs","plus_code":{"compound_code":"CRPQ+3Q London","global_code":"9C3XCRPQ+3Q"},"price_level":1,"rating":4.4,"reference":"ChIJt3ehkd4FdkgRtKfIsH6vrcs","types":["restaurant","food","point_of_interest","establishment"],"user_ratings_total":221},{"business_status":"OPERATIONAL","formatted_address":"54 Willesden, High Rd NW10 2PU","geometry":{"location":{"lat":51.5473577,"lng":-0.2282118},"viewport":{"northeast":{"lat":51.54867412989272,"lng":-0.2268505201072777},"southwest":{"lat":51.54597447010728,"lng":-0.2295501798927222}}},"icon":"https://maps.gstatic.com/mapfiles/place_api/icons/v1/png_71/restaurant-71.png","icon_background_color":"#FF9E67","icon_mask_base_uri":"https://maps.gstatic.com/mapfiles/place_api/icons/v2/restaurant_pinlet","name":"German Doner Kebab","opening_hours":{"open_now":true},"photos":[{"height":421,"html_attributions":["<a href=\"https://maps.google.com/maps/contrib/107881632580761833974\">A Google User</a>"],"photo_reference":"AeJbb3d6mPZtuLfZpROopK59X-EaSUuqfJMnomq86BwyJCsu_x6OIqHkDxC1a7nPk0fVJA9lkpMiuQObL7wqHJZhUOvnytDBsRxsW4-0BLK-72-oSRHemxCLP9PRAh3e3e7Lvfo9sWWJUMWVBNoV3Ncfu_WfEYDUWRYIO1nJ9lVtK_b_Zw81","width":800}],"place_id":"ChIJDfQ63HARdkgR8IKHDhYRP8Q","plus_code":{"compound_code":"GQWC+XP London","global_code":"9C3XGQWC+XP"},"price_level":2,"rating":4.4,"reference":"ChIJDfQ63HARdkgR8IKHDhYRP8Q","types":["meal_takeaway","restaurant","point_of_interest","food","establishment"],"user_ratings_total":109},{"business_status":"OPERATIONAL","formatted_address":"St Martin's Ln, London WC2N 4JS","geometry":{"location":{"lat":51.51126739999999,"lng":-0.1270224},"viewport":{"northeast":{"lat":51.51259667989273,"lng":-0.1257152201072778},"southwest":{"lat":51.50989702010728,"lng":-0.1284148798927222}}},"icon":"https://maps.gstatic.com/mapfiles/place_api/icons/v1/png_71/restaurant-71.png","icon_background_color":"#FF9E67","icon_mask_base_uri":"https://maps.gstatic.com/mapfiles/place_api/icons/v2/restaurant_pinlet","name":"German Doner Kebab","opening_hours":{"open_now":true},"photos":[{"height":421,"html_attributions":["<a href=\"https://maps.google.com/maps/contrib/108136971346823824344\">A Google User</a>"],"photo_reference":"AeJbb3cEWyJSjklcYlqHvJV4I2iLFvy4Rk_BBHNJ6rM4njCOkE3cqI7CieQAhHL4m0tJKMbwtaGuXJ0OG9KX4Hojq6r1zxRcbH2lYQJY01kPMC2kpSNjMvuWM6fUUyjetja_8nsBddfK-Ekz57qJRFfRNlpSvzpzSHaGPB7ACwCvZRxE70Kv","width":800}],"place_id":"ChIJu4zfeu8FdkgRCnQTUWu9uZg","plus_code":{"compound_code":"GV6F+G5 London","global_code":"9C3XGV6F+G5"},"price_level":2,"rating":4.4,"reference":"ChIJu4zfeu8FdkgRCnQTUWu9uZg","types":["meal_takeaway","restaurant","food","point_of_interest","establishment"],"user_ratings_total":84},{"business_status":"OPERATIONAL","formatted_address":"22 Shoreditch High St, London E1 6PG","geometry":{"location":{"lat":51.5222795,"lng":-0.07779599999999999},"viewport":{"northeast":{"lat":51.52364552989272,"lng":-0.07652262010727778},"southwest":{"lat":51.52094587010728,"lng":-0.07922227989272222}}},"icon":"https://maps.gstatic.com/mapfiles/place_api/icons/v1/png_71/restaurant-71.png","icon_background_color":"#FF9E67","icon_mask_base_uri":"https://maps.gstatic.com/mapfiles/place_api/icons/v2/restaurant_pinlet","name":"London Doner Kebab","opening_hours":{"open_now":true},"photos":[{"height":2109,"html_attributions":["<a href=\"https://maps.google.com/maps/contrib/101019696820103142788\">Riz Mamodnurani</a>"],"photo_reference":"AeJbb3eXem5KsXQrorZqkgafZW1JbSjGk2AdKUMDpUmtNNB1MTvlnxP4CHxVXzupavNStGIZqzKWJAYBsDgoraIUBPsxEcZ9Y3QluLJPa4Bkntc5NSCB4XMYPG_0L-pMTcLSIVt18izaPuunSsbO_L43zGN1pzpFbdZVns34uD6tzfzWw7kV","width":1284}],"place_id":"ChIJS3rLXwMddkgRE_UreMRsw_o","plus_code":{"compound_code":"GWCC+WV London","global_code":"9C3XGWCC+WV"},"rating":4.4,"reference":"ChIJS3rLXwMddkgRE_UreMRsw_o","types":["restaurant","food","point_of_interest","establishment"],"user_ratings_total":17},{"business_status":"OPERATIONAL","formatted_address":"4a Clifton Terrace, Finsbury Park, London N4 3JP","geometry":{"location":{"lat":51.5655081,"lng":-0.1081007},"viewport":{"northeast":{"lat":51.56686757989272,"lng":-0.1067155701072778},"southwest":{"lat":51.56416792010727,"lng":-0.1094152298927222}}},"icon":"https://maps.gstatic.com/mapfiles/place_api/icons/v1/png_71/restaurant-71.png","icon_background_color":"#FF9E67","icon_mask_base_uri":"https://maps.gstatic.com/mapfiles/place_api/icons/v2/restaurant_pinlet","name":"German Doner Kebab","opening_hours":{"open_now":true},"photos":[{"height":421,"html_attributions":["<a href=\"https://maps.google.com/maps/contrib/116066125622434210815\">A Google User</a>"],"photo_reference":"AeJbb3fYSiW-V6y2vn39eoR1SqXqF1bUlaDPKoul7PaxFd_c4nAgc2xmDYVR4oRbWGWfzdGZLjJLgblS77IPENNJnuK354evTme3XIcndM0RPbFmcKSU_x2IJ5Is5jDOVQE_u15_uET2iKmn_NmBr8YMx5_6TNpl-WRhOSTHRmaHYADd2ssh","width":800}],"place_id":"ChIJg-2xLb4bdkgRQaNMKBcVtBY","plus_code":{"compound_code":"HV8R+5P London","global_code":"9C3XHV8R+5P"},"price_level":2,"rating":4.3,"reference":"ChIJg-2xLb4bdkgRQaNMKBcVtBY","types":["meal_takeaway","restaurant","food","point_of_interest","establishment"],"user_ratings_total":669},{"business_status":"OPERATIONAL","formatted_address":"Felicity Court, 205 High Rd, London N22 6DR","geometry":{"location":{"lat":51.5970287,"lng":-0.1100634},"viewport":{"northeast":{"lat":51.59841417989272,"lng":-0.1086264701072778},"southwest":{"lat":51.59571452010728,"lng":-0.1113261298927222}}},"icon":"https://maps.gstatic.com/mapfiles/place_api/icons/v1/png_71/restaurant-71.png","icon_background_color":"#FF9E67","icon_mask_base_uri":"https://maps.gstatic.com/mapfiles/place_api/icons/v2/restaurant_pinlet","name":"Doner Daddy Kebab Takeaway and Restaurant","opening_hours":{"open_now":true},"photos":[{"height":1960,"html_attributions":["<a href=\"https://maps.google.com/maps/contrib/108935934979309946023\">Jayson Daniels</a>"],"photo_reference":"AeJbb3c0gL1y_heMdISAUWFCJVCYQJwr8Sfjk8iQhOvVZ7Cv2Y2P8qTvjTQHmoTpJzutWKfrMrGG_DLYLJfRfr8Oa-FZ0HWah5ltpYGZPMRmUkP8lq6YSDdde6F1cBdNCap0fowYhDbujTxnr_Yaan02el5FLZJWZqc9QV1CzYVpz68oCyoa","width":4032}],"place_id":"ChIJZ9sCQycbdkgR-_PFrECWyR8","plus_code":{"compound_code":"HVWQ+RX London","global_code":"9C3XHVWQ+RX"},"price_level":2,"rating":4.3,"reference":"ChIJZ9sCQycbdkgR-_PFrECWyR8","types":["meal_takeaway","restaurant","food","point_of_interest","establishment"],"user_ratings_total":359},{"business_status":"OPERATIONAL","formatted_address":"Box Park, 18 Olympic Way, Wembley Park, Wembley HA9 0JT","geometry":{"location":{"lat":51.5607451,"lng":-0.2799563},"viewport":{"northeast":{"lat":51.56210432989272,"lng":-0.2785750701072777},"southwest":{"lat":51.55940467010728,"lng":-0.2812747298927222}}},"icon":"https://maps.gstatic.com/mapfiles/place_api/icons/v1/png_71/restaurant-71.png","icon_background_color":"#FF9E67","icon_mask_base_uri":"https://maps.gstatic.com/mapfiles/place_api/icons/v2/restaurant_pinlet","name":"German Doner Kebab","opening_hours":{"open_now":true},"photos":[{"height":4032,"html_attributions":["<a href=\"https://maps.google.com/maps/contrib/103461136973714373307\">Jag Dhat</a>"],"photo_reference":"AeJbb3c9fIMQgrQsVnf5R7maeohlCvTM_jtz5xlp4pNiUJml4RnjgR3bWLtSHTy3e-mzIQKzyznb5gewXO4-c34nCbWN9pLGtXS3YByMb4A_OvE6ohTN-V6a-0gbMTO7CpKgLW5LTqKY4C2kzwWpIUwnnEVchfsgNMXPqcoU3QmLc9C65zUi","width":3024}],"place_id":"ChIJ3T0pmnwRdkgRdQkyodJb8UA","plus_code":{"compound_code":"HP6C+72 Wembley","global_code":"9C3XHP6C+72"},"price_level":2,"rating":4.3,"reference":"ChIJ3T0pmnwRdkgRdQkyodJb8UA","types":["meal_takeaway","restaurant","point_of_interest","food","establishment"],"user_ratings_total":209},{"business_status":"OPERATIONAL","formatted_address":"Unit 2, Naggs Head Shopping Centre, Holloway Rd, London N7 6PZ","geometry":{"location":{"lat":51.5569621,"lng":-0.1177887},"viewport":{"northeast":{"lat":51.55826727989272,"lng":-0.1165168701072778},"southwest":{"lat":51.55556762010727,"lng":-0.1192165298927222}}},"icon":"https://maps.gstatic.com/mapfiles/place_api/icons/v1/png_71/restaurant-71.png","icon_background_color":"#FF9E67","icon_mask_base_uri":"https://maps.gstatic.com/mapfiles/place_api/icons/v2/restaurant_pinlet","name":"German Doner Kebab","opening_hours":{"open_now":true},"photos":[{"height":421,"html_attributions":["<a href=\"https://maps.google.com/maps/contrib/109507751744726779462\">A Google User</a>"],"photo_reference":"AeJbb3cU94aqBgrn2D8qSILGFrd6Lng1kpuRUL279GV6e6vxWfi5lF9fb5-BC9WvXdswXc-_6h79vY9w3LkkgtjJxQqm_cvUOEb2r65RMJU4h1oqv7G692KvT_ro7yEgegYhzy_RTvIGHmjHM6M0-RKu7nT_2ugQnPITuG3JF27wZMtCj04V","width":800}],"place_id":"ChIJhaXiDW0bdkgR2aJ7UC-80yE","plus_code":{"compound_code":"HV4J+QV London","global_code":"9C3XHV4J+QV"},"price_level":2,"rating":4.3,"reference":"ChIJhaXiDW0bdkgR2aJ7UC-80yE","types":["meal_takeaway","restaurant","food","point_of_interest","establishment"],"user_ratings_total":183},{"business_status":"OPERATIONAL","formatted_address":"163 Cannon St Rd, London E1 2LX","geometry":{"location":{"lat":51.51389649999999,"lng":-0.0617977},"viewport":{"northeast":{"lat":51.51525062989271,"lng":-0.06039887010727778},"southwest":{"lat":51.51255097010727,"lng":-0.06309852989272222}}},"icon":"https://maps.gstatic.com/mapfiles/place_api/icons/v1/png_71/restaurant-71.png","icon_background_color":"#FF9E67","icon_mask_base_uri":"https://maps.gstatic.com/mapfiles/place_api/icons/v2/restaurant_pinlet","name":"The Ottoman Doner® - Whitechapel","opening_hours":{"open_now":true},"photos":[{"height":1960,"html_attributions":["<a href=\"https://maps.google.com/maps/contrib/113139471403333158268\">Syed Ilias Ali</a>"],"photo_reference":"AeJbb3d7tpAxMP_wHUtsn-JKqvsGyAldeAGTyToibncRbWqsYQH1xk_wUhHtZ8rHxN9hhKry2Hr9qN4eipzP2_dC6s-_vj_zXjcj-i3EvgwUZ2HHn29WPF6oRjrjzJjenXaGgjCKgQsO6CYziKTfZf5DMiOd0cRpi3Jb66-Wiby07G9WMWxI","width":4032}],"place_id":"ChIJ9wHt5LgDdkgR7YOLAhqZDEk","plus_code":{"compound_code":"GW7Q+H7 London","global_code":"9C3XGW7Q+H7"},"rating":4.2,"reference":"ChIJ9wHt5LgDdkgR7YOLAhqZDEk","types":["restaurant","food","point_of_interest","establishment"],"user_ratings_total":560},{"business_status":"OPERATIONAL","formatted_address":"40 The Broadway, London W5 2NP","geometry":{"location":{"lat":51.5143672,"lng":-0.3022455},"viewport":{"northeast":{"lat":51.51571932989273,"lng":-0.3008398701072778},"southwest":{"lat":51.51301967010728,"lng":-0.3035395298927223}}},"icon":"https://maps.gstatic.com/mapfiles/place_api/icons/v1/png_71/restaurant-71.png","icon_background_color":"#FF9E67","icon_mask_base_uri":"https://maps.gstatic.com/mapfiles/place_api/icons/v2/restaurant_pinlet","name":"Ali's Doner","opening_hours":{"open_now":true},"photos":[{"height":3024,"html_attributions":["<a href=\"https://maps.google.com/maps/contrib/106940218410473080523\">fat les</a>"],"photo_reference":"AeJbb3dd1bobeSGMOvfFkFTNcP9iX5Wk8ZpWFpm3um3e0KSOfSg_xEQOafvVHckYzz9_LeXag0DZ4yHCtRHZCbjtDpWc66hYK74tOIwniTcL-FIRC2-jDAWhbJ7MbVgSdXKhW8uDFKjJL1_2K8iJt2ajvlk9eQmV2QNtsW_Tct5hNxIeC7qL","width":4032}],"place_id":"ChIJXdaQiPUNdkgRMStRWxr7yBw","plus_code":{"compound_code":"GM7X+P3 London","global_code":"9C3XGM7X+P3"},"rating":4.2,"reference":"ChIJXdaQiPUNdkgRMStRWxr7yBw","types":["restaurant","point_of_interest","food","establishment"],"user_ratings_total":477},{"business_status":"OPERATIONAL","formatted_address":"68 Cleveland St, London W1T 6LX","geometry":{"location":{"lat":51.5218199,"lng":-0.1401038},"viewport":{"northeast":{"lat":51.52314167989272,"lng":-0.1388334701072778},"southwest":{"lat":51.52044202010728,"lng":-0.1415331298927222}}},"icon":"https://maps.gstatic.com/mapfiles/place_api/icons/v1/png_71/restaurant-71.png","icon_background_color":"#FF9E67","icon_mask_base_uri":"https://maps.gstatic.com/mapfiles/place_api/icons/v2/restaurant_pinlet","name":"German Doner Kebab & Grill","opening_hours":{"open_now":true},"photos":[{"height":672,"html_attributions":["<a href=\"https://maps.google.com/maps/contrib/103437695860036060606\">A Google User</a>"],"photo_reference":"AeJbb3d7BDBL0OPPxYzScGBDjeZ54xXG20RsdglXTKCKF8wNOoQ-mHee342XXOrvscJe8-6U2fnTJc603FkqARToUcGS8pTEqGaRXWp-PnmNrxvhjFqfw7rGHkO_F6zG22dWyo4wfW1eC6GUu8guDTVgZ-VlU8rw0IjVGR89Tb09OD0Ytq-P","width":1200}],"place_id":"ChIJm99CwykbdkgRNkHtwtHprf4","plus_code":{"compound_code":"GVC5+PX London","global_code":"9C3XGVC5+PX"},"price_level":1,"rating":4.2,"reference":"ChIJm99CwykbdkgRNkHtwtHprf4","types":["restaurant","food","point_of_interest","establishment"],"user_ratings_total":144},{"business_status":"OPERATIONAL","formatted_address":"286 Hoe St, London E17 9QD","geometry":{"location":{"lat":51.5822508,"lng":-0.0187805},"viewport":{"northeast":{"lat":51.58361322989272,"lng":-0.01732157010727778},"southwest":{"lat":51.58091357010728,"lng":-0.02002122989272221}}},"icon":"https://maps.gstatic.com/mapfiles/place_api/icons/v1/png_71/restaurant-71.png","icon_background_color":"#FF9E67","icon_mask_base_uri":"https://maps.gstatic.com/mapfiles/place_api/icons/v2/restaurant_pinlet","name":"Doner Zone","opening_hours":{"open_now":true},"photos":[{"height":4032,"html_attributions":["<a href=\"https://maps.google.com/maps/contrib/104633901876766441806\">Vidas K</a>"],"photo_reference":"AeJbb3dKfrO6yyJZYevN54d834NNv9tyIDAMPTMAvpRhOHtUSRei_Sl7vqWBfmbYrZkMqPGXsCNkFq3lBPAXOAc_9OOOpiF0T2qEwmodbb6qann4zJb7Bg21n05VgWjIuX54pR4OnFYKMFrOIer9jBGsMK9P7jgKHcMdttDxwVd-tR8Hccc","width":3024}],"place_id":"ChIJfWTD6lcddkgRGGc_r5-81e0","plus_code":{"compound_code":"HXJJ+WF London","global_code":"9C3XHXJJ+WF"},"rating":4.2,"reference":"ChIJfWTD6lcddkgRGGc_r5-81e0","types":["restaurant","point_of_interest","food","establishment"],"user_ratings_total":116},{"business_status":"OPERATIONAL","formatted_address":"11A Islington High St, London N1 9LQ","geometry":{"location":{"lat":51.532394,"lng":-0.106498},"viewport":{"northeast":{"lat":51.53373832989271,"lng":-0.1050128701072778},"southwest":{"lat":51.53103867010727,"lng":-0.1077125298927222}}},"icon":"https://maps.gstatic.com/mapfiles/place_api/icons/v1/png_71/restaurant-71.png","icon_background_color":"#FF9E67","icon_mask_base_uri":"https://maps.gstatic.com/mapfiles/place_api/icons/v2/restaurant_pinlet","name":"German Doner Kebab","opening_hours":{"open_now":true},"photos":[{"height":421,"html_attributions":["<a href=\"https://maps.google.com/maps/contrib/113965455208555098084\">A Google User</a>"],"photo_reference":"AeJbb3fw-MumkzqRZfCDBTJ1AUN3nt9O9hLNROYIz2BsNTO48OQJKJ9_4LzaCx7BKpuouadmrEcJR068BWKUvz0Sc9wddGSuJfDH_Knp3QYGWZUlkhUCXwYJBuO-gN_MfCZI8UzooCEYQBQ9RYBd4vuI3xiI7dQ-6Ssk65gHAGOxDBnaVjIq","width":800}],"place_id":"ChIJ1ey3MEMbdkgRAuBPJIuwjuo","plus_code":{"compound_code":"GVJV+XC London","global_code":"9C3XGVJV+XC"},"price_level":2,"rating":4.1,"reference":"ChIJ1ey3MEMbdkgRAuBPJIuwjuo","types":["meal_takeaway","restaurant","food","point_of_interest","establishment"],"user_ratings_total":1331},{"business_status":"OPERATIONAL","formatted_address":"102 Camden High St, London NW1 0LU","geometry":{"location":{"lat":51.53733680000001,"lng":-0.141057},"viewport":{"northeast":{"lat":51.53867937989272,"lng":-0.1397278201072778},"southwest":{"lat":51.53597972010728,"lng":-0.1424274798927222}}},"icon":"https://maps.gstatic.com/mapfiles/place_api/icons/v1/png_71/restaurant-71.png","icon_background_color":"#FF9E67","icon_mask_base_uri":"https://maps.gstatic.com/mapfiles/place_api/icons/v2/restaurant_pinlet","name":"German Doner Kebab","opening_hours":{"open_now":true},"photos":[{"height":421,"html_attributions":["<a href=\"https://maps.google.com/maps/contrib/110862451112531730951\">A Google User</a>"],"photo_reference":"AeJbb3dX_EsjhY5ykQBhPGypCrCqrpjjF0CtOjfbK5YjQ9CzYm9xKUhVQbK2vHeJdE_c5eDgYCP3EgUPo79W5m2N50Cc-3cDr5BzaPiuljk4GaL-QhGS5rabMNt7hwKdsu81iBD04SwLmIuOSr7zBoP12mej2dbsgAKCJtD9qD49w8YhJ8-5","width":800}],"place_id":"ChIJzaDrUPQFdkgRYYF1CxwUVJY","plus_code":{"compound_code":"GVP5+WJ London","global_code":"9C3XGVP5+WJ"},"price_level":2,"rating":4.1,"reference":"ChIJzaDrUPQFdkgRYYF1CxwUVJY","types":["meal_takeaway","restaurant","food","point_of_interest","establishment"],"user_ratings_total":681},{"business_status":"OPERATIONAL","formatted_address":"127 Rushey Grn, London SE6 4AA","geometry":{"location":{"lat":51.446376,"lng":-0.0187032},"viewport":{"northeast":{"lat":51.44778722989271,"lng":-0.01753777010727778},"southwest":{"lat":51.44508757010727,"lng":-0.02023742989272221}}},"icon":"https://maps.gstatic.com/mapfiles/place_api/icons/v1/png_71/restaurant-71.png","icon_background_color":"#FF9E67","icon_mask_base_uri":"https://maps.gstatic.com/mapfiles/place_api/icons/v2/restaurant_pinlet","name":"German Doner Kebab","opening_hours":{"open_now":true},"photos":[{"height":421,"html_attributions":["<a href=\"https://maps.google.com/maps/contrib/115536277025223204478\">A Google User</a>"],"photo_reference":"AeJbb3dwxQw8P9ljCojBh1TWtM_o9ya2ssKMIEVznr6eejgOOvIzHd_UQDEUzS22xEnUEBbRm1q8CHHCNCteiKaomPXG0sAXoVUvISWu4X_5rCuvPWZtdjk1Q-w0CxseIaN1l1XoUCw42UKtwd5lV4rQ9WvMZOeia1jT541c4NmbO7rpfTtS","width":561}],"place_id":"ChIJw0Qgp2gDdkgR8jWhChPfwuo","plus_code":{"compound_code":"CXWJ+GG London","global_code":"9C3XCXWJ+GG"},"price_level":2,"rating":4.1,"reference":"ChIJw0Qgp2gDdkgR8jWhChPfwuo","types":["meal_takeaway","restaurant","point_of_interest","food","establishment"],"user_ratings_total":535},{"business_status":"OPERATIONAL","formatted_address":"119 Shaftesbury Ave, London WC2H 8AD","geometry":{"location":{"lat":51.5137575,"lng":-0.1287038},"viewport":{"northeast":{"lat":51.51506167989272,"lng":-0.1273073701072778},"southwest":{"lat":51.51236202010728,"lng":-0.1300070298927222}}},"icon":"https://maps.gstatic.com/mapfiles/place_api/icons/v1/png_71/restaurant-71.png","icon_background_color":"#FF9E67","icon_mask_base_uri":"https://maps.gstatic.com/mapfiles/place_api/icons/v2/restaurant_pinlet","name":"German Doner Kebab","opening_hours":{"open_now":true},"photos":[{"height":2736,"html_attributions":["<a href=\"https://maps.google.com/maps/contrib/101229877496260797642\">cameron joe</a>"],"photo_reference":"AeJbb3dQSXL7APtXjNAuiDEe0SA4v0E04MQKNKUOw5TJ5HJLNM0VkUrm8CQzexIroPKwhokwBQ4Yks-GicfFdfFObiaolL3L_NWyBlX-yKg-P-GsCoxjl9g31tFopsBl8eA_grMy_jWL-Lkc7ineMfh3SjYi9jM5LrV5SioKIGp4hzFfecxB","width":3648}],"place_id":"ChIJ_aH-_qsFdkgRsQnERapjNlE","plus_code":{"compound_code":"GV7C+GG London","global_code":"9C3XGV7C+GG"},"price_level":2,"rating":4.1,"reference":"ChIJ_aH-_qsFdkgRsQnERapjNlE","types":["restaurant","meal_takeaway","food","point_of_interest","establishment"],"user_ratings_total":307},{"business_status":"OPERATIONAL","formatted_address":"468 High Rd, Wembley HA9 7AY","geometry":{"location":{"lat":51.5535572,"lng":-0.2943918},"viewport":{"northeast":{"lat":51.55487017989272,"lng":-0.2930084201072777},"southwest":{"lat":51.55217052010727,"lng":-0.2957080798927222}}},"icon":"https://maps.gstatic.com/mapfiles/place_api/icons/v1/png_71/restaurant-71.png","icon_background_color":"#FF9E67","icon_mask_base_uri":"https://maps.gstatic.com/mapfiles/place_api/icons/v2/restaurant_pinlet","name":"German Doner Kebab","opening_hours":{"open_now":true},"photos":[{"height":4000,"html_attributions":["<a href=\"https://maps.google.com/maps/contrib/113198005090626647833\">Lourds Clary</a>"],"photo_reference":"AeJbb3dxtmZeJIG58iGpKpOl6b3zbWG1yzeZ5gn2eLqIF6T__FmnMvXwUrTzUQpCzJKFbh3LVR5nAjJCzJ02o-nyMBJZlpP2NwSIdnxU8pQAF59XnLe8QeIH7zkg7m3GgmyskC2jVTkVkBh4DVOfxMuKGmVBokLiyEBsLTumIHl0yx59wcQs","width":2248}],"place_id":"ChIJk2X3O4gTdkgRgO0uDCigcaw","plus_code":{"compound_code":"HP34+C6 Wembley","global_code":"9C3XHP34+C6"},"price_level":2,"rating":4.1,"reference":"ChIJk2X3O4gTdkgRgO0uDCigcaw","types":["meal_takeaway","restaurant","point_of_interest","food","establishment"],"user_ratings_total":238},{"business_status":"OPERATIONAL","formatted_address":"4c The Broadway, Greenford UB6 9PR","geometry":{"location":{"lat":51.52721409999999,"lng":-0.3525901},"viewport":{"northeast":{"lat":51.52861772989272,"lng":-0.3511488201072778},"southwest":{"lat":51.52591807010727,"lng":-0.3538484798927222}}},"icon":"https://maps.gstatic.com/mapfiles/place_api/icons/v1/png_71/restaurant-71.png","icon_background_color":"#FF9E67","icon_mask_base_uri":"https://maps.gstatic.com/mapfiles/place_api/icons/v2/restaurant_pinlet","name":"German Doner Kebab","opening_hours":{"open_now":true},"photos":[{"height":421,"html_attributions":["<a href=\"https://maps.google.com/maps/contrib/107461111467093929644\">A Google User</a>"],"photo_reference":"AeJbb3dRC1e5ttCBYXPVQPdSLdjeqRiUvTs_Jxj2MOh3lCu_7RLfwp4yuojxydkOjYCMJLqBeOPJvvCRT-5vi_ndEYbtpJFPt9CTe29yZP-LckAGJlG0n_lVX8CUFuoO6dAy4zYMQiGoaEuwYcVRNEBwFWc4ey8FNyvvpzdvFvqfwHeNnpgZ","width":800}],"place_id":"ChIJycRNWfATdkgRyPtJ7n9ffq8","plus_code":{"compound_code":"GJGW+VX Greenford","global_code":"9C3XGJGW+VX"},"price_level":2,"rating":4.1,"reference":"ChIJycRNWfATdkgRyPtJ7n9ffq8","types":["meal_takeaway","restaurant","food","point_of_interest","establishment"],"user_ratings_total":183},{"business_status":"OPERATIONAL","formatted_address":"127 Praed St, Tyburnia, London W2 1RL","geometry":{"location":{"lat":51.5165896,"lng":-0.1734946},"viewport":{"northeast":{"lat":51.51799077989272,"lng":-0.1722127201072778},"southwest":{"lat":51.51529112010727,"lng":-0.1749123798927222}}},"icon":"https://maps.gstatic.com/mapfiles/place_api/icons/v1/png_71/restaurant-71.png","icon_background_color":"#FF9E67","icon_mask_base_uri":"https://maps.gstatic.com/mapfiles/place_api/icons/v2/restaurant_pinlet","name":"Urban Doner Kebab","opening_hours":{"open_now":true},"photos":[{"height":3024,"html_attributions":["<a href=\"https://maps.google.com/maps/contrib/100690215564035244644\">jawa</a>"],"photo_reference":"AeJbb3fS62_EKWk3uAsEi8SmbxVuYTLFFbguwzrTKa4HY_NuvY_B7YCckPdXytkl2g2vOQSxt6cJ_EiHwJUFRCEkkYrw6N8pSXE1tGWPAerJXNQtBdU19ja8wR9NX8d0_TsIRuI-Ct44bnFtkX-Dh9r829_iw6-gxTu0pcftHKVyfTnioHIV","width":4032}],"place_id":"ChIJE0uBCGIbdkgRqFu_pOWCuuo","plus_code":{"compound_code":"GR8G+JJ London","global_code":"9C3XGR8G+JJ"},"rating":4.1,"reference":"ChIJE0uBCGIbdkgRqFu_pOWCuuo","types":["restaurant","food","point_of_interest","establishment"],"user_ratings_total":84},{"business_status":"OPERATIONAL","formatted_address":"63 Essex Rd, London N1 2SF","geometry":{"location":{"lat":51.5377126,"lng":-0.1003768},"viewport":{"northeast":{"lat":51.53901407989272,"lng":-0.09893792010727778},"southwest":{"lat":51.53631442010728,"lng":-0.1016375798927222}}},"icon":"https://maps.gstatic.com/mapfiles/place_api/icons/v1/png_71/restaurant-71.png","icon_background_color":"#FF9E67","icon_mask_base_uri":"https://maps.gstatic.com/mapfiles/place_api/icons/v2/restaurant_pinlet","name":"ISLINGTON Kebab House","opening_hours":{"open_now":true},"photos":[{"height":1080,"html_attributions":["<a href=\"https://maps.google.com/maps/contrib/115299294060157958476\">Kureys Kaya</a>"],"photo_reference":"AeJbb3e2rM9kMWTT-51Osxcl7yRvu8h0xLw2-Dw9tR5yn7CV6uv6AY8dwqUiO0GDK3C26_22cpyg88tywj4U9wyqm-VF6FGtIwyYYOemr1oFjtAjmv6XHLgLf-uR88RlR_liRnV3j4Z6nUJUlvF8PfhXl856XWnv3GD6K4tpxrzUzHk0RPJd","width":1920}],"place_id":"ChIJ4wPfMK4bdkgRyljTLJG7In0","plus_code":{"compound_code":"GVQX+3R London","global_code":"9C3XGVQX+3R"},"rating":4.1,"reference":"ChIJ4wPfMK4bdkgRyljTLJG7In0","types":["meal_delivery","restaurant","point_of_interest","food","establishment"],"user_ratings_total":56},{"business_status":"OPERATIONAL","formatted_address":"315 Kentish Town Rd, London NW5 2TJ","geometry":{"location":{"lat":51.549859,"lng":-0.141028},"viewport":{"northeast":{"lat":51.55119947989272,"lng":-0.1395709701072778},"southwest":{"lat":51.54849982010727,"lng":-0.1422706298927222}}},"icon":"https://maps.gstatic.com/mapfiles/place_api/icons/v1/png_71/restaurant-71.png","icon_background_color":"#FF9E67","icon_mask_base_uri":"https://maps.gstatic.com/mapfiles/place_api/icons/v2/restaurant_pinlet","name":"Supreme Doner Kebab","opening_hours":{"open_now":true},"photos":[{"height":546,"html_attributions":["<a href=\"https://maps.google.com/maps/contrib/112438083511906763451\">A Google User</a>"],"photo_reference":"AeJbb3f_alLjMehiu9OuWhgCkwyjDxXmOvuvVLqdhFXfXkxsFoRi8QwH-_Tse1VsZ5FRgwUtRqIQxkgPx_E9r_KNc2-7Nuzf4XUsB3C8V5YE2TzngfdVwB4C5uAHY2aFL8nWTTp0O-Af15sPhWoYxu6Q521xzr5v-XoisWAtE-0G3XqywCtd","width":1200}],"place_id":"ChIJe5U6r94bdkgRq-rNCvQ6UHo","plus_code":{"compound_code":"GVX5+WH London","global_code":"9C3XGVX5+WH"},"rating":4.1,"reference":"ChIJe5U6r94bdkgRq-rNCvQ6UHo","types":["meal_takeaway","restaurant","food","point_of_interest","establishment"],"user_ratings_total":26},{"business_status":"OPERATIONAL","formatted_address":"127 Kingsland High St, London E8 2PB","geometry":{"location":{"lat":51.5503384,"lng":-0.0753871},"viewport":{"northeast":{"lat":51.55168817989272,"lng":-0.07393872010727777},"southwest":{"lat":51.54898852010728,"lng":-0.07663837989272221}}},"icon":"https://maps.gstatic.com/mapfiles/place_api/icons/v1/png_71/restaurant-71.png","icon_background_color":"#FF9E67","icon_mask_base_uri":"https://maps.gstatic.com/mapfiles/place_api/icons/v2/restaurant_pinlet","name":"Garip’s German Doner","opening_hours":{"open_now":true},"photos":[{"height":1792,"html_attributions":["<a href=\"https://maps.google.com/maps/contrib/112279370076906763262\">A Google User</a>"],"photo_reference":"AeJbb3cltqa9nwf0fsqiEyFh4gwex0CSHl1qvKTPvZkDkPorq2BdGVC9Z6HhDTk59NmIoN5qBAiPF6J9rkxPcjWKMG-aBuVYCGfYOAx3xFlyAAxSIorFkck0DH6UKXL7t_2QqNWXlEbphD3ai7CHbvhqndnYdQ5F09od9qXuWCXS9Z4DfTWK","width":960}],"place_id":"ChIJWahzWjsddkgRLZI2iOqt1Ls","plus_code":{"compound_code":"HW2F+4R London","global_code":"9C3XHW2F+4R"},"rating":4.1,"reference":"ChIJWahzWjsddkgRLZI2iOqt1Ls","types":["restaurant","point_of_interest","food","establishment"],"user_ratings_total":10},{"business_status":"OPERATIONAL","formatted_address":"304 Kilburn High Rd, London NW6 2DB","geometry":{"location":{"lat":51.5443447,"lng":-0.2007273},"viewport":{"northeast":{"lat":51.54567117989272,"lng":-0.1994252701072778},"southwest":{"lat":51.54297152010728,"lng":-0.2021249298927222}}},"icon":"https://maps.gstatic.com/mapfiles/place_api/icons/v1/png_71/restaurant-71.png","icon_background_color":"#FF9E67","icon_mask_base_uri":"https://maps.gstatic.com/mapfiles/place_api/icons/v2/restaurant_pinlet","name":"German Doner Kebab","opening_hours":{"open_now":true},"photos":[{"height":421,"html_attributions":["<a href=\"https://maps.google.com/maps/contrib/105694317211148873306\">German Doner Kebab</a>"],"photo_reference":"AeJbb3ejia6KZSJ0xMKq7w300H0Gl4BPnFfEeeIELcYBOSUwjsl42xl0zsAylreBvKAT6vRMjZk2QRO0PA5dlgU0O1ZD84725LmFu1D1Y4PYPv8sl7TSuBQ7D-wWFKvjwSlmh4xNk42TUbEHeiyd7esbBTpedebn6TYoMyIsjka7szTmC5Fx","width":561}],"place_id":"ChIJZ1Qa0G8QdkgRaUG_c76GXiA","plus_code":{"compound_code":"GQVX+PP London","global_code":"9C3XGQVX+PP"},"price_level":2,"rating":4,"reference":"ChIJZ1Qa0G8QdkgRaUG_c76GXiA","types":["meal_takeaway","restaurant","food","point_of_interest","establishment"],"user_ratings_total":1227},{"business_status":"OPERATIONAL","formatted_address":"7 Fulham Broadway, London SW6 1AA","geometry":{"location":{"lat":51.480085,"lng":-0.19651},"viewport":{"northeast":{"lat":51.48149117989272,"lng":-0.1951149201072778},"southwest":{"lat":51.47879152010728,"lng":-0.1978145798927222}}},"icon":"https://maps.gstatic.com/mapfiles/place_api/icons/v1/png_71/restaurant-71.png","icon_background_color":"#FF9E67","icon_mask_base_uri":"https://maps.gstatic.com/mapfiles/place_api/icons/v2/restaurant_pinlet","name":"German Doner Kebab","opening_hours":{"open_now":true},"photos":[{"height":421,"html_attributions":["<a href=\"https://maps.google.com/maps/contrib/114471769775184768844\">A Google User</a>"],"photo_reference":"AeJbb3f81QP0EzuCKrqwcgHeIqq-oUYOq5DnA0ZCYJtWaR0CRI3CoxPuK5ENBQ0-soejeCBrsFwgHv5CTJGhtk10y70HLpakll8UAzUw55wF39maIg79M6p-2rmxnYYPWYUrePDFnpjblrQ1t2Uf8tKFf4peCGGHiazM9CFa6dquQup5SRGf","width":800}],"place_id":"ChIJe2icV4QPdkgRz8yOTxd_RJU","plus_code":{"compound_code":"FRJ3+29 London","global_code":"9C3XFRJ3+29"},"price_level":2,"rating":4,"reference":"ChIJe2icV4QPdkgRz8yOTxd_RJU","types":["meal_takeaway","restaurant","food","point_of_interest","establishment"],"user_ratings_total":1151},{"business_status":"OPERATIONAL","formatted_address":"16-18 High St, Bromley BR1 1EA","geometry":{"location":{"lat":51.4001628,"lng":0.0168136},"viewport":{"northeast":{"lat":51.40152642989272,"lng":0.01825352989272222},"southwest":{"lat":51.39882677010728,"lng":0.01555387010727778}}},"icon":"https://maps.gstatic.com/mapfiles/place_api/icons/v1/png_71/restaurant-71.png","icon_background_color":"#FF9E67","icon_mask_base_uri":"https://maps.gstatic.com/mapfiles/place_api/icons/v2/restaurant_pinlet","name":"German Doner Kebab","opening_hours":{"open_now":true},"photos":[{"height":421,"html_attributions":["<a href=\"https://maps.google.com/maps/contrib/117807333823623527612\">A Google User</a>"],"photo_reference":"AeJbb3dEj7Ms8zRXzRjk17ngxC49lYMoJuPV2OM4bt9GM1-lwQHpjD6wnrLICrreZLmv7dnqaTQE2z5ILeyn1xx9OS-g4ud-opH7yxNiLkiX3yAMzmvWxKqER-g7QtH42T6J4nWRN6cT1oWttHaS7cp__RB6cm0tQ_49mhuj9EIssDoxefjV","width":800}],"place_id":"ChIJhwdP2u2r2EcRRSzaDZ491fg","plus_code":{"compound_code":"C228+3P Bromley","global_code":"9F32C228+3P"},"price_level":2,"rating":4,"reference":"ChIJhwdP2u2r2EcRRSzaDZ491fg","types":["meal_takeaway","restaurant","food","point_of_interest","establishment"],"user_ratings_total":472},{"business_status":"OPERATIONAL","formatted_address":"172 High St, London W3 9NN","geometry":{"location":{"lat":51.5074469,"lng":-0.2713746},"viewport":{"northeast":{"lat":51.50873257989272,"lng":-0.2700555701072777},"southwest":{"lat":51.50603292010727,"lng":-0.2727552298927222}}},"icon":"https://maps.gstatic.com/mapfiles/place_api/icons/v1/png_71/restaurant-71.png","icon_background_color":"#FF9E67","icon_mask_base_uri":"https://maps.gstatic.com/mapfiles/place_api/icons/v2/restaurant_pinlet","name":"German Doner Kebab","opening_hours":{"open_now":true},"photos":[{"height":4000,"html_attributions":["<a href=\"https://maps.google.com/maps/contrib/105035785588337272962\">Katie Bartlett</a>"],"photo_reference":"AeJbb3dXsj_Z99qlBJiZ9jUJ7GocIgfru0EVgLjgyaqPMibudvH3VrluIWzBIJhRIn0KI-Lt8J4bPLNJeFkAGoYRwLzUvJ9KfBfINWQnbkwZ5yUM37VE3-m85SJ23V6DWCpCQdRkGJ3SJtV2nDkgptUWacjuRxuic7Fo9xDUekTz1CxHozQQ","width":3000}],"place_id":"ChIJn4BqLcYPdkgRJvn1Foj16YQ","plus_code":{"compound_code":"GP4H+XF London","global_code":"9C3XGP4H+XF"},"price_level":2,"rating":4,"reference":"ChIJn4BqLcYPdkgRJvn1Foj16YQ","types":["meal_takeaway","restaurant","food","point_of_interest","establishment"],"user_ratings_total":312},{"business_status":"OPERATIONAL","formatted_address":"372 Bethnal Grn Rd, Bethnal Green, London E2 0AH","geometry":{"location":{"lat":51.5266424,"lng":-0.06197390000000001},"viewport":{"northeast":{"lat":51.52802902989271,"lng":-0.06063627010727778},"southwest":{"lat":51.52532937010727,"lng":-0.06333592989272221}}},"icon":"https://maps.gstatic.com/mapfiles/place_api/icons/v1/png_71/restaurant-71.png","icon_background_color":"#FF9E67","icon_mask_base_uri":"https://maps.gstatic.com/mapfiles/place_api/icons/v2/restaurant_pinlet","name":"German Doner Kebab","opening_hours":{"open_now":true},"photos":[{"height":421,"html_attributions":["<a href=\"https://maps.google.com/maps/contrib/111850057532351890217\">A Google User</a>"],"photo_reference":"AeJbb3deHkzHOIRPQjY6Xzoyx0mfMt2QT3cFPla0hdADvywJ7LXhbRbFk60CfxWmTMMNk41XpLEYIiRIXvn9l-StnqLnqXaTG6bGQM8mSt-ZKsjGtGOUc8EKzbh0DC0B60Kf8z7132wdanFcmskwAu1-1rzpFq6zTTua6i81-W9zhySbHyku","width":800}],"place_id":"ChIJJQb9am0ddkgRYd2NKs-w_FM","plus_code":{"compound_code":"GWGQ+J6 London","global_code":"9C3XGWGQ+J6"},"price_level":2,"rating":4,"reference":"ChIJJQb9am0ddkgRYd2NKs-w_FM","types":["meal_takeaway","restaurant","food","point_of_interest","establishment"],"user_ratings_total":229},{"business_status":"OPERATIONAL","formatted_address":"57d Eden St, Kingston upon Thames KT1 1DA","geometry":{"location":{"lat":51.41033350000001,"lng":-0.302353},"viewport":{"northeast":{"lat":51.41169772989272,"lng":-0.3009461201072777},"southwest":{"lat":51.40899807010727,"lng":-0.3036457798927222}}},"icon":"https://maps.gstatic.com/mapfiles/place_api/icons/v1/png_71/restaurant-71.png","icon_background_color":"#FF9E67","icon_mask_base_uri":"https://maps.gstatic.com/mapfiles/place_api/icons/v2/restaurant_pinlet","name":"German Doner Kebab","opening_hours":{"open_now":true},"photos":[{"height":421,"html_attributions":["<a href=\"https://maps.google.com/maps/contrib/116871928969213937400\">A Google User</a>"],"photo_reference":"AeJbb3fJuyO9W2CYy2KWERB9EuURmDJehgfWf7eEt5A56pHwFQVvhLIQGpSu3lEgo4hfR7hjL3QiuvtWJomquKF71gCuzYJlWagEESQ4Z2UDdzeMIarcj33Q98_RoPsnrJdZA7QX9azp_2KC9A7bfkniVp7_hNkdy5rMmlZpadcfLrdOSF6Y","width":800}],"place_id":"ChIJ2bSoEioLdkgRA-4wcZvZ1h0","plus_code":{"compound_code":"CM6X+43 Kingston upon Thames","global_code":"9C3XCM6X+43"},"price_level":2,"rating":4,"reference":"ChIJ2bSoEioLdkgRA-4wcZvZ1h0","types":["meal_takeaway","restaurant","point_of_interest","food","establishment"],"user_ratings_total":192},{"business_status":"OPERATIONAL","formatted_address":"122 High St, Ilford IG6 2DU","geometry":{"location":{"lat":51.5918398,"lng":0.0836773},"viewport":{"northeast":{"lat":51.59322567989272,"lng":0.08493647989272221},"southwest":{"lat":51.59052602010727,"lng":0.08223682010727777}}},"icon":"https://maps.gstatic.com/mapfiles/place_api/icons/v1/png_71/restaurant-71.png","icon_background_color":"#FF9E67","icon_mask_base_uri":"https://maps.gstatic.com/mapfiles/place_api/icons/v2/restaurant_pinlet","name":"German Doner Kebab","opening_hours":{"open_now":true},"photos":[{"height":2160,"html_attributions":["<a href=\"https://maps.google.com/maps/contrib/100408181452373694028\">Asad Iqbal</a>"],"photo_reference":"AeJbb3eht2KOrbQgWXaJjOsP_pccPZZ_-npDnZCqSy2u1xzsQ7pDwhs6iboRQEH8DHID1gVZcts1G4-uWBW8LChIUN5nWGwfSsK4xVtJa8NfCmuXIy2Om5jH7XVJFIYoiUbZPWPXM0hkDoq-_ImfyQI65WXI1fFYP49HCssv8xs27wLhh6Jq","width":2880}],"place_id":"ChIJCyhDjOqn2EcRUUTppuzoS0w","plus_code":{"compound_code":"H3RM+PF Ilford","global_code":"9F32H3RM+PF"},"price_level":2,"rating":4,"reference":"ChIJCyhDjOqn2EcRUUTppuzoS0w","types":["meal_takeaway","restaurant","point_of_interest","food","establishment"],"user_ratings_total":185},{"business_status":"OPERATIONAL","formatted_address":"322 Burdett Rd, London E14 7DL","geometry":{"location":{"lat":51.5125112,"lng":-0.02805999999999999},"viewport":{"northeast":{"lat":51.51385697989272,"lng":-0.02664092010727778},"southwest":{"lat":51.51115732010728,"lng":-0.02934057989272221}}},"icon":"https://maps.gstatic.com/mapfiles/place_api/icons/v1/png_71/restaurant-71.png","icon_background_color":"#FF9E67","icon_mask_base_uri":"https://maps.gstatic.com/mapfiles/place_api/icons/v2/restaurant_pinlet","name":"The Doner Guys","opening_hours":{"open_now":true},"photos":[{"height":4032,"html_attributions":["<a href=\"https://maps.google.com/maps/contrib/112622956277764116873\">A Google User</a>"],"photo_reference":"AeJbb3dKK4fTzxJYq0p34KGGdG9RxgZOwGM--1nQVqy_eXcvMfi2IK9lzzLBizIyCc3EWbLHylcoJxMVmvvT8d2kb75Fw0EeH-_0DdTFU_QIp6nwi2-EF3M8nzubS-zoxlFsLexV5GoYckvj3Vd7YdzBTxTDbf3S3iddL2DhjIPK6ZnECCli","width":3024}],"place_id":"ChIJ6c0SdWwDdkgR4YQhNFlqpOo","plus_code":{"compound_code":"GX7C+2Q London","global_code":"9C3XGX7C+2Q"},"rating":4,"reference":"ChIJ6c0SdWwDdkgR4YQhNFlqpOo","types":["restaurant","food","point_of_interest","establishment"],"user_ratings_total":126},{"business_status":"OPERATIONAL","formatted_address":"207 Mile End Rd, Bethnal Green, London E1 4AA","geometry":{"location":{"lat":51.5221448,"lng":-0.04566},"viewport":{"northeast":{"lat":51.52342272989272,"lng":-0.04427722010727778},"southwest":{"lat":51.52072307010728,"lng":-0.04697687989272221}}},"icon":"https://maps.gstatic.com/mapfiles/place_api/icons/v1/png_71/restaurant-71.png","icon_background_color":"#FF9E67","icon_mask_base_uri":"https://maps.gstatic.com/mapfiles/place_api/icons/v2/restaurant_pinlet","name":"German Doner Kebab","opening_hours":{"open_now":true},"photos":[{"height":421,"html_attributions":["<a href=\"https://maps.google.com/maps/contrib/103032666998550516328\">A Google User</a>"],"photo_reference":"AeJbb3d1sec3F6l41JXFCgTS3XGml3KXW1V-DGsV6Wx4Q1zN1zoBVLHJn7ILWfrcixnTEPP5oIyM87ig2lYqCVKbsvcZs1dVnpwhQFDqN4oTrSZIA7m9KtGSoSc-Yv5svHvlOrwEyOp6GSKqvD8KhrGmOCHyD3fVuarixwCpZx4kp6QHjLQc","width":561}],"place_id":"ChIJyaBLxikddkgRSUn_dcb2bFs","plus_code":{"compound_code":"GXC3+VP London","global_code":"9C3XGXC3+VP"},"price_level":2,"rating":3.9,"reference":"ChIJyaBLxikddkgRSUn_dcb2bFs","types":["meal_takeaway","restaurant","food","point_of_interest","establishment"],"user_ratings_total":1406},{"business_status":"OPERATIONAL","formatted_address":"220 Uxbridge Rd, London W12 7JD","geometry":{"location":{"lat":51.5057874,"lng":-0.2273169},"viewport":{"northeast":{"lat":51.50709612989272,"lng":-0.2259859201072778},"southwest":{"lat":51.50439647010728,"lng":-0.2286855798927222}}},"icon":"https://maps.gstatic.com/mapfiles/place_api/icons/v1/png_71/restaurant-71.png","icon_background_color":"#FF9E67","icon_mask_base_uri":"https://maps.gstatic.com/mapfiles/place_api/icons/v2/restaurant_pinlet","name":"German Doner Kebab","opening_hours":{"open_now":true},"photos":[{"height":421,"html_attributions":["<a href=\"https://maps.google.com/maps/contrib/107184403993370216090\">A Google User</a>"],"photo_reference":"AeJbb3dQBRMqPtEmxWKW-0J7rPQyHhK6RMlsbPyUttX8Mnokf_3h0JTztjtx21DH3z2mjGheZko1CaN_im3wuHdxURIIMRXKanqpWK6WIiLVra1Ol8UfncucE3TK8ZL9WSSaEU5c1Xa4cd9vT3IbzxamZj0xecJnE0LsC-fhrNTUb7qReN9r","width":561}],"place_id":"ChIJF-oyqQoPdkgRlpDNS-a-ci0","plus_code":{"compound_code":"GQ4F+83 London","global_code":"9C3XGQ4F+83"},"price_level":2,"rating":3.9,"reference":"ChIJF-oyqQoPdkgRlpDNS-a-ci0","types":["meal_takeaway","restaurant","point_of_interest","food","establishment"],"user_ratings_total":597},{"business_status":"OPERATIONAL","formatted_address":"12 - 16 York St, Twickenham TW1 3LD","geometry":{"location":{"lat":51.4469679,"lng":-0.3277572},"viewport":{"northeast":{"lat":51.44833572989272,"lng":-0.3264512201072777},"southwest":{"lat":51.44563607010728,"lng":-0.3291508798927222}}},"icon":"https://maps.gstatic.com/mapfiles/place_api/icons/v1/png_71/restaurant-71.png","icon_background_color":"#FF9E67","icon_mask_base_uri":"https://maps.gstatic.com/mapfiles/place_api/icons/v2/restaurant_pinlet","name":"German Doner Kebab","opening_hours":{"open_now":true},"photos":[{"height":3024,"html_attributions":["<a href=\"https://maps.google.com/maps/contrib/114623100309458095123\">A Google User</a>"],"photo_reference":"AeJbb3eGRScRG7vPGH4m3EmLGisjfX26GKGXL8tZPuIOgqE1KuFfvez420x_z4JjkuYOh1uUJua4oCIyJ1hTt9EGZ3tWbNga5Kuby1s-oYSxx98NVl1Q6XbKiA4UW5_9ZTQUnXH5Enchmd_DioqFv3i2GY321-SspJyVrJjt4pHmHBeWyy3L","width":4032}],"place_id":"ChIJk7JnlsYNdkgR98tLWrJXnSU","plus_code":{"compound_code":"CMWC+QW Twickenham","global_code":"9C3XCMWC+QW"},"price_level":2,"rating":3.9,"reference":"ChIJk7JnlsYNdkgR98tLWrJXnSU","types":["restaurant","meal_takeaway","point_of_interest","food","establishment"],"user_ratings_total":478},{"business_status":"OPERATIONAL","formatted_address":"149 The Broadway, Southall UB1 1LP","geometry":{"location":{"lat":51.5118594,"lng":-0.3827679},"viewport":{"northeast":{"lat":51.51329067989273,"lng":-0.3813628201072777},"southwest":{"lat":51.51059102010728,"lng":-0.3840624798927222}}},"icon":"https://maps.gstatic.com/mapfiles/place_api/icons/v1/png_71/restaurant-71.png","icon_background_color":"#FF9E67","icon_mask_base_uri":"https://maps.gstatic.com/mapfiles/place_api/icons/v2/restaurant_pinlet","name":"German Doner Kebab","opening_hours":{"open_now":true},"photos":[{"height":1800,"html_attributions":["<a href=\"https://maps.google.com/maps/contrib/108893929055592822228\">Ashfaq Ahmed</a>"],"photo_reference":"AeJbb3fOUymK0rnlFyhkP0MWQwP7N8zqE7RciqYohSP_dtRUBH3CYR7lRqmfh7Kryyut9UIxDjOtwghIo_YVPtgEKZxhc-jsutrbOtnE57mBxSQ7KkHMuyJfOkok1vOvmhKTMOGzotECSVO89r8Cu4xE_FNHzY4QcRrBKEfU7ZARSS7B0N3m","width":4000}],"place_id":"ChIJbxIBYk1zdkgRbtIkQEa9EUE","plus_code":{"compound_code":"GJ68+PV Southall","global_code":"9C3XGJ68+PV"},"price_level":2,"rating":3.9,"reference":"ChIJbxIBYk1zdkgRbtIkQEa9EUE","types":["meal_takeaway","restaurant","point_of_interest","food","establishment"],"user_ratings_total":214},{"business_status":"OPERATIONAL","formatted_address":"Upper Level, 2 Cabot Square, London E14 4QT","geometry":{"location":{"lat":51.5049709,"lng":-0.0203488},"viewport":{"northeast":{"lat":51.50619292989272,"lng":-0.01903872010727779},"southwest":{"lat":51.50349327010728,"lng":-0.02173837989272222}}},"icon":"https://maps.gstatic.com/mapfiles/place_api/icons/v1/png_71/restaurant-71.png","icon_background_color":"#FF9E67","icon_mask_base_uri":"https://maps.gstatic.com/mapfiles/place_api/icons/v2/restaurant_pinlet","name":"German Doner Kebab","opening_hours":{"open_now":true},"photos":[{"height":3000,"html_attributions":["<a href=\"https://maps.google.com/maps/contrib/115219650367868377653\">A Google User</a>"],"photo_reference":"AeJbb3dEBCWecb3XdZXZ0kCRvzkd09aIFe1SXn4KtEM8_PjlFgv6zaXRgp9cqE_sWadXDiwW73UYChwg3vF2oPu-QhmYLAODAReApt6Udmm3apZhQXBCccbPmp-YBiCiVZaBErX40sEziC-AE92b-62dqfVLkgXAr27mYYrvZNzCRIzwWEBE","width":4000}],"place_id":"ChIJnYQQ7NgDdkgRnpjYbmgA6X0","plus_code":{"compound_code":"GX3H+XV London","global_code":"9C3XGX3H+XV"},"price_level":2,"rating":3.9,"reference":"ChIJnYQQ7NgDdkgRnpjYbmgA6X0","types":["restaurant","meal_takeaway","food","point_of_interest","establishment"],"user_ratings_total":192},{"business_status":"OPERATIONAL","formatted_address":"196 Ilford Ln, Ilford IG1 2LJ","geometry":{"location":{"lat":51.55140979999999,"lng":0.0739355},"viewport":{"northeast":{"lat":51.55278842989271,"lng":0.07542137989272221},"southwest":{"lat":51.55008877010727,"lng":0.07272172010727779}}},"icon":"https://maps.gstatic.com/mapfiles/place_api/icons/v1/png_71/restaurant-71.png","icon_background_color":"#FF9E67","icon_mask_base_uri":"https://maps.gstatic.com/mapfiles/place_api/icons/v2/restaurant_pinlet","name":"The Ottoman Doner® - Ilford","opening_hours":{"open_now":true},"photos":[{"height":4080,"html_attributions":["<a href=\"https://maps.google.com/maps/contrib/117599721991675936382\">Naiyemur Rahman</a>"],"photo_reference":"AeJbb3dBcTjpLxn0HoGN9fUqsl3EFL0RCGMD299h81fG8g0k0mKopzUn1dQ2s2pGfOTFfE_FQbJATO-HmtgBRwagXn0wGOUbIYuNxN9qBZjfNHJL_XzC25DyeHSn6YF9v_-8PWuwYBEbjMeWWaowe1YvNGUH148mXjITmukqvLzu43y-0N_N","width":3072}],"place_id":"ChIJjZQwb0in2EcR4zHaujjX0Qk","plus_code":{"compound_code":"H32F+HH Ilford","global_code":"9F32H32F+HH"},"rating":3.9,"reference":"ChIJjZQwb0in2EcR4zHaujjX0Qk","types":["restaurant","food","point_of_interest","establishment"],"user_ratings_total":135},{"business_status":"OPERATIONAL","formatted_address":"50 Woodgrange Rd, London E7 0QH","geometry":{"location":{"lat":51.5488623,"lng":0.0250893},"viewport":{"northeast":{"lat":51.55019737989272,"lng":0.02632912989272222},"southwest":{"lat":51.54749772010728,"lng":0.02362947010727778}}},"icon":"https://maps.gstatic.com/mapfiles/place_api/icons/v1/png_71/restaurant-71.png","icon_background_color":"#FF9E67","icon_mask_base_uri":"https://maps.gstatic.com/mapfiles/place_api/icons/v2/restaurant_pinlet","name":"Turkish Doner E7: Pizza, Burgers, Turkish Kebabs.","opening_hours":{"open_now":true},"photos":[{"height":400,"html_attributions":["<a href=\"https://maps.google.com/maps/contrib/118235515139158434250\">A Google User</a>"],"photo_reference":"AeJbb3ctnSSuDis1NFko-4hsC4er-BkchnbFoH-tQbqyt3wCdHtO1e2w5GAAcuoG8fwWrGAPYlzzxtfY9F4_jZdSXoKrcqaCZ-l1F8Yl19Iq7zk5SksJubHi2G2mFVJ8x3z0SvGb59YA6h8N6Y9hxKhlW9lbGYbVlzRA1dOw4RdBxPRodDAy","width":401}],"place_id":"ChIJbcK1V8yn2EcRzerIjUOrltU","plus_code":{"compound_code":"G2XG+G2 London","global_code":"9F32G2XG+G2"},"rating":3.9,"reference":"ChIJbcK1V8yn2EcRzerIjUOrltU","types":["meal_takeaway","restaurant","point_of_interest","food","establishment"],"user_ratings_total":21},{"business_status":"OPERATIONAL","formatted_address":"24 Broadway, London W13 0SU","geometry":{"location":{"lat":51.5109209,"lng":-0.3210535},"viewport":{"northeast":{"lat":51.51211717989271,"lng":-0.3198583201072777},"southwest":{"lat":51.50941752010727,"lng":-0.3225579798927222}}},"icon":"https://maps.gstatic.com/mapfiles/place_api/icons/v1/png_71/restaurant-71.png","icon_background_color":"#FF9E67","icon_mask_base_uri":"https://maps.gstatic.com/mapfiles/place_api/icons/v2/restaurant_pinlet","name":"German Doner Kebab","opening_hours":{"open_now":true},"photos":[{"height":421,"html_attributions":["<a href=\"https://maps.google.com/maps/contrib/101657092661894008295\">A Google User</a>"],"photo_reference":"AeJbb3cSjLB4QZ173chewfTU1J4BJN0xhVtwSrUZ47i93NME0UKKEwSnR9wWY3K5XJNpMDx8VD4WMV1hCET6yaaojGnrxIRQckBD1RW8SJFFa5IFKCjQhVCsAwEAaLQbIEeyBD5EPSS9SnhsCRkFSjB57kr8FFPPaI_CQKWzUTJ3-5g5UKhJ","width":800}],"place_id":"ChIJ___z84YNdkgRQguX3LwCGWU","plus_code":{"compound_code":"GM6H+9H London","global_code":"9C3XGM6H+9H"},"price_level":2,"rating":3.8,"reference":"ChIJ___z84YNdkgRQguX3LwCGWU","types":["meal_takeaway","restaurant","food","point_of_interest","establishment"],"user_ratings_total":1166},{"business_status":"OPERATIONAL","formatted_address":"94 Cranbrook Rd, Cranbrook, Ilford IG1 4NH","geometry":{"location":{"lat":51.5612197,"lng":0.0693818},"viewport":{"northeast":{"lat":51.56255167989272,"lng":0.07066247989272222},"southwest":{"lat":51.55985202010727,"lng":0.06796282010727778}}},"icon":"https://maps.gstatic.com/mapfiles/place_api/icons/v1/png_71/restaurant-71.png","icon_background_color":"#FF9E67","icon_mask_base_uri":"https://maps.gstatic.com/mapfiles/place_api/icons/v2/restaurant_pinlet","name":"German Doner Kebab","opening_hours":{"open_now":true},"photos":[{"height":421,"html_attributions":["<a href=\"https://maps.google.com/maps/contrib/102312735677039728691\">German Doner Kebab Ilford</a>"],"photo_reference":"AeJbb3c1DgmLQ4ELvTu2CQj2k8vQX03gq3UfA_Uipov61UUpP3nFFmzchh2QIy9rCTlciTgiGtZck2rhhHQc_RigP5UjTQqQIAzw6uXlhY4cdiTo9zB_Y7MoGsoC5StT3ZHD1_ES19uENgOedbxFYYqqjCuStTygbsQB7vCS1rWcSMaq7mch","width":800}],"place_id":"ChIJ5ZUpx_Sm2EcRngHOWX4ptn4","plus_code":{"compound_code":"H369+FQ Ilford","global_code":"9F32H369+FQ"},"price_level":2,"rating":3.7,"reference":"ChIJ5ZUpx_Sm2EcRngHOWX4ptn4","types":["restaurant","meal_takeaway","food","point_of_interest","establishment"],"user_ratings_total":1612},{"business_status":"OPERATIONAL","formatted_address":"50 Broadway, London E15 1NG","geometry":{"location":{"lat":51.541234,"lng":0.0014582},"viewport":{"northeast":{"lat":51.54244492989272,"lng":0.003033679892722216},"southwest":{"lat":51.53974527010728,"lng":0.0003340201072777841}}},"icon":"https://maps.gstatic.com/mapfiles/place_api/icons/v1/png_71/restaurant-71.png","icon_background_color":"#FF9E67","icon_mask_base_uri":"https://maps.gstatic.com/mapfiles/place_api/icons/v2/restaurant_pinlet","name":"German Doner Kebab","opening_hours":{"open_now":true},"photos":[{"height":421,"html_attributions":["<a href=\"https://maps.google.com/maps/contrib/100456869880723698323\">A Google User</a>"],"photo_reference":"AeJbb3cBpuM9R9J3WzHGLdtTYxp2Tu_AvGDrzykSP3CtC4K-iXxjPilitK5PxKke1Hh3tYLneMd_ScwnPU4lt7Ti0FmsTivDTwle0ZsyUEDhj_AMbzfFP5K1x1YJ8hXmg5I70ibhoE_6mjtF5fwyyHfUFnMNYx9SlrAaLnZSLBoHknBgbI8p","width":561}],"place_id":"ChIJbVEYIIqn2EcRzR_iKPTPV8o","plus_code":{"compound_code":"G2R2+FH London","global_code":"9F32G2R2+FH"},"price_level":2,"rating":3.7,"reference":"ChIJbVEYIIqn2EcRzR_iKPTPV8o","types":["meal_takeaway","restaurant","point_of_interest","food","establishment"],"user_ratings_total":1338},{"business_status":"OPERATIONAL","formatted_address":"Unit 35, East Shopping Centre, 232-236 Green St, London E7 8LE","geometry":{"location":{"lat":51.5394045,"lng":0.0312824},"viewport":{"northeast":{"lat":51.54087692989273,"lng":0.03336635},"southwest":{"lat":51.53817727010728,"lng":0.03058775}}},"icon":"https://maps.gstatic.com/mapfiles/place_api/icons/v1/png_71/restaurant-71.png","icon_background_color":"#FF9E67","icon_mask_base_uri":"https://maps.gstatic.com/mapfiles/place_api/icons/v2/restaurant_pinlet","name":"German Doner Kebab","opening_hours":{"open_now":true},"photos":[{"height":421,"html_attributions":["<a href=\"https://maps.google.com/maps/contrib/114331685053219867806\">A Google User</a>"],"photo_reference":"AeJbb3dVgE0mBXJ4d5IjSSIqt5LJ4gPW0hOw-nHyd_iQzfDnzGWPs6gEawomTCXAGAnIkmJrKcGEcm-y20uZCPNavPEJ5AhZhXLfsBJ8zduMBsuNZs1twfpcuoo8zEX6D5vQ1h6aa3SHu-vQVWq4RCdBVU-tDEmt1EfMy7ytsU29CTujbDQ","width":800}],"place_id":"ChIJUfUukDan2EcRrIEZfR2bdRw","plus_code":{"compound_code":"G2QJ+QG London","global_code":"9F32G2QJ+QG"},"price_level":2,"rating":3.7,"reference":"ChIJUfUukDan2EcRrIEZfR2bdRw","types":["meal_takeaway","restaurant","food","point_of_interest","establishment"],"user_ratings_total":188},{"business_status":"OPERATIONAL","formatted_address":"118 Wandsworth High St, London SW18 4JP","geometry":{"location":{"lat":51.457351,"lng":-0.1966167},"viewport":{"northeast":{"lat":51.45866877989272,"lng":-0.1952520701072778},"southwest":{"lat":51.45596912010728,"lng":-0.1979517298927222}}},"icon":"https://maps.gstatic.com/mapfiles/place_api/icons/v1/png_71/restaurant-71.png","icon_background_color":"#FF9E67","icon_mask_base_uri":"https://maps.gstatic.com/mapfiles/place_api/icons/v2/restaurant_pinlet","name":"Berlin Döner Kebab","opening_hours":{"open_now":true},"photos":[{"height":1066,"html_attributions":["<a href=\"https://maps.google.com/maps/contrib/101596230711138650299\">A Google User</a>"],"photo_reference":"AeJbb3c17-i32FIqJnzBs7QKG9vQoQPS6cFV34q7qDagvM6uuZjX3fLnkpysJ35unjZsELbEzmTeDu7Ky5lSDGXLpdq3ItuAAZMWOovpC1QJFFpMrJXdDT53zLL_Ri9A1cQ22DobwnvgIiek5TGu5cyZX8dOrl4XjZiSChYEVbGBMAAks-NP","width":1600}],"place_id":"ChIJ0Sz74wwPdkgRdu1df-L0jfk","plus_code":{"compound_code":"FR43+W9 London","global_code":"9C3XFR43+W9"},"rating":3.7,"reference":"ChIJ0Sz74wwPdkgRdu1df-L0jfk","types":["restaurant","food","point_of_interest","establishment"],"user_ratings_total":76},{"business_status":"OPERATIONAL","formatted_address":"111 High St N, London E6 1HZ","geometry":{"location":{"lat":51.53614229999999,"lng":0.0522276},"viewport":{"northeast":{"lat":51.53746172989273,"lng":0.05379642989272222},"southwest":{"lat":51.53476207010728,"lng":0.05109677010727779}}},"icon":"https://maps.gstatic.com/mapfiles/place_api/icons/v1/png_71/restaurant-71.png","icon_background_color":"#FF9E67","icon_mask_base_uri":"https://maps.gstatic.com/mapfiles/place_api/icons/v2/restaurant_pinlet","name":"German Doner Kebab","opening_hours":{"open_now":true},"photos":[{"height":421,"html_attributions":["<a href=\"https://maps.google.com/maps/contrib/117485048241939989281\">A Google User</a>"],"photo_reference":"AeJbb3dRRnlsXX5NF2hQZ6IbpSBdHmBBoopTEfzvvZb9UMw8iKe8QTzFQKaUbhh9mN2uiC1KPR3QA37fX6OIcuHAtC4OrOhasQAfe1KJwChY9Y22pDJkEnDRGhjc46YPjShapC8q-juZf10nuvo_owypPxGZoWq8IWDR8qUwGVDPMgmRy6z5","width":800}],"place_id":"ChIJJ76jbKyn2EcRDZItHZcTAd4","plus_code":{"compound_code":"G3P2+FR London","global_code":"9F32G3P2+FR"},"price_level":2,"rating":3.5,"reference":"ChIJJ76jbKyn2EcRDZItHZcTAd4","types":["meal_takeaway","restaurant","point_of_interest","food","establishment"],"user_ratings_total":1049},{"business_status":"OPERATIONAL","formatted_address":"474 High Rd, London N17 9JF","geometry":{"location":{"lat":51.5930469,"lng":-0.06943429999999999},"viewport":{"northeast":{"lat":51.59440522989272,"lng":-0.06822297010727776},"southwest":{"lat":51.59170557010728,"lng":-0.0709226298927222}}},"icon":"https://maps.gstatic.com/mapfiles/place_api/icons/v1/png_71/restaurant-71.png","icon_background_color":"#FF9E67","icon_mask_base_uri":"https://maps.gstatic.com/mapfiles/place_api/icons/v2/restaurant_pinlet","name":"German Doner Kebab","opening_hours":{"open_now":true},"photos":[{"height":421,"html_attributions":["<a href=\"https://maps.google.com/maps/contrib/102990497263221536594\">A Google User</a>"],"photo_reference":"AeJbb3dXNmqgcqzg70efM4BQb2tB5Z-23ZABskIkQk715tbAUZTUthAPw9Y_hW9cwgcQPX5bB8wzlkZzYoUL0zDbm-XTYPYwNUjwssB9n5Gj24HxdvFsP0fkF0ogitf5J9N-Ko1EfdJFqVqRvCZ4svAPeu9jVpGaC1X4aHGc1tCfbO-8yKrl","width":800}],"place_id":"ChIJY20xVk0ddkgR-6MdYbPQgL8","plus_code":{"compound_code":"HWVJ+66 London","global_code":"9C3XHWVJ+66"},"price_level":2,"rating":3.5,"reference":"ChIJY20xVk0ddkgR-6MdYbPQgL8","types":["meal_takeaway","restaurant","food","point_of_interest","establishment"],"user_ratings_total":329},{"business_status":"OPERATIONAL","formatted_address":"58 Bellegrove Rd, Welling DA16 3PY","geometry":{"location":{"lat":51.46320679999999,"lng":0.1037571},"viewport":{"northeast":{"lat":51.46450802989272,"lng":0.1051143298927222},"southwest":{"lat":51.46180837010727,"lng":0.1024146701072778}}},"icon":"https://maps.gstatic.com/mapfiles/place_api/icons/v1/png_71/restaurant-71.png","icon_background_color":"#FF9E67","icon_mask_base_uri":"https://maps.gstatic.com/mapfiles/place_api/icons/v2/restaurant_pinlet","name":"Paradise German Doner Kebab","opening_hours":{"open_now":true},"photos":[{"height":1200,"html_attributions":["<a href=\"https://maps.google.com/maps/contrib/110017476626723884341\">Mahmut Ozmus</a>"],"photo_reference":"AeJbb3ckBiWjEbzkQDqTbwR8m-Hxr8QXtcVCvnYJuo8byyx1NSKj9JfBFqxHjUtea26AzaXjpHGtrejLUFiXEQ_4CFnDE8ifTD67TLF8a9H5xljqsuBqjsbTtWP4yCVSSFQjz0e2tRSgyi6OuwX1Xpmlzb_LsllWgEhIGmvBf3B-eACg4L21","width":1600}],"place_id":"ChIJ-aS9O9Cu2EcR90hcQw9Ui4Q","plus_code":{"compound_code":"F473+7G Welling","global_code":"9F32F473+7G"},"price_level":1,"rating":3.3,"reference":"ChIJ-aS9O9Cu2EcR90hcQw9Ui4Q","types":["restaurant","point_of_interest","food","establishment"],"user_ratings_total":95},{"business_status":"OPERATIONAL","formatted_address":"29, The High Parade, London SW16 1EX","geometry":{"location":{"lat":51.4335761,"lng":-0.1280574},"viewport":{"northeast":{"lat":51.43493817989272,"lng":-0.1267716701072778},"southwest":{"lat":51.43223852010728,"lng":-0.1294713298927222}}},"icon":"https://maps.gstatic.com/mapfiles/place_api/icons/v1/png_71/restaurant-71.png","icon_background_color":"#FF9E67","icon_mask_base_uri":"https://maps.gstatic.com/mapfiles/place_api/icons/v2/restaurant_pinlet","name":"German Doner Kebab","opening_hours":{"open_now":true},"photos":[{"height":4032,"html_attributions":["<a href=\"https://maps.google.com/maps/contrib/104230905585757706808\">Mubushar Ali</a>"],"photo_reference":"AeJbb3fN-eMPkdgvVypz0ODfOR6I5vn56Gk2ugZjH0ob4OjrVQ6DaSlCDq55IcANDBJQJ5_X_WmLQUTEaOROG16ICEahATZeM6ArjUwk4EV0jhgq9KVJUqtuxgEas8kkJe9xJy_vxUDZPNFaAjbvoF2Lj7imuPP4VDvR2K6DEQrE67w-7kcR","width":2268}],"place_id":"ChIJKX3r_CYFdkgRAkFCz53Ukbg","plus_code":{"compound_code":"CVMC+CQ London","global_code":"9C3XCVMC+CQ"},"price_level":2,"rating":3.2,"reference":"ChIJKX3r_CYFdkgRAkFCz53Ukbg","types":["meal_takeaway","restaurant","food","point_of_interest","establishment"],"user_ratings_total":342},{"business_status":"OPERATIONAL","formatted_address":"Imperial Hall, 104 - 122 City Rd, London EC1V 2NR","geometry":{"location":{"lat":51.5263058,"lng":-0.0881261},"viewport":{"northeast":{"lat":51.52767877989272,"lng":-0.08664152010727778},"southwest":{"lat":51.52497912010728,"lng":-0.08934117989272222}}},"icon":"https://maps.gstatic.com/mapfiles/place_api/icons/v1/png_71/restaurant-71.png","icon_background_color":"#FF9E67","icon_mask_base_uri":"https://maps.gstatic.com/mapfiles/place_api/icons/v2/restaurant_pinlet","name":"German Doner Kebab","place_id":"ChIJZwtEFZ4ddkgRlDSNWkhiQ4o","plus_code":{"compound_code":"GWG6+GP London","global_code":"9C3XGWG6+GP"},"rating":3,"reference":"ChIJZwtEFZ4ddkgRlDSNWkhiQ4o","types":["restaurant","food","point_of_interest","establishment"],"user_ratings_total":2}]