[{"business_status":"OPERATIONAL","formatted_address":"Weseler Str. 35, 40239 Düsseldorf","geometry":{"location":{"lat":51.2399686,"lng":6.799770499999999},"viewport":{"northeast":{"lat":51.24131197989273,"lng":6.801001979892721},"southwest":{"lat":51.23861232010729,"lng":6.798302320107277}}},"icon":"https://maps.gstatic.com/mapfiles/place_api/icons/v1/png_71/restaurant-71.png","icon_background_color":"#FF9E67","icon_mask_base_uri":"https://maps.gstatic.com/mapfiles/place_api/icons/v2/restaurant_pinlet","name":"Lay Thai Restaurant & Lounge","opening_hours":{"open_now":false},"photos":[{"height":1200,"html_attributions":["<a href=\"https://maps.google.com/maps/contrib/115408794128626155406\">kreeper1000 .</a>"],"photo_reference":"AeJbb3eQKu50XWv9nU13MH83_NXD6JaChjNFPxmKHG82E4QqC2TIUJW7PM-9EGFqF_bYlpuoIG00TAfV24AJgYzvfO3HP7W00cy34j-u94Bch97g21V8udPhCA0fVYUDCMlw3U3AUFWjoRPD1QwBA-BtNv6lIP3cPrq5pkGTBWNBc2tExQNu","width":1600}],"place_id":"ChIJe3k6128tv0cRwYyFzmc0xRg","plus_code":{"compound_code":"6QQX+XW Düsseldorf","global_code":"9F386QQX+XW"},"rating":4.9,"reference":"ChIJe3k6128tv0cRwYyFzmc0xRg","types":["meal_takeaway","bar","restaurant","food","point_of_interest","establishment"],"user_ratings_total":768},{"business_status":"OPERATIONAL","formatted_address":"Drießendorfer Str. 35, 47798 Krefeld","geometry":{"location":{"lat":51.3396279,"lng":6.5570644},"viewport":{"northeast":{"lat":51.34093102989272,"lng":6.558476029892722},"southwest":{"lat":51.33823137010728,"lng":6.555776370107278}}},"icon":"https://maps.gstatic.com/mapfiles/place_api/icons/v1/png_71/restaurant-71.png","icon_background_color":"#FF9E67","icon_mask_base_uri":"https://maps.gstatic.com/mapfiles/place_api/icons/v2/restaurant_pinlet","name":"Khao Thip Thai Restaurant","opening_hours":{"open_now":false},"photos":[{"height":1054,"html_attributions":["<a href=\"https://maps.google.com/maps/contrib/112576351917324613287\">A Google User</a>"],"photo_reference":"AeJbb3c94Q62YJm0ATn8rzQGKXMIIxkgB2MSiPcuvvqeL7Hmkcpms0kWYO9AB3CAvtVV5LmYptcI3cjy69nEEJcoYE3UqoYF0Y9vga-A2kw8qxGdr0Y2KyUoLIPyd183o_PEfkknbtiFLdOy6OWJ7pogVwY5SiLgi4f-EnB8uTh9CZwVk28Q","width":1405}],"place_id":"ChIJMZ2tso-luEcRaDWrNz36Jds","plus_code":{"compound_code":"8HQ4+RR Krefeld","global_code":"9F388HQ4+RR"},"rating":4.9,"reference":"ChIJMZ2tso-luEcRaDWrNz36Jds","types":["restaurant","food","point_of_interest","establishment"],"user_ratings_total":87},{"business_status":"OPERATIONAL","formatted_address":"Lenaustraße 38, 40470 Düsseldorf","geometry":{"location":{"lat":51.24708,"lng":6.82304},"viewport":{"northeast":{"lat":51.24844337989272,"lng":6.823935879892722},"southwest":{"lat":51.24574372010728,"lng":6.821236220107278}}},"icon":"https://maps.gstatic.com/mapfiles/place_api/icons/v1/png_71/restaurant-71.png","icon_background_color":"#FF9E67","icon_mask_base_uri":"https://maps.gstatic.com/mapfiles/place_api/icons/v2/restaurant_pinlet","name":"Cu Thai Restaurant","opening_hours":{"open_now":true},"photos":[{"height":2736,"html_attributions":["<a href=\"https://maps.google.com/maps/contrib/100507738728257683605\">A Google User</a>"],"photo_reference":"AeJbb3cS_RQj-g3Ap32Hr3GIij296gUE9KWnt5o1pFCt4prva93l89I-9zPNpQ7f5_pe9X2pJPidhizy5OAh816iq5Q7V6I27FOJsDx5lBvrecdmzcQP61GXhMEmChL1hlN7axAtJgsAdZPgWrCFYelnJ0i4SjDZ_Q6wC_r78P9b-Gt6JGni","width":3648}],"place_id":"ChIJI4o8zcPJuEcRPpEro0thNPw","plus_code":{"compound_code":"6RWF+R6 Düsseldorf","global_code":"9F386RWF+R6"},"rating":4.9,"reference":"ChIJI4o8zcPJuEcRPpEro0thNPw","types":["restaurant","food","point_of_interest","establishment"],"user_ratings_total":13},{"business_status":"OPERATIONAL","formatted_address":"Weseler Str. 63, 40239 Düsseldorf","geometry":{"location":{"lat":51.2389325,"lng":6.8015766},"viewport":{"northeast":{"lat":51.24033047989272,"lng":6.803003529892722},"southwest":{"lat":51.23763082010728,"lng":6.800303870107278}}},"icon":"https://maps.gstatic.com/mapfiles/place_api/icons/v1/png_71/restaurant-71.png","icon_background_color":"#FF9E67","icon_mask_base_uri":"https://maps.gstatic.com/mapfiles/place_api/icons/v2/restaurant_pinlet","name":"Lai Thai Imbiss","opening_hours":{"open_now":true},"photos":[{"height":626,"html_attributions":["<a href=\"https://maps.google.com/maps/contrib/107512209177888887948\">A Google User</a>"],"photo_reference":"AeJbb3eYHL32dLf_vpTk1Y6KcDzEm3SE4yq72RgRiPcwGfauDISby7USuzRerzoX571rreEoTkxzyF_FA3CGpx-G2FYkIlvqStuGMovP3v4xAVq22Fcu72OiwOV6WiW_bRfXvgZHczzWtwb5J_ydQNsdQRb1g6bw-sMNKiFppe-C8xe7hntG","width":834}],"place_id":"ChIJeyNm4IPJuEcRLFJCbm24pME","plus_code":{"compound_code":"6RQ2+HJ Düsseldorf","global_code":"9F386RQ2+HJ"},"rating":4.8,"reference":"ChIJeyNm4IPJuEcRLFJCbm24pME","types":["restaurant","food","point_of_interest","establishment"],"user_ratings_total":51},{"business_status":"OPERATIONAL","formatted_address":"Henkelstraße 286, 40599 Düsseldorf","geometry":{"location":{"lat":51.178387,"lng":6.8577239},"viewport":{"northeast":{"lat":51.17982342989272,"lng":6.858975579892722},"southwest":{"lat":51.17712377010727,"lng":6.856275920107278}}},"icon":"https://maps.gstatic.com/mapfiles/place_api/icons/v1/png_71/restaurant-71.png","icon_background_color":"#FF9E67","icon_mask_base_uri":"https://maps.gstatic.com/mapfiles/place_api/icons/v2/restaurant_pinlet","name":"Asia Thai Reisholz","opening_hours":{"open_now":true},"place_id":"ChIJ98ihM8vNuEcR-TkGqt8iyrg","plus_code":{"compound_code":"5VH5+93 Düsseldorf","global_code":"9F385VH5+93"},"rating":4.8,"reference":"ChIJ98ihM8vNuEcR-TkGqt8iyrg","types":["restaurant","food","point_of_interest","establishment"],"user_ratings_total":9},{"business_status":"OPERATIONAL","formatted_address":"Wilhelmstraße 84, 42489 Wülfrath","geometry":{"location":{"lat":51.2823429,"lng":7.037231100000001},"viewport":{"northeast":{"lat":51.28369642989272,"lng":7.038578679892721},"southwest":{"lat":51.28099677010728,"lng":7.035879020107277}}},"icon":"https://maps.gstatic.com/mapfiles/place_api/icons/v1/png_71/restaurant-71.png","icon_background_color":"#FF9E67","icon_mask_base_uri":"https://maps.gstatic.com/mapfiles/place_api/icons/v2/restaurant_pinlet","name":"Indochina Restaurant","opening_hours":{"open_now":true},"photos":[{"height":3024,"html_attributions":["<a href=\"https://maps.google.com/maps/contrib/110058549583873403299\">Robert Kostolány</a>"],"photo_reference":"AeJbb3f_iy8veT-tNFwgwhmQUC6hS32if4cXcvpqnZg2bTRyRNbnNjoDz2MoKCNB4AOZvzoG6c3HZid2srY-E4BM7gNpgSUGpF5xMkK59npNea0FbhhoChOcHktX6Sha7GtIjdKt8GgLH2qb6IJ2yPci-bCyFWzB2eHlXsRylRA3h7NS6V6K","width":4032}],"place_id":"ChIJj13iVvPQuEcRKJwr8lzV7yE","plus_code":{"compound_code":"72JP+WV Wülfrath","global_code":"9F3972JP+WV"},"price_level":2,"rating":4.7,"reference":"ChIJj13iVvPQuEcRKJwr8lzV7yE","types":["restaurant","food","point_of_interest","establishment"],"user_ratings_total":383},{"business_status":"OPERATIONAL","formatted_address":"Venloer Str. 62, 41462 Neuss","geometry":{"location":{"lat":51.2128458,"lng":6.6669481},"viewport":{"northeast":{"lat":51.21416082989272,"lng":6.668242829892721},"southwest":{"lat":51.21146117010728,"lng":6.665543170107277}}},"icon":"https://maps.gstatic.com/mapfiles/place_api/icons/v1/png_71/restaurant-71.png","icon_background_color":"#FF9E67","icon_mask_base_uri":"https://maps.gstatic.com/mapfiles/place_api/icons/v2/restaurant_pinlet","name":"Lay Thai","opening_hours":{"open_now":true},"photos":[{"height":1242,"html_attributions":["<a href=\"https://maps.google.com/maps/contrib/101632014527286639692\">A Google User</a>"],"photo_reference":"AeJbb3cpXwnxuj4_YI_hMZ9duwd_8adI7m4DC0JAceyZ1h85fXouU9pGfp1pMZD9xLKCi_3ujgDN9trNpN_rreOCvt2oN-A4mAW8w6zt26Utej1lN0Y-s9ODxSED_LGrmjaH7NwUoyFDxo0w7wTtuVrhx3lFWGa7iZJVDP1ZqZfWnWT59iFx","width":2284}],"place_id":"ChIJg1Rdzmm0uEcRphMP9VyIhlI","plus_code":{"compound_code":"6M78+4Q Neuss","global_code":"9F386M78+4Q"},"rating":4.7,"reference":"ChIJg1Rdzmm0uEcRphMP9VyIhlI","types":["restaurant","food","point_of_interest","establishment"],"user_ratings_total":154},{"business_status":"OPERATIONAL","formatted_address":"Glockhammer 59, 41460 Neuss","geometry":{"location":{"lat":51.2001026,"lng":6.6935528},"viewport":{"northeast":{"lat":51.20150877989273,"lng":6.694906179892722},"southwest":{"lat":51.19880912010728,"lng":6.692206520107278}}},"icon":"https://maps.gstatic.com/mapfiles/place_api/icons/v1/png_71/restaurant-71.png","icon_background_color":"#FF9E67","icon_mask_base_uri":"https://maps.gstatic.com/mapfiles/place_api/icons/v2/restaurant_pinlet","name":"Restaurant Thai Royal","opening_hours":{"open_now":false},"photos":[{"height":4032,"html_attributions":["<a href=\"https://maps.google.com/maps/contrib/103871845204593846599\">Andreas Binninger</a>"],"photo_reference":"AeJbb3d-aH4ntHh6fRy92qbIBQw-mXqaKlWs1n6BtUbAgtTWYGRhTkMNvu3saaQTjsT2I3mRiIKQ9HxJhG71NGWixhYMH9b-6yGwre8QOKlUi7GYt7gsEd-Ut5a3glsJCYldKiXe_QC2CxqoBbBzrmZviB_t1JRTuXVdaqwWYqLb6iFfkzUU","width":3024}],"place_id":"ChIJ4QbE21S0uEcRfDUlMQ4Nus8","plus_code":{"compound_code":"6M2V+2C Neuss","global_code":"9F386M2V+2C"},"price_level":2,"rating":4.6,"reference":"ChIJ4QbE21S0uEcRfDUlMQ4Nus8","types":["restaurant","food","point_of_interest","establishment"],"user_ratings_total":323},{"business_status":"OPERATIONAL","formatted_address":"Friedrichstraße 121, 40217 Düsseldorf","geometry":{"location":{"lat":51.2102526,"lng":6.7766644},"viewport":{"northeast":{"lat":51.21160882989272,"lng":6.778083029892722},"southwest":{"lat":51.20890917010728,"lng":6.775383370107278}}},"icon":"https://maps.gstatic.com/mapfiles/place_api/icons/v1/png_71/restaurant-71.png","icon_background_color":"#FF9E67","icon_mask_base_uri":"https://maps.gstatic.com/mapfiles/place_api/icons/v2/restaurant_pinlet","name":"Mekong","opening_hours":{"open_now":true},"photos":[{"height":3024,"html_attributions":["<a href=\"https://maps.google.com/maps/contrib/105353230931372529056\">yamanyan10</a>"],"photo_reference":"AeJbb3eNa6j6VPIyI771e95m35CKoeTByg2yYGhYp93FJVIA32uArZT-loUJS7LwDWQ_d4iVKfdLsEueU_BsEDvtPUK_WgoNvQx7odjwkJHFsJNEbzWtFDi9v4lrBTMmyXlG5UEPcO9Aep1O-rjuP-pd91ggOdPq8dkhxByejEvz9HBPa-ui","width":3024}],"place_id":"ChIJ5UmnC0HKuEcRU1A1CIHe_Fw","plus_code":{"compound_code":"6Q6G+4M Düsseldorf","global_code":"9F386Q6G+4M"},"price_level":2,"rating":4.6,"reference":"ChIJ5UmnC0HKuEcRU1A1CIHe_Fw","types":["restaurant","food","point_of_interest","establishment"],"user_ratings_total":290},{"business_status":"OPERATIONAL","formatted_address":"Krefelder Str. 27, 41539 Dormagen","geometry":{"location":{"lat":51.0971477,"lng":6.8381894},"viewport":{"northeast":{"lat":51.09847292989272,"lng":6.839478629892722},"southwest":{"lat":51.09577327010727,"lng":6.836778970107278}}},"icon":"https://maps.gstatic.com/mapfiles/place_api/icons/v1/png_71/restaurant-71.png","icon_background_color":"#FF9E67","icon_mask_base_uri":"https://maps.gstatic.com/mapfiles/place_api/icons/v2/restaurant_pinlet","name":"Baan Thai - Imbiss","opening_hours":{"open_now":true},"photos":[{"height":3024,"html_attributions":["<a href=\"https://maps.google.com/maps/contrib/110393052185029741315\">Buala Thiva</a>"],"photo_reference":"AeJbb3fcUXM6BWbUlH0KRdH_mB8LirGo08uD19LyvgVLAon9OYYQ2K7Fv9Bm0-DXWSyYVsIND_vrmfjV58Jri9AHjuPT7V0C0t1ymnUjChsknNqHEL0Kjva-s1SXhSOfjKvWdghlD_bdMC56w27MX09Xw1oqkfvY48cADfMAIuRe9N7LeI9c","width":4032}],"place_id":"ChIJK9Km1Jozv0cROmr2dUCrUxQ","plus_code":{"compound_code":"3RWQ+V7 Dormagen","global_code":"9F383RWQ+V7"},"price_level":1,"rating":4.6,"reference":"ChIJK9Km1Jozv0cROmr2dUCrUxQ","types":["meal_takeaway","restaurant","food","point_of_interest","establishment"],"user_ratings_total":261},{"business_status":"OPERATIONAL","formatted_address":"Westfalenstraße 75, 40472 Düsseldorf","geometry":{"location":{"lat":51.2631098,"lng":6.8178091},"viewport":{"northeast":{"lat":51.26450042989272,"lng":6.819140479892723},"southwest":{"lat":51.26180077010728,"lng":6.816440820107279}}},"icon":"https://maps.gstatic.com/mapfiles/place_api/icons/v1/png_71/restaurant-71.png","icon_background_color":"#FF9E67","icon_mask_base_uri":"https://maps.gstatic.com/mapfiles/place_api/icons/v2/restaurant_pinlet","name":"Asia Tran","opening_hours":{"open_now":true},"photos":[{"height":4032,"html_attributions":["<a href=\"https://maps.google.com/maps/contrib/114799515273705190621\">Thi Tran</a>"],"photo_reference":"AeJbb3c6fKAVIsISd9_d86MI2F2MeGAe1qxE909j0vGPKMBJamzX4wY9wD5yylgskNS1nNMLp58zzCVo_mHNRpHatWRgsLre7p23G_Fe9o2M9QdXklP6dnRmd3QOM9e05FfboNMJEnveGA9rN9dxsqvxAK0RgApvC5C2sE6NNb_jJQ9-WXzD","width":3024}],"place_id":"ChIJKfN7vgjJuEcRrOoQIqjBOuE","plus_code":{"compound_code":"7R79+64 Düsseldorf","global_code":"9F387R79+64"},"price_level":1,"rating":4.6,"reference":"ChIJKfN7vgjJuEcRrOoQIqjBOuE","types":["restaurant","food","point_of_interest","establishment"],"user_ratings_total":242},{"business_status":"OPERATIONAL","formatted_address":"Behrenstraße 44, 40233 Düsseldorf","geometry":{"location":{"lat":51.225476,"lng":6.810816099999999},"viewport":{"northeast":{"lat":51.22671772989272,"lng":6.812186229892721},"southwest":{"lat":51.22401807010727,"lng":6.809486570107278}}},"icon":"https://maps.gstatic.com/mapfiles/place_api/icons/v1/png_71/restaurant-71.png","icon_background_color":"#FF9E67","icon_mask_base_uri":"https://maps.gstatic.com/mapfiles/place_api/icons/v2/restaurant_pinlet","name":"Ayutthaya Thai Imbiss","opening_hours":{"open_now":true},"photos":[{"height":3024,"html_attributions":["<a href=\"https://maps.google.com/maps/contrib/103615774089584605144\">Marco Huenermann</a>"],"photo_reference":"AeJbb3fr1Gzujpkbo01leKHjSHoge21ohiP3sx3kV6dQ_LItj4N8FkiZtvqhzdTwwSVHEjTLD8XNiyVQcgUh2vlVWhxpKokPymkhMHamJY7zUuyrKP_CWV--MNMg10vzXIHwpi9JuzNxmC8aVkaOyVwYvHAGG9QWVzIlyDe1n89-0norl0RY","width":4032}],"place_id":"ChIJHSiqcNHLuEcRHZWaj7-H7dY","plus_code":{"compound_code":"6RG6+58 Düsseldorf","global_code":"9F386RG6+58"},"price_level":1,"rating":4.6,"reference":"ChIJHSiqcNHLuEcRHZWaj7-H7dY","types":["restaurant","food","point_of_interest","establishment"],"user_ratings_total":229},{"business_status":"OPERATIONAL","formatted_address":"Rheinstraße 37, 47799 Krefeld","geometry":{"location":{"lat":51.3343722,"lng":6.568677099999999},"viewport":{"northeast":{"lat":51.33571057989273,"lng":6.570035329892721},"southwest":{"lat":51.33301092010728,"lng":6.567335670107277}}},"icon":"https://maps.gstatic.com/mapfiles/place_api/icons/v1/png_71/restaurant-71.png","icon_background_color":"#FF9E67","icon_mask_base_uri":"https://maps.gstatic.com/mapfiles/place_api/icons/v2/restaurant_pinlet","name":"Baan Thai","opening_hours":{"open_now":true},"photos":[{"height":1200,"html_attributions":["<a href=\"https://maps.google.com/maps/contrib/105911796140583262828\">chicopowerman54</a>"],"photo_reference":"AeJbb3eWyh-OnwyYyRbdVn79kT1DJx0H4cymFgjUnO8fOGb3lxw-qxucksE_JV7sRDPdmb65ZUdH8zHOAbgDehbe8HidLW9qDMsCxF6zgX80-bHbMSpFJBtWc8KXnbsGEd0XpAQYej17aalDvKZD2sFwnf710UMKbR5mmELNklgsuswEpR3d","width":1600}],"place_id":"ChIJ-75Kpau6uEcRsG3nfprlZeo","plus_code":{"compound_code":"8HM9+QF Krefeld","global_code":"9F388HM9+QF"},"price_level":2,"rating":4.6,"reference":"ChIJ-75Kpau6uEcRsG3nfprlZeo","types":["restaurant","food","point_of_interest","establishment"],"user_ratings_total":189},{"business_status":"OPERATIONAL","formatted_address":"Hülser Str. 67, 47803 Krefeld","geometry":{"location":{"lat":51.3421727,"lng":6.5549949},"viewport":{"northeast":{"lat":51.34348202989272,"lng":6.556300879892722},"southwest":{"lat":51.34078237010728,"lng":6.553601220107279}}},"icon":"https://maps.gstatic.com/mapfiles/place_api/icons/v1/png_71/restaurant-71.png","icon_background_color":"#FF9E67","icon_mask_base_uri":"https://maps.gstatic.com/mapfiles/place_api/icons/v2/restaurant_pinlet","name":"Sukhothai Restaurant","opening_hours":{"open_now":true},"photos":[{"height":3464,"html_attributions":["<a href=\"https://maps.google.com/maps/contrib/114118120252892190509\">Artur Neumann</a>"],"photo_reference":"AeJbb3eUxXeL7gvRdl6tZxWF2FUeWcHi3FLs0_s7_oqiPRLMbg2vIBmT1uFT45CT5CqYLs0Z8QcCkaYqgqkfvFOOPrRdVFm4eGoxVy0YfXrT0r33z69IbiR9bEf1QGrNrgs80ik2M_guJ6pe12MZrx2CZdQ8XcZsticU2Pk2Ybi_VCJzVxwB","width":4618}],"place_id":"ChIJj2F4klGluEcRKlRYwj73rIc","plus_code":{"compound_code":"8HR4+V2 Krefeld","global_code":"9F388HR4+V2"},"price_level":1,"rating":4.6,"reference":"ChIJj2F4klGluEcRKlRYwj73rIc","types":["restaurant","food","point_of_interest","establishment"],"user_ratings_total":147},{"business_status":"OPERATIONAL","formatted_address":"Hauptstraße 29C, 45219 Essen","geometry":{"location":{"lat":51.36231369999999,"lng":6.9426084},"viewport":{"northeast":{"lat":51.36370757989272,"lng":6.943967329892722},"southwest":{"lat":51.36100792010728,"lng":6.941267670107278}}},"icon":"https://maps.gstatic.com/mapfiles/place_api/icons/v1/png_71/generic_business-71.png","icon_background_color":"#7B9EB0","icon_mask_base_uri":"https://maps.gstatic.com/mapfiles/place_api/icons/v2/generic_pinlet","name":"Mali Thai Massage Nanthaya Leiendecker","opening_hours":{"open_now":true},"photos":[{"height":4000,"html_attributions":["<a href=\"https://maps.google.com/maps/contrib/110857044933740147595\">Robin Mendetzki</a>"],"photo_reference":"AeJbb3fc2fQPdTeQWTn0SfxigoPqMGzJvlcPf44ZpZBi-pSceg6nhrp9L2bIZgt24HSduFAQ69YaymDCSGYckqGT-vEIbNE8DzgznXAysr-8EAoMuog2FkL3va3dJTFExsqLCtRqXpMBikxWW2Ec5TSWUZqg1YY3tOx5sf0Ej4ttWXQdWNE9","width":3000}],"place_id":"ChIJJcrdEFHEuEcRBqVlHYbQLuQ","plus_code":{"compound_code":"9W6V+W2 Essen","global_code":"9F389W6V+W2"},"rating":4.6,"reference":"ChIJJcrdEFHEuEcRBqVlHYbQLuQ","types":["spa","restaurant","food","point_of_interest","establishment"],"user_ratings_total":86},{"business_status":"OPERATIONAL","formatted_address":"Schulstraße 19, 40721 Hilden","geometry":{"location":{"lat":51.1671489,"lng":6.9336253},"viewport":{"northeast":{"lat":51.16855347989272,"lng":6.934963179892721},"southwest":{"lat":51.16585382010728,"lng":6.932263520107277}}},"icon":"https://maps.gstatic.com/mapfiles/place_api/icons/v1/png_71/restaurant-71.png","icon_background_color":"#FF9E67","icon_mask_base_uri":"https://maps.gstatic.com/mapfiles/place_api/icons/v2/restaurant_pinlet","name":"Chang Puak Restaurant - Asien Fine Cuisine","opening_hours":{"open_now":true},"photos":[{"height":2988,"html_attributions":["<a href=\"https://maps.google.com/maps/contrib/115316524489465273233\">Kai Steffen</a>"],"photo_reference":"AeJbb3duf7zcCjESshiS_1_JVqtmJCuqiQFC_Y3dzzYAXPEy9DO3XZv0h3GOHg1xtnPeJVCCHz2TR3mGi_EI2SNwyVf_IFui0SeVSIGRtCU1NyWUmfmuc4iIFQkRlVE2JBdWC9G6XmWARhsZ7-uwEXp10uRlOYXH918EVnyTyy0bwGPNsToy","width":5312}],"place_id":"ChIJy1LZu2jNuEcRRDgUP-rIx-g","plus_code":{"compound_code":"5W8M+VF Hilden","global_code":"9F385W8M+VF"},"price_level":2,"rating":4.5,"reference":"ChIJy1LZu2jNuEcRRDgUP-rIx-g","types":["restaurant","food","point_of_interest","establishment"],"user_ratings_total":416},{"business_status":"OPERATIONAL","formatted_address":"Eingang: Kasernenstrasse (18, Benrather Str. 18-20, 40213 Düsseldorf","geometry":{"location":{"lat":51.2233641,"lng":6.7759142},"viewport":{"northeast":{"lat":51.22455727989272,"lng":6.777444179892722},"southwest":{"lat":51.22185762010728,"lng":6.774744520107278}}},"icon":"https://maps.gstatic.com/mapfiles/place_api/icons/v1/png_71/restaurant-71.png","icon_background_color":"#FF9E67","icon_mask_base_uri":"https://maps.gstatic.com/mapfiles/place_api/icons/v2/restaurant_pinlet","name":"Natcha - Modern Thai Food","opening_hours":{"open_now":true},"photos":[{"height":806,"html_attributions":["<a href=\"https://maps.google.com/maps/contrib/116925636983864562104\">A Google User</a>"],"photo_reference":"AeJbb3fzfDCOQodUPIGX6pqYt8gWOzo2JLRFpTA1DFo0SjYuYGzSMc0tk0ManQyFMwgklRObeR9iL0de_SpwME3pP9zRWXrhxEHLyOVSU_6m4pglPghAHeylb48_GJ6wfEWG6LM8NDHdau_oQb2aneMxyy2FcNq2ncl6W3_ujvM9frazCIy8","width":807}],"place_id":"ChIJ7Ucj19nLuEcRMvvLyv4pm_E","plus_code":{"compound_code":"6QFG+89 Düsseldorf","global_code":"9F386QFG+89"},"rating":4.5,"reference":"ChIJ7Ucj19nLuEcRMvvLyv4pm_E","types":["restaurant","food","point_of_interest","establishment"],"user_ratings_total":383},{"business_status":"OPERATIONAL","formatted_address":"Bolkerstraße 7, 40213 Düsseldorf","geometry":{"location":{"lat":51.2259689,"lng":6.7727262},"viewport":{"northeast":{"lat":51.22749542989272,"lng":6.773604329892723},"southwest":{"lat":51.22479577010728,"lng":6.770904670107279}}},"icon":"https://maps.gstatic.com/mapfiles/place_api/icons/v1/png_71/restaurant-71.png","icon_background_color":"#FF9E67","icon_mask_base_uri":"https://maps.gstatic.com/mapfiles/place_api/icons/v2/restaurant_pinlet","name":"Chop Chop","opening_hours":{"open_now":true},"photos":[{"height":3968,"html_attributions":["<a href=\"https://maps.google.com/maps/contrib/110242381991460784606\">Ho Ro</a>"],"photo_reference":"AeJbb3dQnFHRU-Kw2DB_hvQtiM_eD8Z1jGv0NVO5qAigsbiwoaE1GaNsZdorFHeziJdhRcDjJBRw6f9ZrusR_wI8t6e_bLLjLzwt3ttf-REn-wiVVxLrFFFB2pFw_-hwQ7BXvGvIYv8J7loqUVEm8dvzU-EFckrY68sdzM9WIyKAleTE6yj9","width":2976}],"place_id":"ChIJ6-6UxxnKuEcR3MgVZReAU88","plus_code":{"compound_code":"6QGF+93 Düsseldorf","global_code":"9F386QGF+93"},"price_level":1,"rating":4.5,"reference":"ChIJ6-6UxxnKuEcR3MgVZReAU88","types":["restaurant","food","point_of_interest","establishment"],"user_ratings_total":360},{"business_status":"OPERATIONAL","formatted_address":"Gertrudispl., 40229 Düsseldorf","geometry":{"location":{"lat":51.2007791,"lng":6.8390108},"viewport":{"northeast":{"lat":51.20176037989272,"lng":6.840444529892721},"southwest":{"lat":51.19906072010728,"lng":6.837744870107278}}},"icon":"https://maps.gstatic.com/mapfiles/place_api/icons/v1/png_71/restaurant-71.png","icon_background_color":"#FF9E67","icon_mask_base_uri":"https://maps.gstatic.com/mapfiles/place_api/icons/v2/restaurant_pinlet","name":"thai orchid bistro","opening_hours":{"open_now":true},"photos":[{"height":1824,"html_attributions":["<a href=\"https://maps.google.com/maps/contrib/115951379625037840089\">pattaradech vitoonrat</a>"],"photo_reference":"AeJbb3fBypHkwVrmT4_x8EC_jJQ7zGIoJu3zRSnFc9ENZXODYef0zRTTd9TX0qalFlZBGk4EkKOaqdNKZcUC22hTj7QnrDop6L8w9BTNoWr3Nt5oktk4S578wy7lWEFSBINlxQ7cvwIc20wcK_RwRbfGvcv-69K-tZe1M6HaXxn9JqAzk6xL","width":4000}],"place_id":"ChIJw9-Jk4_LuEcRI0uA3TjPNYk","plus_code":{"compound_code":"6R2Q+8J Düsseldorf","global_code":"9F386R2Q+8J"},"price_level":2,"rating":4.5,"reference":"ChIJw9-Jk4_LuEcRI0uA3TjPNYk","types":["restaurant","food","point_of_interest","establishment"],"user_ratings_total":218},{"business_status":"OPERATIONAL","formatted_address":"Alte Neusser Landstraße 256, 50769 Köln","geometry":{"location":{"lat":51.0643585,"lng":6.868293299999999},"viewport":{"northeast":{"lat":51.06567442989272,"lng":6.869545629892722},"southwest":{"lat":51.06297477010727,"lng":6.866845970107279}}},"icon":"https://maps.gstatic.com/mapfiles/place_api/icons/v1/png_71/restaurant-71.png","icon_background_color":"#FF9E67","icon_mask_base_uri":"https://maps.gstatic.com/mapfiles/place_api/icons/v2/restaurant_pinlet","name":"An Thai-Imbiss","opening_hours":{"open_now":true},"photos":[{"height":3024,"html_attributions":["<a href=\"https://maps.google.com/maps/contrib/106182289762473027768\">A Google User</a>"],"photo_reference":"AeJbb3fNAyZpP-KYmwQeic_AtaozwqO27MwXqCC6yYRUHcoV6GMrzsUOLcddWPordO9idCivFEJmlMG_Ye_YxZR-EEcQEAgcoJqmtDq3L5wUFvwLYlaow_GTLUcnzOCDSdTkKtqV0nIhacTeuLz1hIIOtLGcnqHR84p0pxjqLzjFMWPT41xR","width":4032}],"place_id":"ChIJ9c0A39Qzv0cR0qfNRsf4G8A","plus_code":{"compound_code":"3V79+P7 Cologne","global_code":"9F383V79+P7"},"price_level":1,"rating":4.5,"reference":"ChIJ9c0A39Qzv0cR0qfNRsf4G8A","types":["restaurant","food","point_of_interest","establishment"],"user_ratings_total":179},{"business_status":"OPERATIONAL","formatted_address":"Speestraße 32, 40885 Ratingen","geometry":{"location":{"lat":51.3361058,"lng":6.8343466},"viewport":{"northeast":{"lat":51.33748407989273,"lng":6.835593029892722},"southwest":{"lat":51.33478442010728,"lng":6.832893370107278}}},"icon":"https://maps.gstatic.com/mapfiles/place_api/icons/v1/png_71/restaurant-71.png","icon_background_color":"#FF9E67","icon_mask_base_uri":"https://maps.gstatic.com/mapfiles/place_api/icons/v2/restaurant_pinlet","name":"Ma Kin Nee - Ratingen","opening_hours":{"open_now":true},"photos":[{"height":1960,"html_attributions":["<a href=\"https://maps.google.com/maps/contrib/115627187758872890172\">Michael Nickolai</a>"],"photo_reference":"AeJbb3c82NPQWQAOov4UXUQQaeemSkXAzQT-IyWxv1m16uGECW-kda8ue69-wkcMfs4o_qXS9GlkyKM30QZMdi82gYIIw8OIVwXswnYKXlUgMzgpNKeqwy-_IyTfj-kPucgb7S1HP3PNBOpg3D1zS2RjJoPqjKM761CC-bO7GrVogriiVXnt","width":4032}],"place_id":"ChIJ64YR0KbHuEcRYDWrkioW4TY","plus_code":{"compound_code":"8RPM+CP Ratingen","global_code":"9F388RPM+CP"},"price_level":2,"rating":4.5,"reference":"ChIJ64YR0KbHuEcRYDWrkioW4TY","types":["restaurant","food","point_of_interest","establishment"],"user_ratings_total":168},{"business_status":"OPERATIONAL","formatted_address":"Glashüttenstraße 35, 40627 Düsseldorf","geometry":{"location":{"lat":51.2178812,"lng":6.8660203},"viewport":{"northeast":{"lat":51.21922497989272,"lng":6.867377629892721},"southwest":{"lat":51.21652532010728,"lng":6.864677970107278}}},"icon":"https://maps.gstatic.com/mapfiles/place_api/icons/v1/png_71/restaurant-71.png","icon_background_color":"#FF9E67","icon_mask_base_uri":"https://maps.gstatic.com/mapfiles/place_api/icons/v2/restaurant_pinlet","name":"ASIA WOK LOC PHAT","opening_hours":{"open_now":true},"photos":[{"height":3456,"html_attributions":["<a href=\"https://maps.google.com/maps/contrib/113546069080177294066\">A Google User</a>"],"photo_reference":"AeJbb3f57AaHl4t2Hy1VUqFMK90wpNNSQFwJTmz53O21Gj2PLnIeVzpZA0bNFNX1LGpFFwO0p5-uCEg_QIcKLIaYI-a36gO_GZug0-LoK5tM1hFicmvzRWpTXLsh3rvwiHtxapEsFplt_Q68ZesKsUMMC-6lqFc3t-R_Dc9lEhSsaMakhMIK","width":4608}],"place_id":"ChIJ1aupx4PNuEcR1qPKkHOiJ4E","plus_code":{"compound_code":"6V98+59 Düsseldorf","global_code":"9F386V98+59"},"rating":4.5,"reference":"ChIJ1aupx4PNuEcR1qPKkHOiJ4E","types":["restaurant","food","point_of_interest","establishment"],"user_ratings_total":76},{"business_status":"OPERATIONAL","formatted_address":"Roßstraße 21, 40476 Düsseldorf","geometry":{"location":{"lat":51.243544,"lng":6.7813814},"viewport":{"northeast":{"lat":51.24488172989272,"lng":6.782689879892722},"southwest":{"lat":51.24218207010728,"lng":6.779990220107278}}},"icon":"https://maps.gstatic.com/mapfiles/place_api/icons/v1/png_71/restaurant-71.png","icon_background_color":"#FF9E67","icon_mask_base_uri":"https://maps.gstatic.com/mapfiles/place_api/icons/v2/restaurant_pinlet","name":"Prickynoo","opening_hours":{"open_now":true},"photos":[{"height":2268,"html_attributions":["<a href=\"https://maps.google.com/maps/contrib/115214961633003226276\">Elena Gulkis</a>"],"photo_reference":"AeJbb3czlxPnJykCd98OCCF_yQZVvwQo0lv1RHLOlpDy9Vyx0pnLZwD8mdbpCTJQEMf2fVdL-khqIJZShSIcsjo8lojAu1jA0XciI1UL6q4cSpK2mv0-cHesZMoAArC2zH_IY7SAWtJOYKcI2mlNGtQfOmg2gzcJkPEfUgbewAOhiKx86xoS","width":4032}],"place_id":"ChIJdTWdy_LJuEcRPvun2nQM7i4","plus_code":{"compound_code":"6QVJ+CJ Düsseldorf","global_code":"9F386QVJ+CJ"},"price_level":2,"rating":4.4,"reference":"ChIJdTWdy_LJuEcRPvun2nQM7i4","types":["restaurant","food","point_of_interest","establishment"],"user_ratings_total":388},{"business_status":"OPERATIONAL","formatted_address":"Gladbacher Str. 51, 40219 Düsseldorf","geometry":{"location":{"lat":51.2123028,"lng":6.757631099999999},"viewport":{"northeast":{"lat":51.21360677989271,"lng":6.759012579892721},"southwest":{"lat":51.21090712010727,"lng":6.756312920107277}}},"icon":"https://maps.gstatic.com/mapfiles/place_api/icons/v1/png_71/restaurant-71.png","icon_background_color":"#FF9E67","icon_mask_base_uri":"https://maps.gstatic.com/mapfiles/place_api/icons/v2/restaurant_pinlet","name":"Pad Thai Restaurant","opening_hours":{"open_now":true},"photos":[{"height":2610,"html_attributions":["<a href=\"https://maps.google.com/maps/contrib/108023299705494255167\">Jan B.</a>"],"photo_reference":"AeJbb3eaQomAdJHhw3h04QwhefCf5Xa6UOwlR2cwgQo8wyxeANNYbjeVpAYNqP03MvdtVHmL4-CuMyHiHfzNv50Cd6jrGAySOuedjvjQBpR5t6HMhCcUTc74PIOjaYO51ORy5SURID1YhdCH8F0R55uT6LuLBVgOpz4cK2rloMChnYt0Diks","width":4640}],"place_id":"ChIJPRx00sTLuEcRkzzmI9510Sg","plus_code":{"compound_code":"6Q65+W3 Düsseldorf","global_code":"9F386Q65+W3"},"rating":4.4,"reference":"ChIJPRx00sTLuEcRkzzmI9510Sg","types":["restaurant","food","point_of_interest","establishment"],"user_ratings_total":326},{"business_status":"OPERATIONAL","formatted_address":"Kölner Str. 45, 40211 Düsseldorf","geometry":{"location":{"lat":51.225721,"lng":6.7941921},"viewport":{"northeast":{"lat":51.22708857989272,"lng":6.795590529892721},"southwest":{"lat":51.22438892010728,"lng":6.792890870107278}}},"icon":"https://maps.gstatic.com/mapfiles/place_api/icons/v1/png_71/restaurant-71.png","icon_background_color":"#FF9E67","icon_mask_base_uri":"https://maps.gstatic.com/mapfiles/place_api/icons/v2/restaurant_pinlet","name":"Samui Thai","opening_hours":{"open_now":true},"photos":[{"height":2268,"html_attributions":["<a href=\"https://maps.google.com/maps/contrib/105156205426876481450\">Lit N.</a>"],"photo_reference":"AeJbb3erssk3ZbmopOUQIm74DzzB6cTiAARmBOsQHdLQCd5ghglaAdFls58Sof9yV5AXaaZX2eDOlQlHEl_hKlBGB6MpK9M44-eqJfL38ECjrPFiMyCwPgIWEijuS1yJdL8yyjOhw-y4Z4mpyMMa1w7O3f81K2-Ijv3r_KlSdvOXuOTJDZSB","width":4032}],"place_id":"ChIJjwo9US7KuEcRxCcovw7zOcI","plus_code":{"compound_code":"6QGV+7M Düsseldorf","global_code":"9F386QGV+7M"},"price_level":2,"rating":4.4,"reference":"ChIJjwo9US7KuEcRxCcovw7zOcI","types":["restaurant","food","point_of_interest","establishment"],"user_ratings_total":244},{"business_status":"OPERATIONAL","formatted_address":"Bahnstraße 76, 40210 Düsseldorf","geometry":{"location":{"lat":51.2193249,"lng":6.785552},"viewport":{"northeast":{"lat":51.22070557989272,"lng":6.786800279892722},"southwest":{"lat":51.21800592010728,"lng":6.784100620107278}}},"icon":"https://maps.gstatic.com/mapfiles/place_api/icons/v1/png_71/restaurant-71.png","icon_background_color":"#FF9E67","icon_mask_base_uri":"https://maps.gstatic.com/mapfiles/place_api/icons/v2/restaurant_pinlet","name":"Sila-Thai","opening_hours":{"open_now":true},"photos":[{"height":2984,"html_attributions":["<a href=\"https://maps.google.com/maps/contrib/105353230931372529056\">yamanyan10</a>"],"photo_reference":"AeJbb3cW0-dnFcgVPq3GpPK9N7elXLi_b0FZulSWM-kDKeypKWZHwZmWEStF0f9V0zeJS52kEUeFkVgtUFcom2pQXd02_fo1gN9HAtEZ-HhlRm0j2_fOwAZqlwYeFGPjHcx74W8lJesoLMWV7890KaJrOVmLLSlT9baJo7UoiwlsKKT47iyw","width":2984}],"place_id":"ChIJzUqTLTrKuEcRn9QU7ln1JfY","plus_code":{"compound_code":"6Q9P+P6 Düsseldorf","global_code":"9F386Q9P+P6"},"price_level":3,"rating":4.3,"reference":"ChIJzUqTLTrKuEcRn9QU7ln1JfY","types":["restaurant","bar","food","point_of_interest","establishment"],"user_ratings_total":1245},{"business_status":"OPERATIONAL","formatted_address":"Roßstraße 89, 40476 Düsseldorf","geometry":{"location":{"lat":51.247006,"lng":6.778249},"viewport":{"northeast":{"lat":51.24834912989272,"lng":6.779502629892722},"southwest":{"lat":51.24564947010727,"lng":6.776802970107277}}},"icon":"https://maps.gstatic.com/mapfiles/place_api/icons/v1/png_71/restaurant-71.png","icon_background_color":"#FF9E67","icon_mask_base_uri":"https://maps.gstatic.com/mapfiles/place_api/icons/v2/restaurant_pinlet","name":"Fresh Asia Box","opening_hours":{"open_now":true},"photos":[{"height":5312,"html_attributions":["<a href=\"https://maps.google.com/maps/contrib/116768435218063902569\">A Google User</a>"],"photo_reference":"AeJbb3fCBiD8w1WlMnqFMGrJ7ew8Av1CASJdUU6ocJogVKopP3LBoprVtl6nrD7AZmO-OU1Swsjj2KHTWtjvLiO3b3_UyH3VlbE9Jfe3sIc6dCFlF-T26UzXuUmcW8UQqgGXTTogyMWGjIeiqVXqwrjadW7e9rOp6aj-l42qeX-GhG9-MJw6","width":2988}],"place_id":"ChIJY6CUo-3JuEcRfSr4X5mdazI","plus_code":{"compound_code":"6QWH+R7 Düsseldorf","global_code":"9F386QWH+R7"},"price_level":1,"rating":4.2,"reference":"ChIJY6CUo-3JuEcRfSr4X5mdazI","types":["restaurant","food","point_of_interest","establishment"],"user_ratings_total":334},{"business_status":"OPERATIONAL","formatted_address":"Bilker Allee 39, 40219 Düsseldorf","geometry":{"location":{"lat":51.2108431,"lng":6.766643299999999},"viewport":{"northeast":{"lat":51.21225517989272,"lng":6.768032179892722},"southwest":{"lat":51.20955552010727,"lng":6.765332520107278}}},"icon":"https://maps.gstatic.com/mapfiles/place_api/icons/v1/png_71/restaurant-71.png","icon_background_color":"#FF9E67","icon_mask_base_uri":"https://maps.gstatic.com/mapfiles/place_api/icons/v2/restaurant_pinlet","name":"Sawatdy - Asian Thai Street Kitchen","opening_hours":{"open_now":true},"photos":[{"height":3024,"html_attributions":["<a href=\"https://maps.google.com/maps/contrib/100076449471757178840\">A Google User</a>"],"photo_reference":"AeJbb3fywjWc0PGwbI7_4aWPbMg1ertbCztdAuQwMXFGgipUEPIYq85L2NduiUELJmg4S8kKcWAfb2Tmw58JATISLRmzpFSasjZdGCdrwPXJO8QlsuaqFShx7h9fEZ9yHCz_zj1A_KzJLaHynXRtEJQsBsyl_ohPuzIxX3_QvTYvSOsKArmd","width":4032}],"place_id":"ChIJQW-HimvKuEcR_0796W14fmc","plus_code":{"compound_code":"6Q68+8M Düsseldorf","global_code":"9F386Q68+8M"},"price_level":1,"rating":4.2,"reference":"ChIJQW-HimvKuEcR_0796W14fmc","types":["restaurant","food","point_of_interest","establishment"],"user_ratings_total":259},{"business_status":"OPERATIONAL","formatted_address":"Am Wehrhahn 85, 40211 Düsseldorf","geometry":{"location":{"lat":51.2291233,"lng":6.7948974},"viewport":{"northeast":{"lat":51.23050707989272,"lng":6.796235379892721},"southwest":{"lat":51.22780742010728,"lng":6.793535720107277}}},"icon":"https://maps.gstatic.com/mapfiles/place_api/icons/v1/png_71/restaurant-71.png","icon_background_color":"#FF9E67","icon_mask_base_uri":"https://maps.gstatic.com/mapfiles/place_api/icons/v2/restaurant_pinlet","name":"Baan Prickynoo Thai Restaurant","opening_hours":{"open_now":true},"photos":[{"height":2268,"html_attributions":["<a href=\"https://maps.google.com/maps/contrib/104325624120477711918\">Agnes P.</a>"],"photo_reference":"AeJbb3c_qDu4l5j0UxtHTAtOkZVI8O4i1pJaNPl2PTK4ENOyd-t9OEz6cTDLy0kf86pbPygREgS0E1-FtNkalPGWQUrWcnoUy0P7ligLVLWWtn6MCBmQRltHvCc_FDlsDj3-bH2TMQz0AbM4D2VIRiBo4DICQ-D7L0eE9u022Uk8emtow6XE","width":4032}],"place_id":"ChIJpf1KLinKuEcReppJA2qhWGk","plus_code":{"compound_code":"6QHV+JX Düsseldorf","global_code":"9F386QHV+JX"},"price_level":2,"rating":4.2,"reference":"ChIJpf1KLinKuEcReppJA2qhWGk","types":["bar","restaurant","food","point_of_interest","establishment"],"user_ratings_total":180},{"business_status":"OPERATIONAL","formatted_address":"Bilker Allee 64, 40219 Düsseldorf","geometry":{"location":{"lat":51.2109692,"lng":6.768784999999999},"viewport":{"northeast":{"lat":51.21226432989271,"lng":6.770112929892721},"southwest":{"lat":51.20956467010727,"lng":6.767413270107277}}},"icon":"https://maps.gstatic.com/mapfiles/place_api/icons/v1/png_71/generic_business-71.png","icon_background_color":"#7B9EB0","icon_mask_base_uri":"https://maps.gstatic.com/mapfiles/place_api/icons/v2/generic_pinlet","name":"China Wok","opening_hours":{"open_now":true},"photos":[{"height":4160,"html_attributions":["<a href=\"https://maps.google.com/maps/contrib/104832892047432312256\">Karthik BM</a>"],"photo_reference":"AeJbb3dAzVtk1-fv7r_NIPPcYC0Bd5r3Hm6gwc6lNa9nOMgsOxq1AlxX6w9yXaE_cDwko2gwAsjfPw5u-fuNCTaPxLfQqjKzjQaI93f4IBcxtBRvkrOV6smYJOpLCbA96yELS4eJ7VCkpH515uyTWUov73Qu8SsEtqYmvuBCm2n0t8CNJ_7b","width":3120}],"place_id":"ChIJfZ2Bu2vKuEcRoHUc7Z_EsmQ","plus_code":{"compound_code":"6Q69+9G Düsseldorf","global_code":"9F386Q69+9G"},"price_level":1,"rating":4.2,"reference":"ChIJfZ2Bu2vKuEcRoHUc7Z_EsmQ","types":["meal_delivery","meal_takeaway","restaurant","food","point_of_interest","establishment"],"user_ratings_total":115},{"business_status":"OPERATIONAL","formatted_address":"Forststraße 56, 40597 Düsseldorf","geometry":{"location":{"lat":51.170959,"lng":6.879714400000001},"viewport":{"northeast":{"lat":51.17235277989273,"lng":6.881005129892722},"southwest":{"lat":51.16965312010728,"lng":6.878305470107279}}},"icon":"https://maps.gstatic.com/mapfiles/place_api/icons/v1/png_71/restaurant-71.png","icon_background_color":"#FF9E67","icon_mask_base_uri":"https://maps.gstatic.com/mapfiles/place_api/icons/v2/restaurant_pinlet","name":"Zu-dis Asia Wok","opening_hours":{"open_now":true},"photos":[{"height":816,"html_attributions":["<a href=\"https://maps.google.com/maps/contrib/109765790831387249696\">A Google User</a>"],"photo_reference":"AeJbb3cuvc4aFR2-_kYFmzGH4rR-I7hnmW2BGNwpjnn7kZTvCXnNX-bzDg3Se110rBAtvDz737nyWfsbpXdiICFcq5GHltDK5bcM50Pk3YxHfClZGE2zcihSeLRDgPMcnRsGk0KMWN_iqxryLd2KzIjXH0dLAHlCstF-_dROdHOU0KPdwfCg","width":1124}],"place_id":"ChIJqSK-cn3NuEcRyba64FN2N0Q","plus_code":{"compound_code":"5VCH+9V Düsseldorf","global_code":"9F385VCH+9V"},"rating":4.2,"reference":"ChIJqSK-cn3NuEcRyba64FN2N0Q","types":["meal_takeaway","restaurant","food","point_of_interest","establishment"],"user_ratings_total":104},{"business_status":"OPERATIONAL","formatted_address":"Kölner Tor 23, 40625 Düsseldorf","geometry":{"location":{"lat":51.2354393,"lng":6.8617981},"viewport":{"northeast":{"lat":51.23679607989273,"lng":6.863081129892722},"southwest":{"lat":51.23409642010728,"lng":6.860381470107278}}},"icon":"https://maps.gstatic.com/mapfiles/place_api/icons/v1/png_71/restaurant-71.png","icon_background_color":"#FF9E67","icon_mask_base_uri":"https://maps.gstatic.com/mapfiles/place_api/icons/v2/restaurant_pinlet","name":"Asia Restaurant Hahaa","opening_hours":{"open_now":true},"photos":[{"height":3096,"html_attributions":["<a href=\"https://maps.google.com/maps/contrib/112158434099796418089\">Thomas Zipf</a>"],"photo_reference":"AeJbb3fVfqEl5fpdEvUQ2UcDRnO9ZPd0fU61UMBrPKTExVUXARfmpQ7jJ24sSp60jepi_UXb75_FN8fwqgkWZ0zsoki2Y-fK77o-HiZaOSwxGDuDfx7fyrugaTDIhfzl9YLNJ5kyCVLsUWCF1gXEC2j-wOPHI51DKjukxvN8C2VQZxfj-l6H","width":5504}],"place_id":"ChIJtW83GFvPuEcRYbJgMi2MH2k","plus_code":{"compound_code":"6VP6+5P Düsseldorf","global_code":"9F386VP6+5P"},"price_level":1,"rating":4.2,"reference":"ChIJtW83GFvPuEcRYbJgMi2MH2k","types":["meal_takeaway","restaurant","food","point_of_interest","establishment"],"user_ratings_total":77},{"business_status":"OPERATIONAL","formatted_address":"Berger Straße 28 Am Carlsplatz), Altstadt, 40213 Düsseldorf","geometry":{"location":{"lat":51.2239707,"lng":6.7728806},"viewport":{"northeast":{"lat":51.22532052989273,"lng":6.774230429892722},"southwest":{"lat":51.22262087010728,"lng":6.771530770107278}}},"icon":"https://maps.gstatic.com/mapfiles/place_api/icons/v1/png_71/restaurant-71.png","icon_background_color":"#FF9E67","icon_mask_base_uri":"https://maps.gstatic.com/mapfiles/place_api/icons/v2/restaurant_pinlet","name":"Baan Thai Restaurant","opening_hours":{"open_now":false},"photos":[{"height":2896,"html_attributions":["<a href=\"https://maps.google.com/maps/contrib/105235480670177102768\">Robin T</a>"],"photo_reference":"AeJbb3etk6Qbus9Ay4LgYQDqGJV136xXmwf9u2D0LhhO7iruwX1IRJxvQvecHZSzcbDNisI-Mp3lg90VA1lVeLuhDEMPYiEddnzROCddMs29-He1mt1vyWJfO4X5dNVaxAnc1cYu1MohwtshdtLqywnR-sqcqKD3IwRUzInIO3YfMyXciaM","width":5152}],"place_id":"ChIJFeg9dxfKuEcRvPy41laXRIA","plus_code":{"compound_code":"6QFF+H5 Düsseldorf","global_code":"9F386QFF+H5"},"price_level":2,"rating":4.1,"reference":"ChIJFeg9dxfKuEcRvPy41laXRIA","types":["restaurant","food","point_of_interest","establishment"],"user_ratings_total":491},{"business_status":"OPERATIONAL","formatted_address":"Benrodestraße 49, 40597 Düsseldorf","geometry":{"location":{"lat":51.16342059999999,"lng":6.8645378},"viewport":{"northeast":{"lat":51.16475017989272,"lng":6.865885579892723},"southwest":{"lat":51.16205052010728,"lng":6.863185920107279}}},"icon":"https://maps.gstatic.com/mapfiles/place_api/icons/v1/png_71/restaurant-71.png","icon_background_color":"#FF9E67","icon_mask_base_uri":"https://maps.gstatic.com/mapfiles/place_api/icons/v2/restaurant_pinlet","name":"Pattaya Island","opening_hours":{"open_now":true},"photos":[{"height":3024,"html_attributions":["<a href=\"https://maps.google.com/maps/contrib/114347341464753463406\">A Google User</a>"],"photo_reference":"AeJbb3d38EwvjChfMQ9QJXAmx5NuqZz72iMSzUkYPJDQ8fBZ6hI3g_OINpQrAsqgYn3KgAdiRq0u3q6aWIAf6h1_LBBa5aanhjvEV7K15cf9w-FLDhgLb1niAA-sjMV9TMrMiT1MwUT2uOfkXlZm1NhNRGAAU7dXULZt-UjvIiD1GmEatng3","width":4032}],"place_id":"ChIJMdpRAfu9cUERB5kn3pPzCyw","plus_code":{"compound_code":"5V77+8R Düsseldorf","global_code":"9F385V77+8R"},"price_level":1,"rating":4.1,"reference":"ChIJMdpRAfu9cUERB5kn3pPzCyw","types":["restaurant","food","point_of_interest","establishment"],"user_ratings_total":158},{"business_status":"OPERATIONAL","formatted_address":"Markt 11, 41460 Neuss","geometry":{"location":{"lat":51.198026,"lng":6.6933171},"viewport":{"northeast":{"lat":51.19942197989272,"lng":6.694324779892721},"southwest":{"lat":51.19672232010728,"lng":6.691625120107277}}},"icon":"https://maps.gstatic.com/mapfiles/place_api/icons/v1/png_71/restaurant-71.png","icon_background_color":"#FF9E67","icon_mask_base_uri":"https://maps.gstatic.com/mapfiles/place_api/icons/v2/restaurant_pinlet","name":"Kitti chai","opening_hours":{"open_now":true},"photos":[{"height":3024,"html_attributions":["<a href=\"https://maps.google.com/maps/contrib/109859622218701420975\">Michael Eckert</a>"],"photo_reference":"AeJbb3e1rNh8ZoXzREXITjoZDXJQZwXMLitGi2_-9HDfPBNSz5F8Zqdimp6FMxHXfu8E8O8fsyv1nmlSvnv6MIkCVoFPeaH5hTiMQzQM6D6ln1IEaz-6lrQfxbwzHqO-PcYbQBrw0fMuPAcsALxgFIdHecyoftGlz_-4cA3u7kJkvHnaJLGU","width":4032}],"place_id":"ChIJKyyug6q1uEcRZkVjOfZnauc","plus_code":{"compound_code":"5MXV+68 Neuss","global_code":"9F385MXV+68"},"price_level":2,"rating":4,"reference":"ChIJKyyug6q1uEcRZkVjOfZnauc","types":["restaurant","food","point_of_interest","establishment"],"user_ratings_total":341},{"business_status":"OPERATIONAL","formatted_address":"Neustraße 45, 40213 Düsseldorf","geometry":{"location":{"lat":51.2260046,"lng":6.776139499999999},"viewport":{"northeast":{"lat":51.22735467989272,"lng":6.77752062989272},"southwest":{"lat":51.22465502010727,"lng":6.774820970107276}}},"icon":"https://maps.gstatic.com/mapfiles/place_api/icons/v1/png_71/restaurant-71.png","icon_background_color":"#FF9E67","icon_mask_base_uri":"https://maps.gstatic.com/mapfiles/place_api/icons/v2/restaurant_pinlet","name":"Quang Minh","opening_hours":{"open_now":true},"photos":[{"height":3120,"html_attributions":["<a href=\"https://maps.google.com/maps/contrib/118003980373484887626\">chippykurian</a>"],"photo_reference":"AeJbb3e4uove1I6t2flWxiKimZ17QjTZ6NWqs3k_tF3kDj_KDm5j-0CjvispPyUpHyxDiBhqKJCYVXZp29JvOZjxsJ8SSTWxNyrZ36wXGA7zimQh1DXp75Xjek6B7yYHz5Enp3E5HdgTzSWxO2mim2TyLYyoJ40xbyiOzVgpzQ5dJiO9VtlU","width":4160}],"place_id":"ChIJS0OYbRjKuEcRjES25LQ6r2Y","plus_code":{"compound_code":"6QGG+CF Düsseldorf","global_code":"9F386QGG+CF"},"price_level":1,"rating":4,"reference":"ChIJS0OYbRjKuEcRjES25LQ6r2Y","types":["meal_takeaway","restaurant","food","point_of_interest","establishment"],"user_ratings_total":263},{"business_status":"OPERATIONAL","formatted_address":"Hauptstraße 27, 40764 Langenfeld (Rheinland)","geometry":{"location":{"lat":51.1015435,"lng":6.946970200000001},"viewport":{"northeast":{"lat":51.10290902989272,"lng":6.948327079892722},"southwest":{"lat":51.10020937010728,"lng":6.945627420107278}}},"icon":"https://maps.gstatic.com/mapfiles/place_api/icons/v1/png_71/restaurant-71.png","icon_background_color":"#FF9E67","icon_mask_base_uri":"https://maps.gstatic.com/mapfiles/place_api/icons/v2/restaurant_pinlet","name":"Thai-China Schnellrestaurant","opening_hours":{"open_now":true},"photos":[{"height":2419,"html_attributions":["<a href=\"https://maps.google.com/maps/contrib/117829475752046608135\">Reinhard Frick</a>"],"photo_reference":"AeJbb3fkk_pLSJEh7EoUZgj6TzpKMGIgnmFCDrSI2wg_E8lp5XypkybNjcx4qKYGz9f68Nv7U9PupZiKA3GvLh0XfJgd0trxLLn0986nCwJD9s6IiylT3Mc-Sv6s3S1J1vHTwImXziQF08o4DsGqswUSs-PtTqLe3tygB1vo5G7kXPFmi7GB","width":2283}],"place_id":"ChIJv2xYp3ctv0cRQTuYJ28LOlg","plus_code":{"compound_code":"4W2W+JQ Langenfeld","global_code":"9F384W2W+JQ"},"rating":4,"reference":"ChIJv2xYp3ctv0cRQTuYJ28LOlg","types":["restaurant","food","point_of_interest","establishment"],"user_ratings_total":167},{"business_status":"OPERATIONAL","formatted_address":"Friedrichstraße 129-133, 40217 Düsseldorf","geometry":{"location":{"lat":51.20834259999999,"lng":6.775139999999999},"viewport":{"northeast":{"lat":51.20998577989272,"lng":6.7773465},"southwest":{"lat":51.20728612010728,"lng":6.774389299999999}}},"icon":"https://maps.gstatic.com/mapfiles/place_api/icons/v1/png_71/restaurant-71.png","icon_background_color":"#FF9E67","icon_mask_base_uri":"https://maps.gstatic.com/mapfiles/place_api/icons/v2/restaurant_pinlet","name":"Haiky","opening_hours":{"open_now":true},"photos":[{"height":2560,"html_attributions":["<a href=\"https://maps.google.com/maps/contrib/117308445801763414703\">Zhaoxin Lu</a>"],"photo_reference":"AeJbb3f6jOVVsm7ys5b8rhQ2KSkDDNqwYkk4P6YSRqudXFp3enEXjxRp891JAt7yOlXVKYGsWuIYiQOVHtdTlsUVJRW54DxrHXL_KQtassqhPERLvR66iuvizxCC_KagjgUM_Zyb95yXFyP-unEXaEbnqStzBT0VYRBxy-zZRfqJ8Bo2Ripx","width":1928}],"place_id":"ChIJNdRkL0LKuEcRRqYg700ck0I","plus_code":{"compound_code":"6Q5G+83 Düsseldorf","global_code":"9F386Q5G+83"},"rating":4,"reference":"ChIJNdRkL0LKuEcRRqYg700ck0I","types":["restaurant","food","point_of_interest","establishment"],"user_ratings_total":145},{"business_status":"OPERATIONAL","formatted_address":"Mülheimer Str. 1 A, 40239 Düsseldorf","geometry":{"location":{"lat":51.2380906,"lng":6.7984066},"viewport":{"northeast":{"lat":51.23940537989272,"lng":6.799647729892722},"southwest":{"lat":51.23670572010728,"lng":6.796948070107279}}},"icon":"https://maps.gstatic.com/mapfiles/place_api/icons/v1/png_71/restaurant-71.png","icon_background_color":"#FF9E67","icon_mask_base_uri":"https://maps.gstatic.com/mapfiles/place_api/icons/v2/restaurant_pinlet","name":"Tao-Tao China Thai Imbiss","opening_hours":{"open_now":true},"photos":[{"height":1536,"html_attributions":["<a href=\"https://maps.google.com/maps/contrib/116773641890665225800\">Jary Saraswati</a>"],"photo_reference":"AeJbb3ehRp3W4JGpBSYpzvog7cq5BNFINYnsDyAFtmpvTRX9xDVY06gDarnkduSVbusWgXyN31DT-FSQx6gvnmX-A86SDgfYOelFiZwrdlqCouFbYzMA9qUjlRNy-nTPDZOu5C5UCM7CnWMLUNzHP6XxgbUJQ-qKSlMdcgipFTnWoOv1AS5c","width":2048}],"place_id":"ChIJIdjTl4bJuEcRAx9YUoqLn70","plus_code":{"compound_code":"6QQX+69 Düsseldorf","global_code":"9F386QQX+69"},"rating":3.9,"reference":"ChIJIdjTl4bJuEcRAx9YUoqLn70","types":["meal_takeaway","restaurant","food","point_of_interest","establishment"],"user_ratings_total":121},{"business_status":"OPERATIONAL","formatted_address":"Gladbacher Str. 31, 40219 Düsseldorf","geometry":{"location":{"lat":51.2120504,"lng":6.7603996},"viewport":{"northeast":{"lat":51.21334947989271,"lng":6.761725979892722},"southwest":{"lat":51.21064982010727,"lng":6.759026320107278}}},"icon":"https://maps.gstatic.com/mapfiles/place_api/icons/v1/png_71/restaurant-71.png","icon_background_color":"#FF9E67","icon_mask_base_uri":"https://maps.gstatic.com/mapfiles/place_api/icons/v2/restaurant_pinlet","name":"China-Thai Imbiss Yum Yum","opening_hours":{"open_now":true},"photos":[{"height":3648,"html_attributions":["<a href=\"https://maps.google.com/maps/contrib/103108606282803996918\">Dennis Wars</a>"],"photo_reference":"AeJbb3egKyajWUuHSlkMr2-x6XpR_k0Ky__6k3G823R7dZ7KOy4qjamkswudmBB6Sfwn8bUv43U7I7scv14sDFQjICRjeMrkQEsqnp2FRp9f0cealyYBdSloDGuwAWYterWhDV1IgWCIe_Tzhf2d5J4Nd2BS70RKZq9c6KQoTEmB7vFXvxAv","width":2736}],"place_id":"ChIJY8K7gG3KuEcR9dPds895ZNE","plus_code":{"compound_code":"6Q66+R5 Düsseldorf","global_code":"9F386Q66+R5"},"price_level":1,"rating":3.9,"reference":"ChIJY8K7gG3KuEcR9dPds895ZNE","types":["restaurant","food","point_of_interest","establishment"],"user_ratings_total":93},{"business_status":"OPERATIONAL","formatted_address":"Bahnhofstraße 2, 40489 Düsseldorf","geometry":{"location":{"lat":51.3314216,"lng":6.786436},"viewport":{"northeast":{"lat":51.33272872989272,"lng":6.787934879892722},"southwest":{"lat":51.33002907010727,"lng":6.785235220107278}}},"icon":"https://maps.gstatic.com/mapfiles/place_api/icons/v1/png_71/restaurant-71.png","icon_background_color":"#FF9E67","icon_mask_base_uri":"https://maps.gstatic.com/mapfiles/place_api/icons/v2/restaurant_pinlet","name":"Tue Lam - Asiatische Küche","opening_hours":{"open_now":true},"photos":[{"height":3000,"html_attributions":["<a href=\"https://maps.google.com/maps/contrib/100077902499803222569\">A Google User</a>"],"photo_reference":"AeJbb3fSE_BTKQjnQkVSqtgP-s6dnYH0OlNLwi3jds-M7g2hzDRL855V5fW8zJ9GQuNdTwpV2SqZTV71EFtM2QfIgFwobK2zfqaozvq0apqFb7qUH1pdWgMH37qZgSWLwEpp3pOMsCmHhTfapy7z9xMUgvRAYVyQFz-wjD80dkMcKc0kqbRy","width":4000}],"place_id":"ChIJqU8gTvDHuEcRjfFZhvRtFME","plus_code":{"compound_code":"8QJP+HH Düsseldorf","global_code":"9F388QJP+HH"},"rating":3.8,"reference":"ChIJqU8gTvDHuEcRjfFZhvRtFME","types":["restaurant","food","point_of_interest","establishment"],"user_ratings_total":139},{"business_status":"OPERATIONAL","formatted_address":"Further Str. 53, 41462 Neuss","geometry":{"location":{"lat":51.205441,"lng":6.6794216},"viewport":{"northeast":{"lat":51.20683197989272,"lng":6.680803329892721},"southwest":{"lat":51.20413232010728,"lng":6.678103670107277}}},"icon":"https://maps.gstatic.com/mapfiles/place_api/icons/v1/png_71/restaurant-71.png","icon_background_color":"#FF9E67","icon_mask_base_uri":"https://maps.gstatic.com/mapfiles/place_api/icons/v2/restaurant_pinlet","name":"China Imbiss Kim Phat","opening_hours":{"open_now":true},"photos":[{"height":1920,"html_attributions":["<a href=\"https://maps.google.com/maps/contrib/107099131710504889540\">Marcus L.</a>"],"photo_reference":"AeJbb3epM8QDFYN9edG4EpgyngWxhjFpCvioiJdoPYpClq1nnM9DH6eeKduPtR2i6POHNYgb_xHGs30Vz3OQi3O7nKmXRwKHBoKxs-3qCHUazIeHa4yQSo4w5j8Wh6Kb-7xIbeDeWQ6zIW801bxLy9_gk5xAUTfs1y8A_XK4H3l9Ah1YqvYX","width":1080}],"place_id":"ChIJB3P7nVC0uEcRGJOOMViY5kk","plus_code":{"compound_code":"6M4H+5Q Neuss","global_code":"9F386M4H+5Q"},"rating":3.5,"reference":"ChIJB3P7nVC0uEcRGJOOMViY5kk","types":["meal_takeaway","restaurant","food","point_of_interest","establishment"],"user_ratings_total":110},{"business_status":"OPERATIONAL","formatted_address":"Schadowstraße 11, 40212 Düsseldorf","geometry":{"location":{"lat":51.2254866,"lng":6.7804455},"viewport":{"northeast":{"lat":51.22677967989272,"lng":6.781703379892721},"southwest":{"lat":51.22408002010728,"lng":6.779003720107277}}},"icon":"https://maps.gstatic.com/mapfiles/place_api/icons/v1/png_71/restaurant-71.png","icon_background_color":"#FF9E67","icon_mask_base_uri":"https://maps.gstatic.com/mapfiles/place_api/icons/v2/restaurant_pinlet","name":"Buthai Street Kitchen","opening_hours":{"open_now":true},"photos":[{"height":1200,"html_attributions":["<a href=\"https://maps.google.com/maps/contrib/112475721467393242436\">A Google User</a>"],"photo_reference":"AeJbb3fdH0M9wrp5iKHRj8b9iow2Ue20NoCvjd2nNqEXuyORalHR9RwKMX4o3UbqottQyD3eLA9qirmEYVx1rSahM6ig3nkYY-8xJvEYEgoSNwIIwhIe3hbWof_RAc_L4IdmtGMlYf8Umpj3xxawMRSZyBPaRDITQI65o71rGRdRa_9JNpZb","width":1800}],"place_id":"ChIJQ7iIwNvLuEcRTid9cRjt7Rs","plus_code":{"compound_code":"6QGJ+55 Düsseldorf","global_code":"9F386QGJ+55"},"rating":3.5,"reference":"ChIJQ7iIwNvLuEcRTid9cRjt7Rs","types":["restaurant","food","point_of_interest","establishment"],"user_ratings_total":50},{"business_status":"OPERATIONAL","formatted_address":"Flughafenstraße 120, 40474 Düsseldorf","geometry":{"location":{"lat":51.2775998,"lng":6.765599799999999},"viewport":{"northeast":{"lat":51.27893597989272,"lng":6.767020579892721},"southwest":{"lat":51.27623632010727,"lng":6.764320920107277}}},"icon":"https://maps.gstatic.com/mapfiles/place_api/icons/v1/png_71/restaurant-71.png","icon_background_color":"#FF9E67","icon_mask_base_uri":"https://maps.gstatic.com/mapfiles/place_api/icons/v2/restaurant_pinlet","name":"Asiagourmet","opening_hours":{"open_now":true},"photos":[{"height":2268,"html_attributions":["<a href=\"https://maps.google.com/maps/contrib/113232508678966053344\">Maris Bizuns</a>"],"photo_reference":"AeJbb3foSS_YvR-Pi07_9hZ44jaiXxqyLUSHOr8XcTJa3L8YQDVunyWy9yd2PF5UGCauVRWEWKtGXTHXNjh-1uOXecGitJaoXy1J8C3LGWlNVB5aU4JOZIluCFyVYwmTDhBfz0B1kA-gzvCrPZvzl2uBa13uZOTlf2eNdbr4vkR0ZxmbUMkx","width":4032}],"place_id":"ChIJze0SLdXJuEcRANlwDDpAKVM","plus_code":{"compound_code":"7QH8+26 Düsseldorf","global_code":"9F387QH8+26"},"price_level":1,"rating":3.2,"reference":"ChIJze0SLdXJuEcRANlwDDpAKVM","types":["restaurant","food","point_of_interest","establishment"],"user_ratings_total":90},{"business_status":"OPERATIONAL","formatted_address":"Degerstraße 45, 40235 Düsseldorf","geometry":{"location":{"lat":51.22964229999999,"lng":6.8115665},"viewport":{"northeast":{"lat":51.23102237989272,"lng":6.813046479892722},"southwest":{"lat":51.22832272010728,"lng":6.810346820107278}}},"icon":"https://maps.gstatic.com/mapfiles/place_api/icons/v1/png_71/restaurant-71.png","icon_background_color":"#FF9E67","icon_mask_base_uri":"https://maps.gstatic.com/mapfiles/place_api/icons/v2/restaurant_pinlet","name":"Asia Thai Düsseldorf Flingern","opening_hours":{"open_now":true},"photos":[{"height":1960,"html_attributions":["<a href=\"https://maps.google.com/maps/contrib/110140864814663638688\">ImmerCrafter</a>"],"photo_reference":"AeJbb3db3q0xqv9zcm2tgHDOh1g0agl3P-cf6gJ0umYUBEXTnj5BH4Mw8c8OBfUZCIyFoB5zlRN8fx9Le81Tr_ffUPoNQB67Z6okVBDKD9NsSw3LYmZQzhNOm-v1U1DgfzvSuAlXRGcAJz-r6AG8je5ipXrFON5eFe1b_08B2dFgB-nmMKzG","width":4032}],"place_id":"ChIJvU8yhdbLuEcRd8OU27cCU24","plus_code":{"compound_code":"6RH6+VJ Düsseldorf","global_code":"9F386RH6+VJ"},"price_level":1,"rating":3,"reference":"ChIJvU8yhdbLuEcRd8OU27cCU24","types":["restaurant","food","point_of_interest","establishment"],"user_ratings_total":156},{"business_status":"OPERATIONAL","formatted_address":"Henkelstraße 286, 40599 Düsseldorf","geometry":{"location":{"lat":51.178423,"lng":6.8576831},"viewport":{"northeast":{"lat":51.17982342989272,"lng":6.858975579892722},"southwest":{"lat":51.17712377010727,"lng":6.856275920107278}}},"icon":"https://maps.gstatic.com/mapfiles/place_api/icons/v1/png_71/restaurant-71.png","icon_background_color":"#FF9E67","icon_mask_base_uri":"https://maps.gstatic.com/mapfiles/place_api/icons/v2/restaurant_pinlet","name":"Asia Thai Imbiss","opening_hours":{"open_now":true},"photos":[{"height":2268,"html_attributions":["<a href=\"https://maps.google.com/maps/contrib/101736638359174620187\">101736638359174620187</a>"],"photo_reference":"AeJbb3cTVLUQWnld_lnnfDWktNJr-vyMvmb1RFv62383ARkGceYxUoREph6VmpcqLh-ObAktBEhEGLTFN_MZoJjJcROlMPpKU--JRbPUqj0HzxD2a032U-6TQJp3Alf-CQCYFZA_GwPFcvKQYLxdDjqtT9xuN-ZLK10-yE_HPFjiUaZpqLb-","width":4032}],"place_id":"ChIJ___jWYXMuEcRNaNzTbd7MUI","plus_code":{"compound_code":"5VH5+93 Düsseldorf","global_code":"9F385VH5+93"},"rating":3,"reference":"ChIJ___jWYXMuEcRNaNzTbd7MUI","types":["meal_takeaway","restaurant","food","point_of_interest","establishment"],"user_ratings_total":10}]