[{"business_status":"OPERATIONAL","formatted_address":"LES DOCKS VILLAGE, 22 Quai du Lazaret, 13002 Marseille","geometry":{"location":{"lat":43.3086701,"lng":5.3668691},"viewport":{"northeast":{"lat":43.31011382989271,"lng":5.368411329892721},"southwest":{"lat":43.30741417010727,"lng":5.365711670107277}}},"icon":"https://maps.gstatic.com/mapfiles/place_api/icons/v1/png_71/restaurant-71.png","icon_background_color":"#FF9E67","icon_mask_base_uri":"https://maps.gstatic.com/mapfiles/place_api/icons/v2/restaurant_pinlet","name":"Goûts du monde","opening_hours":{"open_now":false},"photos":[{"height":969,"html_attributions":["<a href=\"https://maps.google.com/maps/contrib/108396440492117448294\">A Google User</a>"],"photo_reference":"AeJbb3d8eEX6ajaUsjf7bK0e5a2cSEVbVmii_fC29-AFwZpUdgxRn_nXPXQg8AgYY3x9XiushX4S602xob6XBJD9vO6GZQTIfiAiUECz22VNU99sG_yyBbib3lh28wsv7h_JHz_mRWH3_f_Pwt0d5FkpXHcjmdun-GpnUDeODgA9CyyL3F9-","width":1125}],"place_id":"ChIJyTrnvefByRIRcGJ-K1rhxMM","plus_code":{"compound_code":"8958+FP Marseille","global_code":"8FM78958+FP"},"rating":5,"reference":"ChIJyTrnvefByRIRcGJ-K1rhxMM","types":["restaurant","food","point_of_interest","establishment"],"user_ratings_total":19},{"business_status":"OPERATIONAL","formatted_address":"5 Lot. les Madets, 13380 Plan-de-Cuques","geometry":{"location":{"lat":43.3415144,"lng":5.457430899999999},"viewport":{"northeast":{"lat":43.34284377989272,"lng":5.458741829892721},"southwest":{"lat":43.34014412010728,"lng":5.456042170107278}}},"icon":"https://maps.gstatic.com/mapfiles/place_api/icons/v1/png_71/restaurant-71.png","icon_background_color":"#FF9E67","icon_mask_base_uri":"https://maps.gstatic.com/mapfiles/place_api/icons/v2/restaurant_pinlet","name":"Restomas","opening_hours":{"open_now":false},"photos":[{"height":3120,"html_attributions":["<a href=\"https://maps.google.com/maps/contrib/107744066133387703457\">A Google User</a>"],"photo_reference":"AeJbb3cUeMqDSJy0aZdy_NFeBVlztu1gFk2j8f-iECfOO6oRBF133JOIexi-nUKRQna4Pgr0RszWNG88CURDGPLpQqHIbgKToOgEU_KF7SrHtMgVTy-Un8wMHeugIp7O7XR_vPFp82zwQPUD1sORuiy3_6estA3rN5Eb5AnSL0-r6GoSvMo3","width":4160}],"place_id":"ChIJeV-4Mwu_yRIRz61dgUDTAG8","plus_code":{"compound_code":"8FR4+JX Plan-de-Cuques","global_code":"8FM78FR4+JX"},"rating":5,"reference":"ChIJeV-4Mwu_yRIRz61dgUDTAG8","types":["restaurant","food","point_of_interest","establishment"],"user_ratings_total":1},{"business_status":"OPERATIONAL","formatted_address":"5b Bd Bonne Brise, 13008 Marseille","geometry":{"location":{"lat":43.2361215,"lng":5.3610482},"viewport":{"northeast":{"lat":43.23749572989271,"lng":5.362361529892723},"southwest":{"lat":43.23479607010727,"lng":5.359661870107278}}},"icon":"https://maps.gstatic.com/mapfiles/place_api/icons/v1/png_71/restaurant-71.png","icon_background_color":"#FF9E67","icon_mask_base_uri":"https://maps.gstatic.com/mapfiles/place_api/icons/v2/restaurant_pinlet","name":"The Privacy","opening_hours":{"open_now":false},"photos":[{"height":1280,"html_attributions":["<a href=\"https://maps.google.com/maps/contrib/101730907807991544711\">The Privacy</a>"],"photo_reference":"AeJbb3efMs8s-T33KFDs_iFadH96oTTsY22BeXILqH8VtkoMPhUJ5mPMuToLVO-tUTK-RdyH6SiMS_mjCP80UCfuHp4q_bDO0PoK0-jCyUkXb5rlhcLFNAZDZrvZoddBJkWfsP0zj55jU6UDdkb9rbyNutBjaJ9UbuvXmO7MeSu3AdlDHKMt","width":960}],"place_id":"ChIJ75BYEq_HyRIR7MrGF-BOT90","plus_code":{"compound_code":"69P6+FC Marseille","global_code":"8FM769P6+FC"},"price_level":2,"rating":4.9,"reference":"ChIJ75BYEq_HyRIR7MrGF-BOT90","types":["restaurant","food","point_of_interest","establishment"],"user_ratings_total":92},{"business_status":"OPERATIONAL","formatted_address":"168 Rue Breteuil, 13006 Marseille","geometry":{"location":{"lat":43.2829529,"lng":5.3786358},"viewport":{"northeast":{"lat":43.28432322989272,"lng":5.380071279892721},"southwest":{"lat":43.28162357010727,"lng":5.377371620107278}}},"icon":"https://maps.gstatic.com/mapfiles/place_api/icons/v1/png_71/restaurant-71.png","icon_background_color":"#FF9E67","icon_mask_base_uri":"https://maps.gstatic.com/mapfiles/place_api/icons/v2/restaurant_pinlet","name":"le 100","opening_hours":{"open_now":false},"photos":[{"height":422,"html_attributions":["<a href=\"https://maps.google.com/maps/contrib/101414257688253482795\">A Google User</a>"],"photo_reference":"AeJbb3fZfp2hDDKgN9G50i7kQtLb3nyoSttnHpva4NBjvuP0MR3G-GZ3aMkpF0pE-trNJYguypE1YUu8PBSfG0IF3hgz7_23vfIiA8xTJyJnvlWGbAMrbvwZvdNBkrscAts8vvptJ8JgjCalBByo8cITMxo8rwfcMC1Xlk3GRVsjVBrsGaVe","width":750}],"place_id":"ChIJ5ebpCgfByRIR22ts1bC_Wmg","plus_code":{"compound_code":"79MH+5F Marseille","global_code":"8FM779MH+5F"},"rating":4.9,"reference":"ChIJ5ebpCgfByRIR22ts1bC_Wmg","types":["restaurant","food","point_of_interest","establishment"],"user_ratings_total":31},{"business_status":"OPERATIONAL","formatted_address":"140 Bd Boisson, 13004 Marseille","geometry":{"location":{"lat":43.2964157,"lng":5.403914599999999},"viewport":{"northeast":{"lat":43.29776877989272,"lng":5.405316029892722},"southwest":{"lat":43.29506912010728,"lng":5.402616370107278}}},"icon":"https://maps.gstatic.com/mapfiles/place_api/icons/v1/png_71/restaurant-71.png","icon_background_color":"#FF9E67","icon_mask_base_uri":"https://maps.gstatic.com/mapfiles/place_api/icons/v2/restaurant_pinlet","name":"Restaurant Minho","opening_hours":{"open_now":false},"photos":[{"height":3472,"html_attributions":["<a href=\"https://maps.google.com/maps/contrib/117118782981957002841\">A Google User</a>"],"photo_reference":"AeJbb3eEk4IsTxR-NOyVDIW7nhm-FML-0qT-tqYUMlK144-PJouQd6sOBG5LW-ukQevEE8HT6FYWH-DxCM28mGfPNDAGPWr8I1fY4TTXdl_HgyB5kCMvG90u_eOFAVO9HzcLpIzAOyvC0YqqhODu0sGQc5Uip3nSBJ-n5B_4ECwkn5Sq1pyq","width":4640}],"place_id":"ChIJIWmSd3K_yRIRlxOG-5suX9I","plus_code":{"compound_code":"7CW3+HH Marseille","global_code":"8FM77CW3+HH"},"rating":4.9,"reference":"ChIJIWmSd3K_yRIRlxOG-5suX9I","types":["restaurant","point_of_interest","food","establishment"],"user_ratings_total":11},{"business_status":"OPERATIONAL","formatted_address":"22 Pl. Notre Dame du Mont, 13006 Marseille","geometry":{"location":{"lat":43.291774,"lng":5.3841662},"viewport":{"northeast":{"lat":43.29318037989272,"lng":5.385575779892722},"southwest":{"lat":43.29048072010728,"lng":5.382876120107278}}},"icon":"https://maps.gstatic.com/mapfiles/place_api/icons/v1/png_71/restaurant-71.png","icon_background_color":"#FF9E67","icon_mask_base_uri":"https://maps.gstatic.com/mapfiles/place_api/icons/v2/restaurant_pinlet","name":"Chez Nous","opening_hours":{"open_now":false},"photos":[{"height":3000,"html_attributions":["<a href=\"https://maps.google.com/maps/contrib/115812287859711664332\">herve moriot</a>"],"photo_reference":"AeJbb3eI0TWvqQCuHsVKQtny4iYhlIQisc-Lu4RaWOLZHxSw8TiNFXw1HVO4Rv_MBVF44cET55rqCvAdQ8iDztR4ApbINnuxsNV4b_OSxxY8VJ4YnK1r8kwSvwODqqlQnNQYQK1Z4Cj9oTh9n4W1PZLYjq27EAoWxO2ALTAM0KCUZyIB4sAN","width":4000}],"place_id":"ChIJF9KJJaXAyRIRuMRRPYsl4uI","plus_code":{"compound_code":"79RM+PM Marseille","global_code":"8FM779RM+PM"},"rating":4.8,"reference":"ChIJF9KJJaXAyRIRuMRRPYsl4uI","types":["restaurant","food","point_of_interest","establishment"],"user_ratings_total":359},{"business_status":"OPERATIONAL","formatted_address":"9 Rue des trois Mages, 13001 Marseille","geometry":{"location":{"lat":43.2948911,"lng":5.3843439},"viewport":{"northeast":{"lat":43.29620152989273,"lng":5.385715429892722},"southwest":{"lat":43.29350187010728,"lng":5.383015770107278}}},"icon":"https://maps.gstatic.com/mapfiles/place_api/icons/v1/png_71/restaurant-71.png","icon_background_color":"#FF9E67","icon_mask_base_uri":"https://maps.gstatic.com/mapfiles/place_api/icons/v2/restaurant_pinlet","name":"Le Comptoir de Becca","opening_hours":{"open_now":false},"photos":[{"height":4032,"html_attributions":["<a href=\"https://maps.google.com/maps/contrib/116179534685627008944\">Anthony</a>"],"photo_reference":"AeJbb3clD_MNpUZA3w1xuqzRldp0tuctj1fgvVDj7MyJgTh7q8oR1b-d6op9qv_Xl1KEzD1QRdcgC2o5TSI6xn_P555agI3WEV6duVjbI5HF6vFw1ns1qmhpg1JSdpmTTQZ9NN-Muxwcs5-4PvlD11_N6vF7aSb3-4yOkl5oBqusURKAGl4E","width":3024}],"place_id":"ChIJ14ztw3bByRIRT_-PkwjRZi4","plus_code":{"compound_code":"79VM+XP Marseille","global_code":"8FM779VM+XP"},"rating":4.8,"reference":"ChIJ14ztw3bByRIRT_-PkwjRZi4","types":["restaurant","food","point_of_interest","establishment"],"user_ratings_total":141},{"business_status":"OPERATIONAL","formatted_address":"153 Bd Chave, 13005 Marseille","geometry":{"location":{"lat":43.2956422,"lng":5.3956187},"viewport":{"northeast":{"lat":43.29695722989271,"lng":5.396944279892721},"southwest":{"lat":43.29425757010727,"lng":5.394244620107277}}},"icon":"https://maps.gstatic.com/mapfiles/place_api/icons/v1/png_71/restaurant-71.png","icon_background_color":"#FF9E67","icon_mask_base_uri":"https://maps.gstatic.com/mapfiles/place_api/icons/v2/restaurant_pinlet","name":"La cuisine de Gagny","opening_hours":{"open_now":false},"photos":[{"height":4608,"html_attributions":["<a href=\"https://maps.google.com/maps/contrib/108846271911906059902\">A Google User</a>"],"photo_reference":"AeJbb3dVQxeB6Rupe5XUirYo1WetcOjcm7RRxCSw9IdwHyqRzbtY6n-xwrsRomVFjc2eUG6I_pHeqhCG6VbJ_Srdhsq6pgMpv17Zo1un0SUG0BRTdVH6Fnmhlyu20rT5f0hCyb2DCILeJhywrCAqXNz8b2I4oQArCEPsmy1N4E8T-rNOpV1z","width":3456}],"place_id":"ChIJoZThE1-_yRIR2Q4E65hMBU8","plus_code":{"compound_code":"79WW+76 Marseille","global_code":"8FM779WW+76"},"rating":4.8,"reference":"ChIJoZThE1-_yRIR2Q4E65hMBU8","types":["restaurant","food","point_of_interest","establishment"],"user_ratings_total":60},{"business_status":"OPERATIONAL","formatted_address":"Avenue de Revestel-anse de Corton,, 13260 Cassis","geometry":{"location":{"lat":43.2110668,"lng":5.544957999999999},"viewport":{"northeast":{"lat":43.21253962989272,"lng":5.546209179892721},"southwest":{"lat":43.20983997010727,"lng":5.543509520107277}}},"icon":"https://maps.gstatic.com/mapfiles/place_api/icons/v1/png_71/restaurant-71.png","icon_background_color":"#FF9E67","icon_mask_base_uri":"https://maps.gstatic.com/mapfiles/place_api/icons/v2/restaurant_pinlet","name":"La Villa Madie","opening_hours":{"open_now":false},"photos":[{"height":853,"html_attributions":["<a href=\"https://maps.google.com/maps/contrib/115683447463188767084\">La Villa Madie</a>"],"photo_reference":"AeJbb3eDVNSX6TiR0B3WDLCIsAoUHzPAr2IBfgaoZIc_vBdrrzih-6m-G1Gkms1HNybK2jBATWX2gLK2KgGrDokFEB6mnGomAsl26jYeF3X3PGyfxG78izV7Prapw43C1LqwDuzrAIGusEnRptQ4IBkcH7-nj4t67W5DMt53bmvT_J69BUxX","width":1280}],"place_id":"ChIJm3JVyr66yRIRxtkixEeVcKY","plus_code":{"compound_code":"6G6V+CX Cassis","global_code":"8FM76G6V+CX"},"price_level":4,"rating":4.7,"reference":"ChIJm3JVyr66yRIRxtkixEeVcKY","types":["restaurant","food","point_of_interest","establishment"],"user_ratings_total":1093},{"business_status":"OPERATIONAL","formatted_address":"Cours d'Estienne d'Orves, 35 Rue de la Paix Marcel Paul, 13001 Marseille","geometry":{"location":{"lat":43.2921856,"lng":5.3729317},"viewport":{"northeast":{"lat":43.29356927989272,"lng":5.374233929892721},"southwest":{"lat":43.29086962010728,"lng":5.371534270107277}}},"icon":"https://maps.gstatic.com/mapfiles/place_api/icons/v1/png_71/restaurant-71.png","icon_background_color":"#FF9E67","icon_mask_base_uri":"https://maps.gstatic.com/mapfiles/place_api/icons/v2/restaurant_pinlet","name":"Restaurant l'Inattendu","opening_hours":{"open_now":false},"photos":[{"height":1365,"html_attributions":["<a href=\"https://maps.google.com/maps/contrib/115831138818517709073\">Restaurant l&#39;Inattendu</a>"],"photo_reference":"AeJbb3dgVB5ojqbfBFCadCmngjzBRT18oo9P7WisCyZGo2dZpTsQJPpGNWUw5yeMFfruj_S-H6TWxMkepi06H9vEI1L-XXISJZkvuRQpyJCQwLCcdJQvY3PCaAKECRkyrFCDoYzZR_auheOCXuriIYACN13QRjxKKvak1kBj8ibEgn5Y5LO6","width":2048}],"place_id":"ChIJ0xJ0gsfAyRIRvoceTwMBLdc","plus_code":{"compound_code":"79RF+V5 Marseille","global_code":"8FM779RF+V5"},"price_level":2,"rating":4.7,"reference":"ChIJ0xJ0gsfAyRIRvoceTwMBLdc","types":["restaurant","point_of_interest","food","establishment"],"user_ratings_total":795},{"business_status":"OPERATIONAL","formatted_address":"158 Rue du Vallon des Auffes, 13007 Marseille","geometry":{"location":{"lat":43.2857194,"lng":5.350075899999999},"viewport":{"northeast":{"lat":43.28708532989272,"lng":5.351440129892722},"southwest":{"lat":43.28438567010728,"lng":5.348740470107278}}},"icon":"https://maps.gstatic.com/mapfiles/place_api/icons/v1/png_71/restaurant-71.png","icon_background_color":"#FF9E67","icon_mask_base_uri":"https://maps.gstatic.com/mapfiles/place_api/icons/v2/restaurant_pinlet","name":"L'Épuisette","opening_hours":{"open_now":false},"photos":[{"height":3000,"html_attributions":["<a href=\"https://maps.google.com/maps/contrib/104091022628774625756\">Xavier Cassagne</a>"],"photo_reference":"AeJbb3fGb_31vesNkfUo6B-OHIMDrb11_Om5u68pV8wQE_TX2sJm4X3kgKeABt8Z1dMEDb9soGb5WqEaaCs47VCZYWOiq8e47wSTfmFgaWBG2q1SDkK9LgA--r_JynxKAgbpHi2-qF4CbDA5ydTjdyA3V_6lPtZQuv7EVCfvh81Vlzl51lie","width":4000}],"place_id":"ChIJTRzBOyrByRIR0wGsTBnuwfc","plus_code":{"compound_code":"79P2+82 Marseille","global_code":"8FM779P2+82"},"price_level":3,"rating":4.7,"reference":"ChIJTRzBOyrByRIR0wGsTBnuwfc","types":["restaurant","food","point_of_interest","establishment"],"user_ratings_total":682},{"business_status":"OPERATIONAL","formatted_address":"9 Rue François Rocca, 13008 Marseille","geometry":{"location":{"lat":43.2700481,"lng":5.3862614},"viewport":{"northeast":{"lat":43.27144742989271,"lng":5.387606479892723},"southwest":{"lat":43.26874777010727,"lng":5.384906820107279}}},"icon":"https://maps.gstatic.com/mapfiles/place_api/icons/v1/png_71/restaurant-71.png","icon_background_color":"#FF9E67","icon_mask_base_uri":"https://maps.gstatic.com/mapfiles/place_api/icons/v2/restaurant_pinlet","name":"AM par Alexandre Mazzia","opening_hours":{"open_now":false},"photos":[{"height":3840,"html_attributions":["<a href=\"https://maps.google.com/maps/contrib/100156776728819957426\">AM par Alexandre Mazzia</a>"],"photo_reference":"AeJbb3fyksVjdvZKODTcjiSVMrNZ7iJC2B2KMMiEy8qtqNKOUaMv5rPe0QIndrPlHb_0d66WMhgB0TF8NJuvkRWidLKpboYl1kT9Vy5p8S_Coe9lByXaios6lxrZW3J_jBz_HiE-I0tnW1myRChHf4ItDpDJk_CJiUBKs36e5x7oUwPK4RuR","width":5760}],"place_id":"ChIJ2VJHkVrHyRIRilr7mWdCXFk","plus_code":{"compound_code":"79CP+2G Marseille","global_code":"8FM779CP+2G"},"price_level":3,"rating":4.7,"reference":"ChIJ2VJHkVrHyRIRilr7mWdCXFk","types":["restaurant","food","point_of_interest","establishment"],"user_ratings_total":617},{"business_status":"OPERATIONAL","formatted_address":"42 Rue des trois Mages, 13006 Marseille","geometry":{"location":{"lat":43.2944037,"lng":5.385042299999999},"viewport":{"northeast":{"lat":43.29576307989272,"lng":5.386396979892721},"southwest":{"lat":43.29306342010728,"lng":5.383697320107277}}},"icon":"https://maps.gstatic.com/mapfiles/place_api/icons/v1/png_71/restaurant-71.png","icon_background_color":"#FF9E67","icon_mask_base_uri":"https://maps.gstatic.com/mapfiles/place_api/icons/v2/restaurant_pinlet","name":"Lacaille","opening_hours":{"open_now":false},"photos":[{"height":956,"html_attributions":["<a href=\"https://maps.google.com/maps/contrib/105072805222760194601\">Lacaille Restaurant</a>"],"photo_reference":"AeJbb3esvDBfCgeZylvJsvmTjeluzerLRWfhiTbqW2dfpvlw2J5svHAp_rspEMXtr5d-DXmt3M6XRLB9CVMJusfY4o2_PYtUYxR2LE1KZlEGXap0hqxHtVvp7HHuiX7w1JiMPVYkD_Vtf5lj_m3rqsS7BElf7Lm7indzHrmFsvdMPFUdhTcs","width":1200}],"place_id":"ChIJzRRjnqTAyRIRA2IjxH2Y3rM","plus_code":{"compound_code":"79VM+PX Marseille","global_code":"8FM779VM+PX"},"price_level":2,"rating":4.7,"reference":"ChIJzRRjnqTAyRIRA2IjxH2Y3rM","types":["restaurant","food","point_of_interest","establishment"],"user_ratings_total":359},{"business_status":"OPERATIONAL","formatted_address":"180 Rue du Rouet, 13008 Marseille","geometry":{"location":{"lat":43.2765189,"lng":5.394305699999999},"viewport":{"northeast":{"lat":43.27787122989272,"lng":5.395634229892722},"southwest":{"lat":43.27517157010728,"lng":5.392934570107278}}},"icon":"https://maps.gstatic.com/mapfiles/place_api/icons/v1/png_71/restaurant-71.png","icon_background_color":"#FF9E67","icon_mask_base_uri":"https://maps.gstatic.com/mapfiles/place_api/icons/v2/restaurant_pinlet","name":"SIGNATURE","opening_hours":{"open_now":false},"photos":[{"height":3024,"html_attributions":["<a href=\"https://maps.google.com/maps/contrib/104452676178214261779\">Fred</a>"],"photo_reference":"AeJbb3cwjREuDPxOkh8kXhaKDZf1X3kKPhSamgric8r7jRQAVngM3CyReNdLOtsFXf1v8IyPGlgD3rxTVLrwmBBSyIHcSLFS-JCvrcrxG9GSDZcDGDIr0BBKN5XYyfcHNtZMGW_kpKJ7RJJSM9qsd3ntgBuVqq79yXunkBXmN1zcRDvZ5PWu","width":4032}],"place_id":"ChIJj1MedLW5yRIRyCzRyfRTnsU","plus_code":{"compound_code":"79GV+HM Marseille","global_code":"8FM779GV+HM"},"rating":4.7,"reference":"ChIJj1MedLW5yRIRyCzRyfRTnsU","types":["restaurant","food","point_of_interest","establishment"],"user_ratings_total":191},{"business_status":"OPERATIONAL","formatted_address":"21 Rue Dr Escat, 13006 Marseille","geometry":{"location":{"lat":43.2836057,"lng":5.3834241},"viewport":{"northeast":{"lat":43.28500787989272,"lng":5.384752029892722},"southwest":{"lat":43.28230822010728,"lng":5.382052370107278}}},"icon":"https://maps.gstatic.com/mapfiles/place_api/icons/v1/png_71/restaurant-71.png","icon_background_color":"#FF9E67","icon_mask_base_uri":"https://maps.gstatic.com/mapfiles/place_api/icons/v2/restaurant_pinlet","name":"Les Grandes Gueules","opening_hours":{"open_now":false},"photos":[{"height":1301,"html_attributions":["<a href=\"https://maps.google.com/maps/contrib/113960678134980687712\">Les Grandes Gueules</a>"],"photo_reference":"AeJbb3fOysmmXigGTxHmmwj-kI-1y_Ffz-0rFiFC30ZmaWW1DeZV3uI1ow_2I0tfVXQV2l_8DTYeVM0y4iy3UPKRP3aAmb9C83dgyojr00Z09oPFDSvRnnY2bRCnwCNKiLChYYuWxrZ4SjvHiV3nbJOGw1-UZmDFcOqcQFRvbC2fbz_EhfG-","width":2048}],"place_id":"ChIJ4QnsdbLAyRIRVKKHhOaOHbc","plus_code":{"compound_code":"79MM+C9 Marseille","global_code":"8FM779MM+C9"},"price_level":2,"rating":4.7,"reference":"ChIJ4QnsdbLAyRIRVKKHhOaOHbc","types":["restaurant","point_of_interest","food","establishment"],"user_ratings_total":175},{"business_status":"OPERATIONAL","formatted_address":"68 Rue Paradis, 13006 Marseille","geometry":{"location":{"lat":43.291298,"lng":5.3774948},"viewport":{"northeast":{"lat":43.29266722989272,"lng":5.378935579892722},"southwest":{"lat":43.28996757010728,"lng":5.376235920107278}}},"icon":"https://maps.gstatic.com/mapfiles/place_api/icons/v1/png_71/generic_business-71.png","icon_background_color":"#7B9EB0","icon_mask_base_uri":"https://maps.gstatic.com/mapfiles/place_api/icons/v2/generic_pinlet","name":"La French Cuisine","opening_hours":{"open_now":true},"photos":[{"height":2049,"html_attributions":["<a href=\"https://maps.google.com/maps/contrib/111993343679228251080\">A Google User</a>"],"photo_reference":"AeJbb3fkzHWZrSybiWfi9KJlk83-ajSpRsaARh0pq6RPpwt5Y_i8vY_KWnNotSgRh-mvrO6CI8xB04kG8eG4GS8oC-W0LL-Eos3uYJnjJEPULoMu9CK257T1IAh6yVfjKLtlBuMsFBeU0POw_s7IyWQGQlymD2LTltIUOwMzX-xT3MqGzGrM","width":2002}],"place_id":"ChIJq6o-7bnAyRIRqV70KxSetE4","plus_code":{"compound_code":"79RG+GX Marseille","global_code":"8FM779RG+GX"},"rating":4.7,"reference":"ChIJq6o-7bnAyRIRqV70KxSetE4","types":["restaurant","food","point_of_interest","establishment"],"user_ratings_total":145},{"business_status":"OPERATIONAL","formatted_address":"26 Rue Edmond Rostand, 13006 Marseille","geometry":{"location":{"lat":43.28833969999999,"lng":5.3801629},"viewport":{"northeast":{"lat":43.28970647989272,"lng":5.381582779892722},"southwest":{"lat":43.28700682010727,"lng":5.378883120107278}}},"icon":"https://maps.gstatic.com/mapfiles/place_api/icons/v1/png_71/restaurant-71.png","icon_background_color":"#FF9E67","icon_mask_base_uri":"https://maps.gstatic.com/mapfiles/place_api/icons/v2/restaurant_pinlet","name":"Rosemonde","opening_hours":{"open_now":false},"photos":[{"height":3264,"html_attributions":["<a href=\"https://maps.google.com/maps/contrib/110704779114732093305\">Rosemonde</a>"],"photo_reference":"AeJbb3e_IERJ7r0iSPovzEKHKMfYs5-5rqqmTgFDbIpb24oIC5iYGM3sHEnIk5--jDcVR-S_jD0AgehQa5ydSsxLSaKiH0XanNrTGy-Saleh3gSS6dbZzvaIzWO8_yU9aYKhqfZVdMExGAhdOm_ildEjas0l5l_1E4YP6kxmRlE8eVZsSqfX","width":2448}],"place_id":"ChIJVVXO77DAyRIRph00wGZcYGA","plus_code":{"compound_code":"79QJ+83 Marseille","global_code":"8FM779QJ+83"},"rating":4.7,"reference":"ChIJVVXO77DAyRIRph00wGZcYGA","types":["restaurant","food","point_of_interest","establishment"],"user_ratings_total":63},{"business_status":"OPERATIONAL","formatted_address":"56 Cor Président John Fitzgerald Kennedy, 13007 Marseille","geometry":{"location":{"lat":43.28793719999999,"lng":5.3522441},"viewport":{"northeast":{"lat":43.28927312989272,"lng":5.353605329892722},"southwest":{"lat":43.28657347010728,"lng":5.350905670107278}}},"icon":"https://maps.gstatic.com/mapfiles/place_api/icons/v1/png_71/restaurant-71.png","icon_background_color":"#FF9E67","icon_mask_base_uri":"https://maps.gstatic.com/mapfiles/place_api/icons/v2/restaurant_pinlet","name":"Peron Restaurant","opening_hours":{"open_now":false},"photos":[{"height":3096,"html_attributions":["<a href=\"https://maps.google.com/maps/contrib/117269545986387041915\">A Google User</a>"],"photo_reference":"AeJbb3cxBcgTK6niFPwh-gsE_B5qIVorwJ_dDQKqpj6A-q1ATZb4PVvB5-cuER_JV0r9IpZiXhS_ipfzhcR1Nqe8xFBmPe5FOpF575kevJd-kiCqRhiItC4p37NC05nGIJZAFrAXiSUIyvj9y2nc7875xWixQQ39oVI9gxjDGrbtU4bQ1olC","width":4128}],"place_id":"ChIJLRmCH9bAyRIR7CxcBaxsBvI","plus_code":{"compound_code":"79Q2+5V Marseille","global_code":"8FM779Q2+5V"},"price_level":3,"rating":4.6,"reference":"ChIJLRmCH9bAyRIR7CxcBaxsBvI","types":["restaurant","food","point_of_interest","establishment"],"user_ratings_total":1143},{"business_status":"OPERATIONAL","formatted_address":"9 Rue des Trois Rois, 13006 Marseille","geometry":{"location":{"lat":43.2942123,"lng":5.3847532},"viewport":{"northeast":{"lat":43.29559517989272,"lng":5.386064979892723},"southwest":{"lat":43.29289552010728,"lng":5.383365320107279}}},"icon":"https://maps.gstatic.com/mapfiles/place_api/icons/v1/png_71/restaurant-71.png","icon_background_color":"#FF9E67","icon_mask_base_uri":"https://maps.gstatic.com/mapfiles/place_api/icons/v2/restaurant_pinlet","name":"L'Arôme","opening_hours":{"open_now":false},"photos":[{"height":3000,"html_attributions":["<a href=\"https://maps.google.com/maps/contrib/107298896346775805171\">Bob Valmont</a>"],"photo_reference":"AeJbb3cBu3Tr9VcFuQv3CLHdzhMF6igETDihNWHrSR244-tt2hB3pmHgqL7lcIdWxtTAfQl8nVZVKiOR3lGQQ49h5ZsUJtlmlvIsj7at3rKuSmm8VV9FjwVf9bGgWCKlPGpzmH-kMIE7_SquZUgROq7HYDESTeoez1P0qSDbPjB-0Mg_Bi4","width":4000}],"place_id":"ChIJacrPMEO_yRIR1h1zOUzzXrs","plus_code":{"compound_code":"79VM+MW Marseille","global_code":"8FM779VM+MW"},"price_level":2,"rating":4.6,"reference":"ChIJacrPMEO_yRIR1h1zOUzzXrs","types":["bar","restaurant","food","point_of_interest","establishment"],"user_ratings_total":606},{"business_status":"OPERATIONAL","formatted_address":"147 Av. Joseph Vidal, 13008 Marseille","geometry":{"location":{"lat":43.24942739999999,"lng":5.3754213},"viewport":{"northeast":{"lat":43.25079317989272,"lng":5.376704179892723},"southwest":{"lat":43.24809352010728,"lng":5.374004520107279}}},"icon":"https://maps.gstatic.com/mapfiles/place_api/icons/v1/png_71/restaurant-71.png","icon_background_color":"#FF9E67","icon_mask_base_uri":"https://maps.gstatic.com/mapfiles/place_api/icons/v2/restaurant_pinlet","name":"Question de Goût","opening_hours":{"open_now":false},"photos":[{"height":3024,"html_attributions":["<a href=\"https://maps.google.com/maps/contrib/113177702026688792379\">Véronique Cifarelli</a>"],"photo_reference":"AeJbb3eYjQjMe68Zdact36pxu61Jc5OuJiqD1WPV4rl8cErsyEUsbXo9Iju-EWFq52QKDGqhfUlJNEwTfYRYjWZQh8Dg2V645EBAan4Ro9O_thkdEHHCkSBFes98dBJe3cwfeng1Rh7ggdn3Vx98OwIRq9I5Am8L96ZEBkAhl4hVex4GiFJa","width":3024}],"place_id":"ChIJq331_nLHyRIRIbnSB3Ie6xw","plus_code":{"compound_code":"69XG+Q5 Marseille","global_code":"8FM769XG+Q5"},"price_level":2,"rating":4.6,"reference":"ChIJq331_nLHyRIRIbnSB3Ie6xw","types":["restaurant","food","point_of_interest","establishment"],"user_ratings_total":519},{"business_status":"OPERATIONAL","formatted_address":"96 Rue Grignan, 13001 Marseille","geometry":{"location":{"lat":43.2913252,"lng":5.3729575},"viewport":{"northeast":{"lat":43.29261602989271,"lng":5.374329779892722},"southwest":{"lat":43.28991637010727,"lng":5.371630120107278}}},"icon":"https://maps.gstatic.com/mapfiles/place_api/icons/v1/png_71/restaurant-71.png","icon_background_color":"#FF9E67","icon_mask_base_uri":"https://maps.gstatic.com/mapfiles/place_api/icons/v2/restaurant_pinlet","name":"Le Lauracée - Restaurant Marseille","opening_hours":{"open_now":false},"photos":[{"height":2268,"html_attributions":["<a href=\"https://maps.google.com/maps/contrib/108037162063440236003\">Coline Cordier</a>"],"photo_reference":"AeJbb3cUf39lV2DKD7qlbXSwUnLnYEtVZbrAB3RVUM4qOi9QETQ_0RN5XXVnztA9h7Su3fuXkapxoxD5oWrDT-uY3GHzrffACt29zVsLRz0he8B-lNTAeOFEQ9GRiLqCfCdIudqCRFIkZ2aOgRT7xQjJbwnL74fxDSSwVgzlXDoYbMSpigXW","width":4032}],"place_id":"ChIJxfcB9sfAyRIRDeJLkn0eN_0","plus_code":{"compound_code":"79RF+G5 Marseille","global_code":"8FM779RF+G5"},"price_level":2,"rating":4.6,"reference":"ChIJxfcB9sfAyRIRDeJLkn0eN_0","types":["restaurant","food","point_of_interest","establishment"],"user_ratings_total":410},{"business_status":"OPERATIONAL","formatted_address":"18 Quai du Port, 13002 Marseille","geometry":{"location":{"lat":43.29654439999999,"lng":5.3727719},"viewport":{"northeast":{"lat":43.29780487989272,"lng":5.374076279892721},"southwest":{"lat":43.29510522010727,"lng":5.371376620107277}}},"icon":"https://maps.gstatic.com/mapfiles/place_api/icons/v1/png_71/restaurant-71.png","icon_background_color":"#FF9E67","icon_mask_base_uri":"https://maps.gstatic.com/mapfiles/place_api/icons/v2/restaurant_pinlet","name":"Restaurant Le relais 50","opening_hours":{"open_now":false},"photos":[{"height":533,"html_attributions":["<a href=\"https://maps.google.com/maps/contrib/114661171460711197876\">A Google User</a>"],"photo_reference":"AeJbb3faUxVENltSmWN0uKvuJyuPrU4dt6aZQ4eS8l04Ae2jrw1-wPcHAeQ3g1HGZAVZKlfyytcSb4IhsWYLk3OKOG9XMQT4aFLN0CwagflPcnx7Fa_wBfonR1O4Be2bETziZhNB7bV9VVyCEjecz-NVJZuoIdcmP5PrjF4N5wqp72SH5g57","width":800}],"place_id":"ChIJPVwPosDAyRIRKoR5RNe36ak","plus_code":{"compound_code":"79WF+J4 Marseille","global_code":"8FM779WF+J4"},"rating":4.6,"reference":"ChIJPVwPosDAyRIRKoR5RNe36ak","types":["restaurant","food","point_of_interest","establishment"],"user_ratings_total":371},{"business_status":"OPERATIONAL","formatted_address":"635 D8N Quartier La Tourtelle, 13400 Aubagne","geometry":{"location":{"lat":43.2857023,"lng":5.5549725},"viewport":{"northeast":{"lat":43.28705602989272,"lng":5.556290929892723},"southwest":{"lat":43.28435637010728,"lng":5.553591270107279}}},"icon":"https://maps.gstatic.com/mapfiles/place_api/icons/v1/png_71/restaurant-71.png","icon_background_color":"#FF9E67","icon_mask_base_uri":"https://maps.gstatic.com/mapfiles/place_api/icons/v2/restaurant_pinlet","name":"Villa Estello","opening_hours":{"open_now":false},"photos":[{"height":1080,"html_attributions":["<a href=\"https://maps.google.com/maps/contrib/111591051890095807065\">A Google User</a>"],"photo_reference":"AeJbb3cC8-kvEYUV0XhLuO2lT1zKlxEY8T_Je6upDtnNQCIIs4EbVIyDC8eYvjbXemsJKZOIOB_HOD7ATOi-wqkeMI4tzeeF1YbH5d5tad38OrnQixtVCSmueq_eiqr6HYi_Rz9nsWCgBYD5torGpkOAMAAq-nMGajAXlWaLrfQgicrqqx5N","width":1919}],"place_id":"ChIJ6dcNObG8yRIRzNA6fcfVgEM","plus_code":{"compound_code":"7HP3+7X Aubagne","global_code":"8FM77HP3+7X"},"price_level":2,"rating":4.6,"reference":"ChIJ6dcNObG8yRIRzNA6fcfVgEM","types":["restaurant","food","point_of_interest","establishment"],"user_ratings_total":336},{"business_status":"OPERATIONAL","formatted_address":"8 Rue Sainte-Victoire, 13006 Marseille","geometry":{"location":{"lat":43.2865883,"lng":5.3828229},"viewport":{"northeast":{"lat":43.28792427989271,"lng":5.384217379892722},"southwest":{"lat":43.28522462010727,"lng":5.381517720107278}}},"icon":"https://maps.gstatic.com/mapfiles/place_api/icons/v1/png_71/restaurant-71.png","icon_background_color":"#FF9E67","icon_mask_base_uri":"https://maps.gstatic.com/mapfiles/place_api/icons/v2/restaurant_pinlet","name":"Restaurant Saisons","opening_hours":{"open_now":false},"photos":[{"height":4032,"html_attributions":["<a href=\"https://maps.google.com/maps/contrib/110280157304709636262\">A Google User</a>"],"photo_reference":"AeJbb3eBV71Ou-qyzmzG67ARKMSLeW9_XTv4saWs3Vu5OLw5GJEWOrOJTNEbBe-oVxb8xxwm3XJe1cmt3ZfmqyvAKzd0oTdR_69la9D6zxJS-5BwwKwyC0Za-8mYoM2kCSsvLwN_aEozj8fIgZ2MpTC9-EPcjQdorR5vvUQsop6TvYiytctP","width":3024}],"place_id":"ChIJuQRL27HAyRIR-r2IZDXfx2o","plus_code":{"compound_code":"79PM+J4 Marseille","global_code":"8FM779PM+J4"},"price_level":3,"rating":4.6,"reference":"ChIJuQRL27HAyRIR-r2IZDXfx2o","types":["restaurant","food","point_of_interest","establishment"],"user_ratings_total":333},{"business_status":"OPERATIONAL","formatted_address":"81 Rue Breteuil, 13006 Marseille","geometry":{"location":{"lat":43.28855859999999,"lng":5.376638199999999},"viewport":{"northeast":{"lat":43.28988607989272,"lng":5.377951129892722},"southwest":{"lat":43.28718642010727,"lng":5.375251470107278}}},"icon":"https://maps.gstatic.com/mapfiles/place_api/icons/v1/png_71/restaurant-71.png","icon_background_color":"#FF9E67","icon_mask_base_uri":"https://maps.gstatic.com/mapfiles/place_api/icons/v2/restaurant_pinlet","name":"Cédrat - Restaurant Marseille","opening_hours":{"open_now":false},"photos":[{"height":552,"html_attributions":["<a href=\"https://maps.google.com/maps/contrib/115060352228363631145\">Blonde et Brune</a>"],"photo_reference":"AeJbb3dm22FovdK1Dw5AHMvOU6FH45_w_x_65LslEWI3b1uLs24_JFG_Tkf85EzMJb6gAzHH-S2S74Z7eKzuIWKdT9EBoxtarn2DUkiwZolD_iXZv3litPd_3zx_aA7s-jyKbksgiEd2b_CMQ9QSKmTDJZIXB0S9cPD-U9W11hWZ-bwU-eRP","width":750}],"place_id":"ChIJuWXRFrfAyRIRp5QBCTMK2ts","plus_code":{"compound_code":"79QG+CM Marseille","global_code":"8FM779QG+CM"},"price_level":2,"rating":4.6,"reference":"ChIJuWXRFrfAyRIRp5QBCTMK2ts","types":["restaurant","food","point_of_interest","establishment"],"user_ratings_total":177},{"business_status":"OPERATIONAL","formatted_address":"InterContinental Marseille – Hotel Dieu, 1 Pl. Daviel, 13002 Marseille","geometry":{"location":{"lat":43.298433,"lng":5.370189},"viewport":{"northeast":{"lat":43.29978282989272,"lng":5.371603579892721},"southwest":{"lat":43.29708317010728,"lng":5.368903920107277}}},"icon":"https://maps.gstatic.com/mapfiles/place_api/icons/v1/png_71/restaurant-71.png","icon_background_color":"#FF9E67","icon_mask_base_uri":"https://maps.gstatic.com/mapfiles/place_api/icons/v2/restaurant_pinlet","name":"Alcyone","opening_hours":{"open_now":false},"photos":[{"height":794,"html_attributions":["<a href=\"https://maps.google.com/maps/contrib/104832662511926031362\">A Google User</a>"],"photo_reference":"AeJbb3datCWk_MDXOBUDTGRgB6oadEJbMP48LzuOgu4BQfqHplkoI_e3roHVFUEjz2ixkPaN_TavsR7pIt3MppujHbFEfb78WXiRQvjiuTa93_-Wd92qD0QD6J0Zmb3EMgbz-jYZIlQw89t3E4od5UUXjVQUCllKp0XcT2JAKYyMiNSCC9Hg","width":1280}],"place_id":"ChIJ5fzbDMHAyRIRsEaXjcWMFNo","plus_code":{"compound_code":"79XC+93 Marseille","global_code":"8FM779XC+93"},"price_level":4,"rating":4.6,"reference":"ChIJ5fzbDMHAyRIRsEaXjcWMFNo","types":["restaurant","food","point_of_interest","establishment"],"user_ratings_total":147},{"business_status":"OPERATIONAL","formatted_address":"1 Rue d'Arcole, 13006 Marseille","geometry":{"location":{"lat":43.2894814,"lng":5.3770583},"viewport":{"northeast":{"lat":43.29088382989272,"lng":5.378386379892722},"southwest":{"lat":43.28818417010728,"lng":5.375686720107278}}},"icon":"https://maps.gstatic.com/mapfiles/place_api/icons/v1/png_71/restaurant-71.png","icon_background_color":"#FF9E67","icon_mask_base_uri":"https://maps.gstatic.com/mapfiles/place_api/icons/v2/restaurant_pinlet","name":"La Cantine SI Gourmande","opening_hours":{"open_now":false},"photos":[{"height":464,"html_attributions":["<a href=\"https://maps.google.com/maps/contrib/116494963778588818955\">A Google User</a>"],"photo_reference":"AeJbb3fdLSvf5hDa29aPaBMwTF5qb6cID5QmNlMClI5_SBGStAqT1_4ustMgo7oOcC-BaC3yswpodPtMSHuBtRKR7-yieJvtPmAqYNf98AnhLuSSNTiPTvkyeTHATTCO2wFjk5tJBEnfeexH0DXfJIEthbo9ApvmCs1vECcxdG1JF3sIROmX","width":980}],"place_id":"ChIJq6q6RLfAyRIRXfkSjh9Ednw","plus_code":{"compound_code":"79QG+QR Marseille","global_code":"8FM779QG+QR"},"rating":4.6,"reference":"ChIJq6q6RLfAyRIRXfkSjh9Ednw","types":["restaurant","point_of_interest","food","establishment"],"user_ratings_total":9},{"business_status":"OPERATIONAL","formatted_address":"602 Av. du 7ème Régiment du Tirailleur Algériens, 13190 Allauch","geometry":{"location":{"lat":43.3381649,"lng":5.4728106},"viewport":{"northeast":{"lat":43.33947162989271,"lng":5.474210779892723},"southwest":{"lat":43.33677197010727,"lng":5.471511120107279}}},"icon":"https://maps.gstatic.com/mapfiles/place_api/icons/v1/png_71/restaurant-71.png","icon_background_color":"#FF9E67","icon_mask_base_uri":"https://maps.gstatic.com/mapfiles/place_api/icons/v2/restaurant_pinlet","name":"RESTAURANT IOD'IN","opening_hours":{"open_now":false},"photos":[{"height":3024,"html_attributions":["<a href=\"https://maps.google.com/maps/contrib/101793548892993947233\">Iod&#39;in</a>"],"photo_reference":"AeJbb3ek3wYHrd6QEhOHGKwbhkH4DYFYD-r0bB6FTLUjtTaYGoNZdIQKf-gMX5fjxpeQoUBW6wXBIbjdgwu_Xg_Z-unYashfbh6DvHN9V5FZREXFfyxnRKju8mcPBu5fEBy00Frm3S4XQ80LKKvzt6a9msffWecQwAkGQaAZb6cQooUbLIzJ","width":4032}],"place_id":"ChIJz_2b-wu-yRIRws5siMH6CRc","plus_code":{"compound_code":"8FQF+74 Allauch","global_code":"8FM78FQF+74"},"price_level":2,"rating":4.5,"reference":"ChIJz_2b-wu-yRIRws5siMH6CRc","types":["restaurant","food","point_of_interest","establishment"],"user_ratings_total":459},{"business_status":"OPERATIONAL","formatted_address":"179 Av. des Olives, 13013 Marseille","geometry":{"location":{"lat":43.325758,"lng":5.4414231},"viewport":{"northeast":{"lat":43.32703392989272,"lng":5.442705679892723},"southwest":{"lat":43.32433427010728,"lng":5.440006020107279}}},"icon":"https://maps.gstatic.com/mapfiles/place_api/icons/v1/png_71/restaurant-71.png","icon_background_color":"#FF9E67","icon_mask_base_uri":"https://maps.gstatic.com/mapfiles/place_api/icons/v2/restaurant_pinlet","name":"Restaurant HY","opening_hours":{"open_now":false},"photos":[{"height":1125,"html_attributions":["<a href=\"https://maps.google.com/maps/contrib/105690460864003811030\">A Google User</a>"],"photo_reference":"AeJbb3frOdKIJPElIXp_okJodtYJ7I8NH31IdJrpb4rx0_7NHhUv1n7Ecr5A44bZYbLkLBVe-MLKoMzVJKqUPdCp09PYb1C2-cHGkYXTQJ4zvjLrvbJkDXPg6C3PQWSgIT69EHM6uR-ggzXmnnbYeZ7s9WE95Y6ucw_Z8svv_tfy-VLFow6b","width":1125}],"place_id":"ChIJb1jwAU6-yRIRQ3JZXoGTFus","plus_code":{"compound_code":"8CGR+8H Marseille","global_code":"8FM78CGR+8H"},"price_level":2,"rating":4.5,"reference":"ChIJb1jwAU6-yRIRQ3JZXoGTFus","types":["restaurant","food","point_of_interest","establishment"],"user_ratings_total":341},{"business_status":"OPERATIONAL","formatted_address":"134 Rue Paradis, 13006 Marseille","geometry":{"location":{"lat":43.2876406,"lng":5.379142400000001},"viewport":{"northeast":{"lat":43.28898987989272,"lng":5.380543779892721},"southwest":{"lat":43.28629022010728,"lng":5.377844120107278}}},"icon":"https://maps.gstatic.com/mapfiles/place_api/icons/v1/png_71/restaurant-71.png","icon_background_color":"#FF9E67","icon_mask_base_uri":"https://maps.gstatic.com/mapfiles/place_api/icons/v2/restaurant_pinlet","name":"L'Escapade Marseillaise","opening_hours":{"open_now":false},"photos":[{"height":2448,"html_attributions":["<a href=\"https://maps.google.com/maps/contrib/115362135439756570167\">L&#39;Escapade Marseillaise</a>"],"photo_reference":"AeJbb3cqz25DEHbNPSmnmB-_eLR9pySlgieAdIEycYVhg1cty3BnQMeePNYriHga5CkHcHjcloC_YD_n-cv3kbWROQy5wDw40pYl6ts8fcgIuWbuUbbvL_YehB7lBG2_kveKTtrrTk0JSe37sb2RKIYheyu_EGrVucnZElLEbRp_PDeUA31p","width":3264}],"place_id":"ChIJOXRtw8PAyRIRc3D7ZsXD8xM","plus_code":{"compound_code":"79QH+3M Marseille","global_code":"8FM779QH+3M"},"price_level":2,"rating":4.5,"reference":"ChIJOXRtw8PAyRIRc3D7ZsXD8xM","types":["restaurant","point_of_interest","food","establishment"],"user_ratings_total":247},{"business_status":"OPERATIONAL","formatted_address":"165 Cor Président John Fitzgerald Kennedy, 13007 Marseille","geometry":{"location":{"lat":43.2858679,"lng":5.350969399999999},"viewport":{"northeast":{"lat":43.28722132989272,"lng":5.352330079892721},"southwest":{"lat":43.28452167010727,"lng":5.349630420107277}}},"icon":"https://maps.gstatic.com/mapfiles/place_api/icons/v1/png_71/restaurant-71.png","icon_background_color":"#FF9E67","icon_mask_base_uri":"https://maps.gstatic.com/mapfiles/place_api/icons/v2/restaurant_pinlet","name":"TABI","opening_hours":{"open_now":false},"photos":[{"height":3024,"html_attributions":["<a href=\"https://maps.google.com/maps/contrib/109357780654281317421\">Samuel de Saint Laurent</a>"],"photo_reference":"AeJbb3fLjMGwJhkXlSncyyPAfn_rMLTTErewgqB6uGlkCe76rKLkgohh6Q18BweDWXghgWfktYAq9FMPe-h0k9b1rvNs3HunsO79zqKbakT0EPPZCn6an8G3Bc2T4iUNl2xnyOBhauAY45rFre5f8fUS9sP8EcHaCtTZn073E90q5yx_xYV3","width":4032}],"place_id":"ChIJKTaUye_ByRIR5bsyvzoW2dE","plus_code":{"compound_code":"79P2+8C Marseille","global_code":"8FM779P2+8C"},"price_level":4,"rating":4.5,"reference":"ChIJKTaUye_ByRIR5bsyvzoW2dE","types":["restaurant","food","point_of_interest","establishment"],"user_ratings_total":198},{"business_status":"OPERATIONAL","formatted_address":"3 Rue Alphonse Daudet, 13013 Marseille","geometry":{"location":{"lat":43.3178322,"lng":5.4060108},"viewport":{"northeast":{"lat":43.31918362989272,"lng":5.407333629892721},"southwest":{"lat":43.31648397010728,"lng":5.404633970107277}}},"icon":"https://maps.gstatic.com/mapfiles/place_api/icons/v1/png_71/restaurant-71.png","icon_background_color":"#FF9E67","icon_mask_base_uri":"https://maps.gstatic.com/mapfiles/place_api/icons/v2/restaurant_pinlet","name":"La Cuisine du Dôme","opening_hours":{"open_now":false},"photos":[{"height":480,"html_attributions":["<a href=\"https://maps.google.com/maps/contrib/108965115182212286269\">A Google User</a>"],"photo_reference":"AeJbb3fPtWwec7MfBbycxLJyWD8m5Z5SYpPwlEEvpzx3JPzkcHnCnJ92VBlphaWyWRFYvH1tlruUAO3-b8m37KFgniANPvcVr_gfWah1GEBIu2poYaCe5imQjuPkEfO9JjbH1-uHLtNHPneelKIbC4w-ENuHs_1Aqbr-KCiu9MiKJB71g7hd","width":320}],"place_id":"ChIJOc5-YZ2_yRIR6KxXAuJRuA8","plus_code":{"compound_code":"8C94+4C Marseille","global_code":"8FM78C94+4C"},"price_level":2,"rating":4.5,"reference":"ChIJOc5-YZ2_yRIR6KxXAuJRuA8","types":["restaurant","food","point_of_interest","establishment"],"user_ratings_total":127},{"business_status":"OPERATIONAL","formatted_address":"8 Rue Fort Notre Dame, 13007 Marseille","geometry":{"location":{"lat":43.2928801,"lng":5.3711236},"viewport":{"northeast":{"lat":43.29435237989271,"lng":5.372549529892722},"southwest":{"lat":43.29165272010727,"lng":5.369849870107278}}},"icon":"https://maps.gstatic.com/mapfiles/place_api/icons/v1/png_71/restaurant-71.png","icon_background_color":"#FF9E67","icon_mask_base_uri":"https://maps.gstatic.com/mapfiles/place_api/icons/v2/restaurant_pinlet","name":"La Table du Fort Restaurant Marseille Vieux-Port","opening_hours":{"open_now":false},"photos":[{"height":360,"html_attributions":["<a href=\"https://maps.google.com/maps/contrib/112738267002748652371\">A Google User</a>"],"photo_reference":"AeJbb3e1_XHQCHlcbRlYfcga5yPqYitpr0pMfUvMgRXiESJsqBwj7j5Q5BWPBK1IrCksArZG6oxUCmyv1dUpki3W-XPd_w-fwV0Ey6wTIY6niaN5mEHRML2hTXIR7fgTeOqJAAtHgrGEkJbBj7UEsTlVdmnP7h20i9Ig86noDqNSljqEw7tW","width":640}],"place_id":"ChIJ0T-2CcfAyRIRE37fIOKxq3s","plus_code":{"compound_code":"79VC+5C Marseille","global_code":"8FM779VC+5C"},"price_level":3,"rating":4.4,"reference":"ChIJ0T-2CcfAyRIRE37fIOKxq3s","types":["restaurant","food","point_of_interest","establishment"],"user_ratings_total":461},{"business_status":"OPERATIONAL","formatted_address":"63 Av. Robert Schuman, 13002 Marseille","geometry":{"location":{"lat":43.3043349,"lng":5.3667247},"viewport":{"northeast":{"lat":43.30566762989273,"lng":5.368198129892721},"southwest":{"lat":43.30296797010729,"lng":5.365498470107277}}},"icon":"https://maps.gstatic.com/mapfiles/place_api/icons/v1/png_71/restaurant-71.png","icon_background_color":"#FF9E67","icon_mask_base_uri":"https://maps.gstatic.com/mapfiles/place_api/icons/v2/restaurant_pinlet","name":"Un Petit Cabanon Bouillon","opening_hours":{"open_now":false},"photos":[{"height":1536,"html_attributions":["<a href=\"https://maps.google.com/maps/contrib/107535948402093152605\">A Google User</a>"],"photo_reference":"AeJbb3dE1VHYVit0xMnBO0R4e8TmDwpPw6gkw6Jg6Jk7xIQTjKUvIj-pjueOTMemQpmtfV0KIZ_9q6q0j9HhLtV0Gwin9IIs3iCUd7X9yf__x4bcQ_speqM1FiVHMjOxhye5Qvv9r3ulvE2Op4C_NMlBFQVW7-Al97vksugMtTffEaw61lPz","width":2048}],"place_id":"ChIJzbuMRunAyRIRo9Qd0dFpwxo","plus_code":{"compound_code":"8938+PM Marseille","global_code":"8FM78938+PM"},"price_level":2,"rating":4.4,"reference":"ChIJzbuMRunAyRIRo9Qd0dFpwxo","types":["restaurant","food","point_of_interest","establishment"],"user_ratings_total":456},{"business_status":"OPERATIONAL","formatted_address":"83 Bd du Redon, 13009 Marseille","geometry":{"location":{"lat":43.2530959,"lng":5.4226922},"viewport":{"northeast":{"lat":43.25419707989272,"lng":5.424314179892723},"southwest":{"lat":43.25149742010728,"lng":5.421614520107279}}},"icon":"https://maps.gstatic.com/mapfiles/place_api/icons/v1/png_71/restaurant-71.png","icon_background_color":"#FF9E67","icon_mask_base_uri":"https://maps.gstatic.com/mapfiles/place_api/icons/v2/restaurant_pinlet","name":"La Table du Chef - Restaurant Marseille","opening_hours":{"open_now":false},"photos":[{"height":3024,"html_attributions":["<a href=\"https://maps.google.com/maps/contrib/101952803982898998098\">La table du chef</a>"],"photo_reference":"AeJbb3fNTF0UbFwEY3k3wr7BKXRLoQ1JjwVPG6FwdHFEfxbelLYZSFkCiLPx9ZrzHrICDhQKp2EXO19bvPE5WyGjSnpsmEsx7Utkxk3uwgzyjd6YTh4x658c682JMONz0RqKD9i6QYnv1IZvsJbojKk5M_RlEd-FKRf4YYy81_44Vb7It2wI","width":4032}],"place_id":"ChIJm-6Xt-64yRIRr1zLpiA5NFQ","plus_code":{"compound_code":"7C3F+63 Marseille","global_code":"8FM77C3F+63"},"price_level":2,"rating":4.4,"reference":"ChIJm-6Xt-64yRIRr1zLpiA5NFQ","types":["restaurant","food","point_of_interest","establishment"],"user_ratings_total":232},{"business_status":"OPERATIONAL","formatted_address":"171 Rue de Rome, 13006 Marseille","geometry":{"location":{"lat":43.288165,"lng":5.3826337},"viewport":{"northeast":{"lat":43.28950357989272,"lng":5.38394427989272},"southwest":{"lat":43.28680392010727,"lng":5.381244620107276}}},"icon":"https://maps.gstatic.com/mapfiles/place_api/icons/v1/png_71/restaurant-71.png","icon_background_color":"#FF9E67","icon_mask_base_uri":"https://maps.gstatic.com/mapfiles/place_api/icons/v2/restaurant_pinlet","name":"Petit Amandier","opening_hours":{"open_now":false},"photos":[{"height":3544,"html_attributions":["<a href=\"https://maps.google.com/maps/contrib/101611047547933404252\">A Google User</a>"],"photo_reference":"AeJbb3fQbSf5lH2TpCQk6HMtxkMk9MWANdoBGr9VKHa7fuTnWgU45HDBcuXePU_Y9Sn_o92T3U_0YZyq4cLgBwbAO7f0lqFu8XpuucuBV6wRenTX-OM5z0gPd98Y55rt2nESgeh4KWnsfYZwGCfrhwpuXQo_Ql05-RCSejoz0Z9bwHWnPF0a","width":5356}],"place_id":"ChIJuWvWhUTByRIRc9rV8H19QbA","plus_code":{"compound_code":"79QM+73 Marseille","global_code":"8FM779QM+73"},"rating":4.4,"reference":"ChIJuWvWhUTByRIRc9rV8H19QbA","types":["bar","bakery","restaurant","point_of_interest","store","food","establishment"],"user_ratings_total":187},{"business_status":"OPERATIONAL","formatted_address":"360 Chem. de la Madrague-Ville, 13015 Marseille","geometry":{"location":{"lat":43.33684400000001,"lng":5.3628031},"viewport":{"northeast":{"lat":43.33820302989272,"lng":5.364202129892722},"southwest":{"lat":43.33550337010728,"lng":5.361502470107278}}},"icon":"https://maps.gstatic.com/mapfiles/place_api/icons/v1/png_71/restaurant-71.png","icon_background_color":"#FF9E67","icon_mask_base_uri":"https://maps.gstatic.com/mapfiles/place_api/icons/v2/restaurant_pinlet","name":"Restaurant O2Sens","opening_hours":{"open_now":false},"photos":[{"height":1564,"html_attributions":["<a href=\"https://maps.google.com/maps/contrib/105748694319488803323\">A Google User</a>"],"photo_reference":"AeJbb3cHmDTwSn0p7goGwpm6yfDFvP9RzyaBn9BPXCRw94j-lyJqnOtml9fX-oX20DGEvrCvu-T9hpt23pygxYmHScr0TYMipAzHTioS8eriUrL4LI6AX0vTma8HUK2gAKvDbcnj9F1vO_uzIQh4NqNOh1BlDWgnq4ir6ckiJ1_tgw8KJD7e","width":1564}],"place_id":"ChIJu-NdjknAyRIRy3tlCZ4U6bE","plus_code":{"compound_code":"89P7+P4 Marseille","global_code":"8FM789P7+P4"},"rating":4.4,"reference":"ChIJu-NdjknAyRIRy3tlCZ4U6bE","types":["restaurant","food","point_of_interest","establishment"],"user_ratings_total":23},{"business_status":"OPERATIONAL","formatted_address":"17 Rue des Braves Anse de Maldormé, Cor Président John Fitzgerald Kennedy, 13007 Marseille","geometry":{"location":{"lat":43.2800857,"lng":5.3521215},"viewport":{"northeast":{"lat":43.28174502989273,"lng":5.353675379892722},"southwest":{"lat":43.27904537010728,"lng":5.350975720107278}}},"icon":"https://maps.gstatic.com/mapfiles/place_api/icons/v1/png_71/lodging-71.png","icon_background_color":"#909CE1","icon_mask_base_uri":"https://maps.gstatic.com/mapfiles/place_api/icons/v2/hotel_pinlet","name":"Le Petit Nice Passedat","opening_hours":{"open_now":true},"photos":[{"height":1366,"html_attributions":["<a href=\"https://maps.google.com/maps/contrib/106889643003403763736\">Le Petit Nice Passédat</a>"],"photo_reference":"AeJbb3fq0t4_2LlbNpTyMwKZJ-r8eVnmob5HYvbh2eheFWjnKO428wa2pEQLwgvFagxBy31kmj6X8-4AbOecQOyn1XSaZmzvfFJ_ABwNq5u1my6ls4QUSgYX9gFZY06csQrYihBb-3Zr7OwhB4-rd-4cr_YCiBB6OhENFc8trxwdT6okepsP","width":2048}],"place_id":"ChIJ8aADZtXGyRIRIRQwQMBeREU","plus_code":{"compound_code":"79J2+2R Marseille","global_code":"8FM779J2+2R"},"rating":4.3,"reference":"ChIJ8aADZtXGyRIRIRQwQMBeREU","types":["restaurant","lodging","point_of_interest","food","establishment"],"user_ratings_total":728},{"business_status":"OPERATIONAL","formatted_address":"16 Av. de Mazargues, 13008 Marseille","geometry":{"location":{"lat":43.2695137,"lng":5.3879997},"viewport":{"northeast":{"lat":43.27087532989272,"lng":5.389405879892723},"southwest":{"lat":43.26817567010727,"lng":5.386706220107279}}},"icon":"https://maps.gstatic.com/mapfiles/place_api/icons/v1/png_71/restaurant-71.png","icon_background_color":"#FF9E67","icon_mask_base_uri":"https://maps.gstatic.com/mapfiles/place_api/icons/v2/restaurant_pinlet","name":"La Table du 8ème","opening_hours":{"open_now":false},"photos":[{"height":3456,"html_attributions":["<a href=\"https://maps.google.com/maps/contrib/107358315713757812721\">La Table du 8ème</a>"],"photo_reference":"AeJbb3cZhB0Mek6yv6C4jbA9R1A8Fw1rk3bCQ_X00fdT6uCRISmTAq8uMI-iSNe3h6RkrUqbhmgASLKphSwl6F0ve6HA-oncxyTKfKOC3FTHZ4zG9EY3xHLahmT92mkXAmvh8NoTnYpiuTil71M9dijAWA_gsAv8oMaUdRtS2F7c9IbzEoC5","width":5184}],"place_id":"ChIJRXxgEFrHyRIRW8bF90DCROg","plus_code":{"compound_code":"799Q+R5 Marseille","global_code":"8FM7799Q+R5"},"price_level":2,"rating":4.3,"reference":"ChIJRXxgEFrHyRIRW8bF90DCROg","types":["restaurant","point_of_interest","food","establishment"],"user_ratings_total":461},{"business_status":"OPERATIONAL","formatted_address":"280 Bd Michelet, 13008 Marseille","geometry":{"location":{"lat":43.262522,"lng":5.3962943},"viewport":{"northeast":{"lat":43.26394732989272,"lng":5.397826079892722},"southwest":{"lat":43.26124767010727,"lng":5.395126420107278}}},"icon":"https://maps.gstatic.com/mapfiles/place_api/icons/v1/png_71/restaurant-71.png","icon_background_color":"#FF9E67","icon_mask_base_uri":"https://maps.gstatic.com/mapfiles/place_api/icons/v2/restaurant_pinlet","name":"Le Ventre de l'Architecte","opening_hours":{"open_now":false},"photos":[{"height":2675,"html_attributions":["<a href=\"https://maps.google.com/maps/contrib/107266939047786973479\">Le Ventre de l&#39;Architecte</a>"],"photo_reference":"AeJbb3d9_ky7Dot18SKcRQWertilx52NDvfNzEN3q-2-biWjHY6eh4AQfVwNOyK-dTDb9mGOPTbIq5M2e-asluBsHbsB_y9Y0_OV1WJkWJXr0cG46gYrJujfESlk-iB818kEnfgGfHeVM1vDl9T-NxT_Bw2Ges95HUzuVIpux9o2FfDqp2Pj","width":4000}],"place_id":"ChIJgZ5VyaG4yRIRl4dYqwGAHaA","plus_code":{"compound_code":"797W+2G Marseille","global_code":"8FM7797W+2G"},"rating":4.3,"reference":"ChIJgZ5VyaG4yRIRl4dYqwGAHaA","types":["restaurant","food","point_of_interest","establishment"],"user_ratings_total":175},{"business_status":"OPERATIONAL","formatted_address":"4 Avenue Docteur Gérard Montus, 13620 Carry-le-Rouet","geometry":{"location":{"lat":43.3294799,"lng":5.154973699999999},"viewport":{"northeast":{"lat":43.33084552989272,"lng":5.156362079892722},"southwest":{"lat":43.32814587010728,"lng":5.153662420107278}}},"icon":"https://maps.gstatic.com/mapfiles/place_api/icons/v1/png_71/restaurant-71.png","icon_background_color":"#FF9E67","icon_mask_base_uri":"https://maps.gstatic.com/mapfiles/place_api/icons/v2/restaurant_pinlet","name":"La Villa Madrigal - Restaurant Carry-le-Rouet","opening_hours":{"open_now":false},"photos":[{"height":899,"html_attributions":["<a href=\"https://maps.google.com/maps/contrib/117472649528100371759\">Le Madrigal</a>"],"photo_reference":"AeJbb3e4-UiwU52uBu-4_EcK2hmjUN1SEYw-c9qXXSaLLomTgJwqlAtnNdahzeoIvUdtLGmQBkTNUKJ_DE9wEtiu6CCsIQc_ltWE524_iz4ttple23EU7TmoN9ucc5eNGBRJ1HatJmO5N7_eQtw_jdUskEz1HVmrTZzNA6e4Iu55PZK-GTWA","width":1348}],"place_id":"ChIJzXxwszLcyRIRtKRPtofuc_w","plus_code":{"compound_code":"85H3+QX Carry-le-Rouet","global_code":"8FM785H3+QX"},"price_level":3,"rating":4.1,"reference":"ChIJzXxwszLcyRIRtKRPtofuc_w","types":["parking","restaurant","point_of_interest","food","establishment"],"user_ratings_total":713},{"business_status":"OPERATIONAL","formatted_address":"200 Cor Président John Fitzgerald Kennedy, 13007 Marseille","geometry":{"location":{"lat":43.2686326,"lng":5.3690109},"viewport":{"northeast":{"lat":43.27004682989272,"lng":5.370345879892721},"southwest":{"lat":43.26734717010728,"lng":5.367646220107277}}},"icon":"https://maps.gstatic.com/mapfiles/place_api/icons/v1/png_71/restaurant-71.png","icon_background_color":"#FF9E67","icon_mask_base_uri":"https://maps.gstatic.com/mapfiles/place_api/icons/v2/restaurant_pinlet","name":"Restaurant Les Bains","opening_hours":{"open_now":false},"photos":[{"height":3738,"html_attributions":["<a href=\"https://maps.google.com/maps/contrib/116327963102808179318\">A Google User</a>"],"photo_reference":"AeJbb3fO7G82k0D4hZJufMKY39jsNJf3qvmzWS6wFRIAXrCY0t2Zv2mw3TzvlPdvtaW1tUh3h610X-9Kyfg1QgjhgYy5YVDJUulaulJbZAhA05ruCFNFqx1feW1WGfxlBslXiccaEPokogZJaOtlAJdsCkfIYU43QE_JJQDnYniGDT24yPP3","width":5600}],"place_id":"ChIJtepsV57HyRIRVA30eU039HI","plus_code":{"compound_code":"7999+FJ Marseille","global_code":"8FM77999+FJ"},"rating":4.1,"reference":"ChIJtepsV57HyRIRVA30eU039HI","types":["restaurant","food","point_of_interest","establishment"],"user_ratings_total":54},{"business_status":"OPERATIONAL","formatted_address":"3 Av. du Plan de Campagne, 13480 Cabriès","geometry":{"location":{"lat":43.4196619,"lng":5.3612676},"viewport":{"northeast":{"lat":43.42045317989272,"lng":5.362012329892721},"southwest":{"lat":43.41775352010728,"lng":5.359312670107277}}},"icon":"https://maps.gstatic.com/mapfiles/place_api/icons/v1/png_71/restaurant-71.png","icon_background_color":"#FF9E67","icon_mask_base_uri":"https://maps.gstatic.com/mapfiles/place_api/icons/v2/restaurant_pinlet","name":"La Brasserie","opening_hours":{"open_now":true},"photos":[{"height":2268,"html_attributions":["<a href=\"https://maps.google.com/maps/contrib/108470774195255321586\">A Google User</a>"],"photo_reference":"AeJbb3dYBAVPQ6534nh0_cJ18zvGJ2w1B8zVZndLxJbXBKZWic_t-H2ZFDxyvl43zqaUq6rjziuXzdX7wBFC44U9rZ-gQWbA_EDjCFkgB31NUzSvZTmtBGVf_cZWU_ugM6f5_D2wLmqQY580REGP4Tja7WjSwd0_bDCx0vaYHBO8vE7pPUTR","width":3095}],"place_id":"ChIJH5BddHLryRIRPalnycDIlxs","plus_code":{"compound_code":"C996+VG Cabriès","global_code":"8FM7C996+VG"},"price_level":2,"rating":4,"reference":"ChIJH5BddHLryRIRPalnycDIlxs","types":["restaurant","meal_takeaway","point_of_interest","food","establishment"],"user_ratings_total":504},{"business_status":"OPERATIONAL","formatted_address":"15 Rue des Trois Rois, 13006 Marseille","geometry":{"location":{"lat":43.29403920000001,"lng":5.384867499999999},"viewport":{"northeast":{"lat":43.29538017989272,"lng":5.386218479892722},"southwest":{"lat":43.29268052010728,"lng":5.383518820107278}}},"icon":"https://maps.gstatic.com/mapfiles/place_api/icons/v1/png_71/restaurant-71.png","icon_background_color":"#FF9E67","icon_mask_base_uri":"https://maps.gstatic.com/mapfiles/place_api/icons/v2/restaurant_pinlet","name":"Le Quinze","photos":[{"height":1200,"html_attributions":["<a href=\"https://maps.google.com/maps/contrib/114070758616830653796\">barbara nizza</a>"],"photo_reference":"AeJbb3cJtkRwBARHwobPD8k5fYrRDc1nptt_9ntslJDjDoLKH3n20NyGhLu_zBBJ8cWWzE4UX6XTFVExDQ8toMXfUY1OW-yAvtD-UP-8Q9JrOR1qWnKbPZcGSTpahQaVSqubC4nUV8WTx1zzgDn0mCYGnzcX2Gwakd_VPyA9e8rnUv24meCp","width":1600}],"place_id":"ChIJ6YIfmKTAyRIRmfdZ1opzxr4","plus_code":{"compound_code":"79VM+JW Marseille","global_code":"8FM779VM+JW"},"rating":3.8,"reference":"ChIJ6YIfmKTAyRIRmfdZ1opzxr4","types":["bar","restaurant","point_of_interest","food","establishment"],"user_ratings_total":167},{"business_status":"OPERATIONAL","formatted_address":"10 Rue des Pistoles, 13002 Marseille","geometry":{"location":{"lat":43.2995356,"lng":5.368017},"viewport":{"northeast":{"lat":43.30081117989273,"lng":5.369347779892721},"southwest":{"lat":43.29811152010728,"lng":5.366648120107278}}},"icon":"https://maps.gstatic.com/mapfiles/place_api/icons/v1/png_71/restaurant-71.png","icon_background_color":"#FF9E67","icon_mask_base_uri":"https://maps.gstatic.com/mapfiles/place_api/icons/v2/restaurant_pinlet","name":"Trattoria des Pistoles","opening_hours":{"open_now":true},"photos":[{"height":4032,"html_attributions":["<a href=\"https://maps.google.com/maps/contrib/117878922976910667678\">A Google User</a>"],"photo_reference":"AeJbb3cRtpdUYLM_jr9jJb0D3phzYZIC2R3PjzAFVnpCw_5ET3NePYIOdjSPmEInb5R9LZZwelVZwY6F4qY2H4qLzuDGp3f92y7PwZrjPGgvGEirb8avdCGyF_rqDdsxurTc-DahifLaxP_u3sit2uNg6VPPWAu91itJQvGOrX482RFcqevZ","width":3024}],"place_id":"ChIJ3TCtK7vByRIRj4qZ0YF4xe0","plus_code":{"compound_code":"79X9+R6 Marseille","global_code":"8FM779X9+R6"},"rating":3.7,"reference":"ChIJ3TCtK7vByRIRj4qZ0YF4xe0","types":["restaurant","point_of_interest","food","establishment"],"user_ratings_total":69},{"business_status":"OPERATIONAL","formatted_address":"74 Quai du Port, 13002 Marseille","geometry":{"location":{"lat":43.2961427,"lng":5.3692842},"viewport":{"northeast":{"lat":43.29744322989272,"lng":5.370640979892722},"southwest":{"lat":43.29474357010728,"lng":5.367941320107279}}},"icon":"https://maps.gstatic.com/mapfiles/place_api/icons/v1/png_71/restaurant-71.png","icon_background_color":"#FF9E67","icon_mask_base_uri":"https://maps.gstatic.com/mapfiles/place_api/icons/v2/restaurant_pinlet","name":"La Cuisine Au Beurre","opening_hours":{"open_now":true},"photos":[{"height":3120,"html_attributions":["<a href=\"https://maps.google.com/maps/contrib/115190235962000991469\">Hugo</a>"],"photo_reference":"AeJbb3ddLoc_3dOxOcfLdY3GUnKmjNRrl5urisHx4luGiLmbHBnRaYDDduPiXBwjgl0lWoL83LwsSONXmebLjBgAc1bBnM_SXX0lRKrjeWTw8AB4xtxQiP_QTO8FE2lBO0zaxBbjIX3VKN1cCmqZt7Cp4ZqMuPkIxf-mu9KfYwa5-hOmvHbX","width":4160}],"place_id":"ChIJ0f2QOcHAyRIRvelgk4Vslvg","plus_code":{"compound_code":"79W9+FP Marseille","global_code":"8FM779W9+FP"},"price_level":2,"rating":2.3,"reference":"ChIJ0f2QOcHAyRIRvelgk4Vslvg","types":["restaurant","bar","food","point_of_interest","establishment"],"user_ratings_total":1605},{"business_status":"OPERATIONAL","formatted_address":"78 Quai du Port, 13002 Marseille","geometry":{"location":{"lat":43.2961451,"lng":5.3691695},"viewport":{"northeast":{"lat":43.29743472989272,"lng":5.370527779892722},"southwest":{"lat":43.29473507010728,"lng":5.367828120107278}}},"icon":"https://maps.gstatic.com/mapfiles/place_api/icons/v1/png_71/restaurant-71.png","icon_background_color":"#FF9E67","icon_mask_base_uri":"https://maps.gstatic.com/mapfiles/place_api/icons/v2/restaurant_pinlet","name":"Restaurant La Cuisine au Beurre","photos":[{"height":4624,"html_attributions":["<a href=\"https://maps.google.com/maps/contrib/104033359959950098159\">lorenzo balbo</a>"],"photo_reference":"AeJbb3eYg4e8LzEpACfKD-Fbtdm1J4sSygmuhAXQaOMDXtwKtHr08Eg2pJgTqZPvqON52Dj1TYBP-Dz1rZyIAz64nqcGaH8IC_jM-qkLMwd4l3PT44QqiCDhm-gf_pV8hR5nzWTvwHwS-TTqIBnAzz79DX6qTHTZGnX2FMpOBd_0Hvfz9JP9","width":3472}],"place_id":"ChIJs-6PzfnByRIRnR-8uZ1uXIk","plus_code":{"compound_code":"79W9+FM Marseille","global_code":"8FM779W9+FM"},"rating":2,"reference":"ChIJs-6PzfnByRIRnR-8uZ1uXIk","types":["museum","restaurant","food","point_of_interest","establishment"],"user_ratings_total":38},{"business_status":"OPERATIONAL","formatted_address":"7 Pl. Saint-Victor, 13007 Marseille","geometry":{"location":{"lat":43.2907427,"lng":5.3663608},"viewport":{"northeast":{"lat":43.29205467989272,"lng":5.367765279892723},"southwest":{"lat":43.28935502010728,"lng":5.365065620107279}}},"icon":"https://maps.gstatic.com/mapfiles/place_api/icons/v1/png_71/restaurant-71.png","icon_background_color":"#FF9E67","icon_mask_base_uri":"https://maps.gstatic.com/mapfiles/place_api/icons/v2/restaurant_pinlet","name":"La savonnerie restaurant la table de Jérôme caprin","opening_hours":{"open_now":false},"place_id":"ChIJvfxmtMfByRIRmtQ8Gi1B8iU","plus_code":{"compound_code":"79R8+7G Marseille","global_code":"8FM779R8+7G"},"rating":0,"reference":"ChIJvfxmtMfByRIRmtQ8Gi1B8iU","types":["restaurant","point_of_interest","food","establishment"],"user_ratings_total":0}]