[{"business_status":"OPERATIONAL","formatted_address":"18 Rue Saint-Pierre, 13006 Marseille","geometry":{"location":{"lat":43.2935327,"lng":5.3878694},"viewport":{"northeast":{"lat":43.29490702989272,"lng":5.389234379892722},"southwest":{"lat":43.29220737010728,"lng":5.386534720107278}}},"icon":"https://maps.gstatic.com/mapfiles/place_api/icons/v1/png_71/restaurant-71.png","icon_background_color":"#FF9E67","icon_mask_base_uri":"https://maps.gstatic.com/mapfiles/place_api/icons/v2/restaurant_pinlet","name":"Oumalala","opening_hours":{"open_now":false},"photos":[{"height":1080,"html_attributions":["<a href=\"https://maps.google.com/maps/contrib/116239866780457525095\">A Google User</a>"],"photo_reference":"AeJbb3fv8cS1yt-W41kl6yjtjoTEntlCJzuw5HBTlnJz6QEXSDjzSm6DJ0hJ77lQT1YpvV1t9RQO2vNRf0yx2E1InDIs-n4aKutH-l8aG-SKt-kRnZMchPw_MDjKd45lGHz_CI8p239nM25bD2z2BLR2MYt5w-ASG-fQbSPCU32P1RpADI0W","width":1080}],"place_id":"ChIJIxK5YD3ByRIRfntHBPf0bUg","plus_code":{"compound_code":"79VQ+C4 Marseille","global_code":"8FM779VQ+C4"},"rating":5,"reference":"ChIJIxK5YD3ByRIRfntHBPf0bUg","types":["restaurant","food","point_of_interest","establishment"],"user_ratings_total":78},{"business_status":"OPERATIONAL","formatted_address":"15 Rue de l'Évêché, 13002 Marseille","geometry":{"location":{"lat":43.2982067,"lng":5.3658425},"viewport":{"northeast":{"lat":43.29954767989272,"lng":5.367236479892721},"southwest":{"lat":43.29684802010728,"lng":5.364536820107277}}},"icon":"https://maps.gstatic.com/mapfiles/place_api/icons/v1/png_71/restaurant-71.png","icon_background_color":"#FF9E67","icon_mask_base_uri":"https://maps.gstatic.com/mapfiles/place_api/icons/v2/restaurant_pinlet","name":"Hododa","opening_hours":{"open_now":true},"photos":[{"height":1600,"html_attributions":["<a href=\"https://maps.google.com/maps/contrib/100425906059351814908\">A Google User</a>"],"photo_reference":"AeJbb3fCjBCABqpLTfrKq2vj_9tY5cwQkp7dkTWSng6bBpcyzx9sTpPbG5NV-oU2gdirf2_r3ZqjvuE6yclqmUXO8s5kSkxGNiGjoKrW_QuLt4WU7XT8vM-bxRXk70gDzRSyr9P0sGKAOvpackmZAGPzYIWqUx6gZMMlpEFYh0Q6AQgCogkd","width":1143}],"place_id":"ChIJrxY1va_ByRIRG73_eME_5OM","plus_code":{"compound_code":"79X8+78 Marseille","global_code":"8FM779X8+78"},"rating":5,"reference":"ChIJrxY1va_ByRIRG73_eME_5OM","types":["restaurant","food","point_of_interest","establishment"],"user_ratings_total":18},{"business_status":"OPERATIONAL","formatted_address":"11 Av. du Maréchal Foch, 13004 Marseille","geometry":{"location":{"lat":43.30206,"lng":5.3978511},"viewport":{"northeast":{"lat":43.30337807989272,"lng":5.399162379892721},"southwest":{"lat":43.30067842010728,"lng":5.396462720107277}}},"icon":"https://maps.gstatic.com/mapfiles/place_api/icons/v1/png_71/restaurant-71.png","icon_background_color":"#FF9E67","icon_mask_base_uri":"https://maps.gstatic.com/mapfiles/place_api/icons/v2/restaurant_pinlet","name":"C’est Bon Restaurant Méditerranéen Végétarien","opening_hours":{"open_now":false},"photos":[{"height":2268,"html_attributions":["<a href=\"https://maps.google.com/maps/contrib/115662605420068813126\">Djami Chaki</a>"],"photo_reference":"AeJbb3fASNYFTzYu3LnmKpgfr_X_NPnfTCd9HS7P5RqwngOLfcWXHe2gh0LwqAQpBnkHQq_4KN0Nz4SD9_WitJu9yVjuYBH4uzxqcdP4qGDHPSzvPLmKOJGPTb7GXIq_c43_1E-sdyqHXoaWCa6fjOFfmzHOzM-eIlcY2vZf8otZMxo6V1PH","width":4032}],"place_id":"ChIJScp9n1i_yRIRaOaCyqB6cvE","plus_code":{"compound_code":"892X+R4 Marseille","global_code":"8FM7892X+R4"},"rating":4.9,"reference":"ChIJScp9n1i_yRIRaOaCyqB6cvE","types":["restaurant","food","point_of_interest","establishment"],"user_ratings_total":254},{"business_status":"OPERATIONAL","formatted_address":"186 Bd Baille, 13005 Marseille","geometry":{"location":{"lat":43.2886259,"lng":5.394778899999999},"viewport":{"northeast":{"lat":43.29008597989272,"lng":5.396073029892722},"southwest":{"lat":43.28738632010727,"lng":5.393373370107278}}},"icon":"https://maps.gstatic.com/mapfiles/place_api/icons/v1/png_71/restaurant-71.png","icon_background_color":"#FF9E67","icon_mask_base_uri":"https://maps.gstatic.com/mapfiles/place_api/icons/v2/restaurant_pinlet","name":"HAILO - Vegan Street Food","opening_hours":{"open_now":false},"photos":[{"height":3072,"html_attributions":["<a href=\"https://maps.google.com/maps/contrib/105108725370021578193\">A Google User</a>"],"photo_reference":"AeJbb3d6p64fw2JJy2n3DOt5rnM59E1qZ9ZGhwnGNz1STapEeKS5_Fxbl44yRwmU1I47RmSTwz_o4kirD1qycUkwaNKrXyW53hb1yOP9HX_tmuTzjGdOe4mmMtoVYOda6kYcjb-1UIQh9Y06KOEIzjgy5mODhfuzvs2WrPor55CujCnBO9I","width":3072}],"place_id":"ChIJxVjqpzK_yRIRggx4t8b_3s8","plus_code":{"compound_code":"79QV+FW Marseille","global_code":"8FM779QV+FW"},"rating":4.9,"reference":"ChIJxVjqpzK_yRIRggx4t8b_3s8","types":["restaurant","food","point_of_interest","establishment"],"user_ratings_total":75},{"business_status":"OPERATIONAL","formatted_address":"167 Cr Lieutaud, 13006 Marseille","geometry":{"location":{"lat":43.28674030000001,"lng":5.3855506},"viewport":{"northeast":{"lat":43.28806027989273,"lng":5.386814879892722},"southwest":{"lat":43.28536062010728,"lng":5.384115220107279}}},"icon":"https://maps.gstatic.com/mapfiles/place_api/icons/v1/png_71/restaurant-71.png","icon_background_color":"#FF9E67","icon_mask_base_uri":"https://maps.gstatic.com/mapfiles/place_api/icons/v2/restaurant_pinlet","name":"LE GATSBY","opening_hours":{"open_now":false},"photos":[{"height":4624,"html_attributions":["<a href=\"https://maps.google.com/maps/contrib/115277909216402043770\">Eli Ma</a>"],"photo_reference":"AeJbb3cw9TBm8FKGJEEutKXJN61jhGeacudluwfXHMkNbYJ6kB2O1erQhkFJH1YDjqsmkpgoeV1JUEYtNn7WYAGsvoYzP1rApzW_Bg-cjYE1lK0bG-HWXF9gON1-7HJ44VG-0vii1PboEKkR1z55UUUHjUbf427-06dw0qPqAY4mr2ngGk5z","width":3468}],"place_id":"ChIJSZpvW1zByRIR4aeDNEXBajI","plus_code":{"compound_code":"79PP+M6 Marseille","global_code":"8FM779PP+M6"},"rating":4.9,"reference":"ChIJSZpvW1zByRIR4aeDNEXBajI","types":["restaurant","liquor_store","bar","store","food","point_of_interest","establishment"],"user_ratings_total":62},{"business_status":"OPERATIONAL","formatted_address":"60 Rue 3 Frères Barthélémy, 13006 Marseille","geometry":{"location":{"lat":43.293364,"lng":5.386800000000001},"viewport":{"northeast":{"lat":43.29478172989272,"lng":5.388110629892722},"southwest":{"lat":43.29208207010728,"lng":5.385410970107278}}},"icon":"https://maps.gstatic.com/mapfiles/place_api/icons/v1/png_71/restaurant-71.png","icon_background_color":"#FF9E67","icon_mask_base_uri":"https://maps.gstatic.com/mapfiles/place_api/icons/v2/restaurant_pinlet","name":"Coco&Nuts Concept Store","opening_hours":{"open_now":true},"photos":[{"height":4032,"html_attributions":["<a href=\"https://maps.google.com/maps/contrib/106300560058542948790\">A Google User</a>"],"photo_reference":"AeJbb3cZ7xyqmc4xNsA_HbSZKW56qBCihH5-7hpNJTZSrooqAkCPLp9sOEI3z58MyG4PO5I6iI-LmUPfKjcz_oiV7wSyRjQPq_SsNcLVAKOXuoBbAhKsO83Jc2yTqX5BgqJ-ZXA5x70WVV7X_uDiHJX-Tb1rOGtLozHjOUUCW2_9MSTiDpDW","width":3024}],"place_id":"ChIJNXAu2mTByRIRpL57P-wLjw0","plus_code":{"compound_code":"79VP+8P Marseille","global_code":"8FM779VP+8P"},"rating":4.9,"reference":"ChIJNXAu2mTByRIRpL57P-wLjw0","types":["cafe","grocery_or_supermarket","restaurant","food","point_of_interest","store","establishment"],"user_ratings_total":61},{"business_status":"OPERATIONAL","formatted_address":"25 Rue Saint-Saëns, 13001 Marseille","geometry":{"location":{"lat":43.2932415,"lng":5.3733856},"viewport":{"northeast":{"lat":43.29465027989272,"lng":5.374567679892722},"southwest":{"lat":43.29195062010728,"lng":5.371868020107278}}},"icon":"https://maps.gstatic.com/mapfiles/place_api/icons/v1/png_71/restaurant-71.png","icon_background_color":"#FF9E67","icon_mask_base_uri":"https://maps.gstatic.com/mapfiles/place_api/icons/v2/restaurant_pinlet","name":"La Cantine du Cru","opening_hours":{"open_now":false},"photos":[{"height":978,"html_attributions":["<a href=\"https://maps.google.com/maps/contrib/115784173618874390767\">A Google User</a>"],"photo_reference":"AeJbb3d5eAPDhwOrLn6GdWfL_YdvqE67_u65oTsXoO5Pfs4F6eM0JGGds81kssa9jlz9CfqKnJ-D6fAmMkRmkNrapkScclhKa7BOD_8QIEqhHFI_9XrPUa4LcRDI8QkSas40QUQ2S_DGe0is4Yk3uUzcADJeAqSi1AFh_w1PMcP_P2UKK128","width":739}],"place_id":"ChIJ3Z_37AHByRIRuySSYHbD2GI","plus_code":{"compound_code":"79VF+79 Marseille","global_code":"8FM779VF+79"},"rating":4.9,"reference":"ChIJ3Z_37AHByRIRuySSYHbD2GI","types":["restaurant","food","point_of_interest","establishment"],"user_ratings_total":52},{"business_status":"OPERATIONAL","formatted_address":"143 Av. de la Viste, 13015 Marseille","geometry":{"location":{"lat":43.3614328,"lng":5.357217299999999},"viewport":{"northeast":{"lat":43.36278807989272,"lng":5.358652079892721},"southwest":{"lat":43.36008842010728,"lng":5.355952420107277}}},"icon":"https://maps.gstatic.com/mapfiles/place_api/icons/v1/png_71/restaurant-71.png","icon_background_color":"#FF9E67","icon_mask_base_uri":"https://maps.gstatic.com/mapfiles/place_api/icons/v2/restaurant_pinlet","name":"Delice Cigkofte","opening_hours":{"open_now":true},"photos":[{"height":4000,"html_attributions":["<a href=\"https://maps.google.com/maps/contrib/100142709715052928368\">A Google User</a>"],"photo_reference":"AeJbb3dxITjG8NimC8hQxXE9kS94aL_fWJZNOMf6xLWRtbOsmHqtT9158EOE8xb5HahOHPBqNX5JpJn53xZ9HQTbac1ROT7Iq7P8cSH_0b2fvgs_6EcJGOq8EWknCYfYPVTpTUi-MGj2d9s6H16291Sp75awDi1XUC9V1kI4vpDNLb2FBnwo","width":3000}],"place_id":"ChIJoSxefYHqyRIR5YmOLPcoWHE","plus_code":{"compound_code":"9964+HV Marseille","global_code":"8FM79964+HV"},"rating":4.9,"reference":"ChIJoSxefYHqyRIR5YmOLPcoWHE","types":["restaurant","food","point_of_interest","establishment"],"user_ratings_total":27},{"business_status":"OPERATIONAL","formatted_address":"22 Bd Louis Salvator, 13006 Marseille","geometry":{"location":{"lat":43.2910105,"lng":5.3823406},"viewport":{"northeast":{"lat":43.29240022989272,"lng":5.383681279892722},"southwest":{"lat":43.28970057010728,"lng":5.380981620107278}}},"icon":"https://maps.gstatic.com/mapfiles/place_api/icons/v1/png_71/restaurant-71.png","icon_background_color":"#FF9E67","icon_mask_base_uri":"https://maps.gstatic.com/mapfiles/place_api/icons/v2/restaurant_pinlet","name":"Green Love","opening_hours":{"open_now":false},"photos":[{"height":1186,"html_attributions":["<a href=\"https://maps.google.com/maps/contrib/101802192656747904186\">A Google User</a>"],"photo_reference":"AeJbb3dUtbaaUmTdMNirg7nMeuqVEIVp1UP5GalyQrSx8iRIUEjwSYSTIj1if4wH5xIsz4maubxE4KC0lakla-V-U-_1aTHevRW_kN4AzmQ3WLAP3RTjj24VSyfw5HXgs7TN2bO_8GK6Uiget2IPvFLwsur_ZouuF-R3ppvp_rwU0ODlD-0-","width":1186}],"place_id":"ChIJc7r5vrrAyRIR43r7kPWrr-Y","plus_code":{"compound_code":"79RJ+9W Marseille","global_code":"8FM779RJ+9W"},"price_level":2,"rating":4.8,"reference":"ChIJc7r5vrrAyRIR43r7kPWrr-Y","types":["bakery","cafe","restaurant","food","point_of_interest","store","establishment"],"user_ratings_total":479},{"business_status":"OPERATIONAL","formatted_address":"35 Rue Sainte, 13001 Marseille","geometry":{"location":{"lat":43.2923467,"lng":5.375204999999999},"viewport":{"northeast":{"lat":43.29376012989272,"lng":5.376544929892722},"southwest":{"lat":43.29106047010728,"lng":5.373845270107278}}},"icon":"https://maps.gstatic.com/mapfiles/place_api/icons/v1/png_71/restaurant-71.png","icon_background_color":"#FF9E67","icon_mask_base_uri":"https://maps.gstatic.com/mapfiles/place_api/icons/v2/restaurant_pinlet","name":"Ca Phe S - Vietnamese Coffee","opening_hours":{"open_now":true},"photos":[{"height":3456,"html_attributions":["<a href=\"https://maps.google.com/maps/contrib/115051570263131211085\">Hakim Louati</a>"],"photo_reference":"AeJbb3dpx_MbcyFbX3PDdUex9aOVhafhvToXqucr4c0NAt-pIcH6T0OOUc6zWYfwTNftSzb1le-43Q89A6Fwd_Yy3Ll0eNpRS6ETpavrm4YkANGk17L2gLlRhWKvI4omvVD9NnGdFUdsEqIuLHq-Bo3Iv9x4W8eFrtKjakej8h74XCgwYV86","width":4608}],"place_id":"ChIJ2dIaY_rByRIRWYEc29VLIx4","plus_code":{"compound_code":"79RG+W3 Marseille","global_code":"8FM779RG+W3"},"rating":4.8,"reference":"ChIJ2dIaY_rByRIRWYEc29VLIx4","types":["restaurant","food","point_of_interest","establishment"],"user_ratings_total":214},{"business_status":"OPERATIONAL","formatted_address":"1 Rue Saint-Thomé, 13002 Marseille","geometry":{"location":{"lat":43.2971764,"lng":5.365468400000001},"viewport":{"northeast":{"lat":43.29858322989272,"lng":5.366820479892723},"southwest":{"lat":43.29588357010728,"lng":5.364120820107279}}},"icon":"https://maps.gstatic.com/mapfiles/place_api/icons/v1/png_71/restaurant-71.png","icon_background_color":"#FF9E67","icon_mask_base_uri":"https://maps.gstatic.com/mapfiles/place_api/icons/v2/restaurant_pinlet","name":"Oh Pita !","opening_hours":{"open_now":false},"photos":[{"height":3456,"html_attributions":["<a href=\"https://maps.google.com/maps/contrib/101574390689683937731\">A Google User</a>"],"photo_reference":"AeJbb3f9lITOaaLoUZ8DMZvTCwNV2oHwAqgjmLoXQ5mzoupOFrpWSROaY7EcpJonw0rFAFnnp2LROp2cckIXrTr5YuiRGmo5WlpAp7kijI3adWDmrwyum5t3gDJIwYgEC2Hup0qal63hN_G1wpGjtSQTsanreb0z_cIuWn6qLmVU0vZ-QmBB","width":4608}],"place_id":"ChIJR-mGpsPAyRIRSzirdjaAFMw","plus_code":{"compound_code":"79W8+V5 Marseille","global_code":"8FM779W8+V5"},"rating":4.8,"reference":"ChIJR-mGpsPAyRIRSzirdjaAFMw","types":["restaurant","food","point_of_interest","establishment"],"user_ratings_total":59},{"business_status":"OPERATIONAL","formatted_address":"5095F Trav. de la Bastidonne, 13400 Aubagne","geometry":{"location":{"lat":43.2873457,"lng":5.5258175},"viewport":{"northeast":{"lat":43.28864002989272,"lng":5.527106829892722},"southwest":{"lat":43.28594037010728,"lng":5.524407170107278}}},"icon":"https://maps.gstatic.com/mapfiles/place_api/icons/v1/png_71/restaurant-71.png","icon_background_color":"#FF9E67","icon_mask_base_uri":"https://maps.gstatic.com/mapfiles/place_api/icons/v2/restaurant_pinlet","name":"Kitchen Raw","photos":[{"height":3024,"html_attributions":["<a href=\"https://maps.google.com/maps/contrib/115506198747117807008\">Caroline Z</a>"],"photo_reference":"AeJbb3djfmlYJ7iuwi0vcfxNjRakLG8SzvPemBEL0DVxvPYiJn3OX4fdh1HX3wUZBHx9SR-UQS_eoAHZFgGPiULk2xVZrT-N8w3tXZKMa0ud02P0PsjdtKpgi0aT_0-YicEcKg_kFxQqdls7hUTVpZm73af32f4zzpDlS_rrthS2Ub3HjZ_d","width":4032}],"place_id":"ChIJ9a3ZpI68yRIRMjfiLoEXUJ8","plus_code":{"compound_code":"7GPG+W8 Aubagne","global_code":"8FM77GPG+W8"},"rating":4.8,"reference":"ChIJ9a3ZpI68yRIRMjfiLoEXUJ8","types":["restaurant","food","point_of_interest","establishment"],"user_ratings_total":4},{"business_status":"OPERATIONAL","formatted_address":"14 Bis Rue Henri Fiocca, 13001 Marseille","geometry":{"location":{"lat":43.29780119999999,"lng":5.3732279},"viewport":{"northeast":{"lat":43.29912922989272,"lng":5.374576729892721},"southwest":{"lat":43.29642957010728,"lng":5.371877070107277}}},"icon":"https://maps.gstatic.com/mapfiles/place_api/icons/v1/png_71/restaurant-71.png","icon_background_color":"#FF9E67","icon_mask_base_uri":"https://maps.gstatic.com/mapfiles/place_api/icons/v2/restaurant_pinlet","name":"Twist Avenue","opening_hours":{"open_now":true},"photos":[{"height":2304,"html_attributions":["<a href=\"https://maps.google.com/maps/contrib/102453972217605596274\">A Google User</a>"],"photo_reference":"AeJbb3dVfbZoqmPgwV9ZIeVYFiNHUmOIxUptZfGMo5AMIb7lf4Qu15avoH32S0oow9x_Z_MDdO_ZAk15dngMQHETyZp2Mki_2X8hIIlsGnkHzdykQssltUNruLTRwNZsSIis-a9r6FNa9fcvruXQR4AG3UkKvhpPSVF1T0j9qU5gEfQ8Nsop","width":2880}],"place_id":"ChIJz20Fgb_AyRIR8lJskPqG4Dw","plus_code":{"compound_code":"79XF+47 Marseille","global_code":"8FM779XF+47"},"price_level":2,"rating":4.7,"reference":"ChIJz20Fgb_AyRIR8lJskPqG4Dw","types":["restaurant","food","point_of_interest","establishment"],"user_ratings_total":633},{"business_status":"OPERATIONAL","formatted_address":"8 Rue de la Guirlande, 13002 Marseille","geometry":{"location":{"lat":43.2967907,"lng":5.3704969},"viewport":{"northeast":{"lat":43.29810002989272,"lng":5.371868479892721},"southwest":{"lat":43.29540037010727,"lng":5.369168820107277}}},"icon":"https://maps.gstatic.com/mapfiles/place_api/icons/v1/png_71/restaurant-71.png","icon_background_color":"#FF9E67","icon_mask_base_uri":"https://maps.gstatic.com/mapfiles/place_api/icons/v2/restaurant_pinlet","name":"Wood la cantine gourmande","opening_hours":{"open_now":false},"photos":[{"height":3264,"html_attributions":["<a href=\"https://maps.google.com/maps/contrib/111361295037672488892\">Raveau Damien</a>"],"photo_reference":"AeJbb3cuiP0OpNZVSBNvAIeB9DPQBnBEeXxv6gi3ZoWuQbYyRG_7YM9IBixEmgRpBPe_JBQktwL72SxHiZRwaqi2UU4DMsG7OF7i4HqUBMxosJHB1iFraIsUJzoeVLrlxBxCrcXCx41JwHXqfoU77eyll8sS9l8uf_uidHdx5EisXRYudYkD","width":4728}],"place_id":"ChIJyWLz4cDAyRIRsi2yWW11ET4","plus_code":{"compound_code":"79WC+P5 Marseille","global_code":"8FM779WC+P5"},"rating":4.7,"reference":"ChIJyWLz4cDAyRIRsi2yWW11ET4","types":["restaurant","food","point_of_interest","establishment"],"user_ratings_total":309},{"business_status":"OPERATIONAL","formatted_address":"8 Pl. Notre Dame du Mont, 13006 Marseille","geometry":{"location":{"lat":43.2920183,"lng":5.383628799999999},"viewport":{"northeast":{"lat":43.29343752989273,"lng":5.385060629892721},"southwest":{"lat":43.29073787010728,"lng":5.382360970107277}}},"icon":"https://maps.gstatic.com/mapfiles/place_api/icons/v1/png_71/restaurant-71.png","icon_background_color":"#FF9E67","icon_mask_base_uri":"https://maps.gstatic.com/mapfiles/place_api/icons/v2/restaurant_pinlet","name":"La Baie du Dragon","opening_hours":{"open_now":false},"photos":[{"height":3000,"html_attributions":["<a href=\"https://maps.google.com/maps/contrib/112737882829835348138\">VAN AN NGUYEN</a>"],"photo_reference":"AeJbb3dj-EGxmADeICbEb2KMrBCQ1xzAuB17QD5otidxD7AZqnqH4WuDKpJgcOMCJIc20HKN2FlkMVG_lRVVAFL7_qUnjLQPq2WjhacGPdefoy121dz6Z-VDGgQMCGBEFyOVtHY1IYtQVnEUk2oQ2KyREsg830kfz_A5Y6cGU0iYZme4rUxL","width":5333}],"place_id":"ChIJCSKvK6XAyRIRU3encLOitCc","plus_code":{"compound_code":"79RM+RF Marseille","global_code":"8FM779RM+RF"},"price_level":2,"rating":4.7,"reference":"ChIJCSKvK6XAyRIRU3encLOitCc","types":["bar","restaurant","food","point_of_interest","establishment"],"user_ratings_total":300},{"business_status":"OPERATIONAL","formatted_address":"24 Rue de l'Arène, 13260 Cassis","geometry":{"location":{"lat":43.2136495,"lng":5.5403382},"viewport":{"northeast":{"lat":43.21503637989272,"lng":5.541739479892723},"southwest":{"lat":43.21233672010727,"lng":5.539039820107279}}},"icon":"https://maps.gstatic.com/mapfiles/place_api/icons/v1/png_71/restaurant-71.png","icon_background_color":"#FF9E67","icon_mask_base_uri":"https://maps.gstatic.com/mapfiles/place_api/icons/v2/restaurant_pinlet","name":"L'atelier Gastronomique","opening_hours":{"open_now":false},"photos":[{"height":3779,"html_attributions":["<a href=\"https://maps.google.com/maps/contrib/112125057148794059210\">L&#39;atelier Gastronomique</a>"],"photo_reference":"AeJbb3e6z70_cmgiYYkHrgJXYG1mTNVEY609QbkBZIEXzedfVYKehYhYwJf7WfpC4RRQnCxaguPNoqUNRMcK7nZWMOxr1dwS839YNYWSc6pwHxS4FJaq1LCF14kVPbRL2VNqCwQXGNPMxkh9pvsLGGPYS0MSNQIJgUZHYllr-YoXdTqYS58d","width":3024}],"place_id":"ChIJVa7GX5W6yRIRf1aCE_kaMgk","plus_code":{"compound_code":"6G7R+F4 Cassis","global_code":"8FM76G7R+F4"},"rating":4.7,"reference":"ChIJVa7GX5W6yRIRf1aCE_kaMgk","types":["restaurant","meal_takeaway","grocery_or_supermarket","store","food","point_of_interest","establishment"],"user_ratings_total":262},{"business_status":"CLOSED_TEMPORARILY","formatted_address":"99 Rue du Rouet, 13008 Marseille","geometry":{"location":{"lat":43.280525,"lng":5.389952999999999},"viewport":{"northeast":{"lat":43.28183702989272,"lng":5.391248629892722},"southwest":{"lat":43.27913737010728,"lng":5.388548970107278}}},"icon":"https://maps.gstatic.com/mapfiles/place_api/icons/v1/png_71/restaurant-71.png","icon_background_color":"#FF9E67","icon_mask_base_uri":"https://maps.gstatic.com/mapfiles/place_api/icons/v2/restaurant_pinlet","name":"Le Balagan","permanently_closed":true,"photos":[{"height":3824,"html_attributions":["<a href=\"https://maps.google.com/maps/contrib/105574431106874876772\">Zoltán Tóth-Czifra</a>"],"photo_reference":"AeJbb3fvj9W3-fLxLO33ytCkAvS0ZkEGsQZV7GCxVtkJXc_ejeZu4mmG5yxA7vzUuiI7ZqM-kGl5Bph05iztvcZ0VhAkEn8gJFkBp5CS9wF4c88HUno-TfKRCok455xvhB6Q-cHZb4qWSJXnHtuA5VSif1Onfxc9R7DLLHx_0Zf4LrRbYWfD","width":2168}],"place_id":"ChIJg3R4SKvAyRIRec5iJt-n5g8","plus_code":{"compound_code":"79JQ+6X Marseille","global_code":"8FM779JQ+6X"},"price_level":2,"rating":4.7,"reference":"ChIJg3R4SKvAyRIRec5iJt-n5g8","types":["restaurant","food","point_of_interest","establishment"],"user_ratings_total":119},{"business_status":"OPERATIONAL","formatted_address":"49 A Rue 3 Frères Barthélémy, 13006 Marseille","geometry":{"location":{"lat":43.2935078,"lng":5.3864516},"viewport":{"northeast":{"lat":43.29485472989273,"lng":5.387796179892723},"southwest":{"lat":43.29215507010728,"lng":5.385096520107279}}},"icon":"https://maps.gstatic.com/mapfiles/place_api/icons/v1/png_71/restaurant-71.png","icon_background_color":"#FF9E67","icon_mask_base_uri":"https://maps.gstatic.com/mapfiles/place_api/icons/v2/restaurant_pinlet","name":"La Table à l'Envers","opening_hours":{"open_now":false},"photos":[{"height":768,"html_attributions":["<a href=\"https://maps.google.com/maps/contrib/110651895299792468377\">A Google User</a>"],"photo_reference":"AeJbb3fDVqL76FzrPno6V1wAz2TPffR6ZhfFzm7Ex6Exuyu3Fhi2y1R_6GILsCJdh5xDvkIjy7ISjG6q0pRssxhUig64azOOyBkur2KxC9ipPuH-QD0HINHHMTefLu0TQK2GShYqRgdRgQUVOFG8te3BkQftH2Vtx4RhvDgxGu5tO1DRG5xX","width":1024}],"place_id":"ChIJf_YgB67ByRIRGKn61WbpeSc","plus_code":{"compound_code":"79VP+CH Marseille","global_code":"8FM779VP+CH"},"rating":4.7,"reference":"ChIJf_YgB67ByRIRGKn61WbpeSc","types":["restaurant","food","point_of_interest","establishment"],"user_ratings_total":86},{"business_status":"OPERATIONAL","formatted_address":"8 Rue Saint-Saëns, 13001 Marseille","geometry":{"location":{"lat":43.2940596,"lng":5.3759763},"viewport":{"northeast":{"lat":43.29538577989272,"lng":5.377589829892722},"southwest":{"lat":43.29268612010728,"lng":5.374890170107278}}},"icon":"https://maps.gstatic.com/mapfiles/place_api/icons/v1/png_71/restaurant-71.png","icon_background_color":"#FF9E67","icon_mask_base_uri":"https://maps.gstatic.com/mapfiles/place_api/icons/v2/restaurant_pinlet","name":"POKAWA Poké bowls","opening_hours":{"open_now":true},"photos":[{"height":2736,"html_attributions":["<a href=\"https://maps.google.com/maps/contrib/103294915322596439587\">Bertrand Guillou</a>"],"photo_reference":"AeJbb3dek9F093w0RlDGMzr4nFohukPW2lTPm3yj83pNqapUm9VE9mNDiFQPjWVkHPdlnT3o_droiodtQFNrBwTuRvKEQ6KC333In8pGGGXfz3ttTvYc-qdPFHpOMblwltZ0GQh3hBpZWvPmhKX4cqqbaeIs56JLhjKbR8-ZP8BbEvfHDrXa","width":3648}],"place_id":"ChIJ231GbSLByRIRdPM-UpNBJhQ","plus_code":{"compound_code":"79VG+J9 Marseille","global_code":"8FM779VG+J9"},"price_level":2,"rating":4.6,"reference":"ChIJ231GbSLByRIRdPM-UpNBJhQ","types":["restaurant","food","point_of_interest","establishment"],"user_ratings_total":1186},{"business_status":"OPERATIONAL","formatted_address":"2 Quai de la Joliette, 13002 Marseille","geometry":{"location":{"lat":43.3042488,"lng":5.3653558},"viewport":{"northeast":{"lat":43.30564322989272,"lng":5.366628529892723},"southwest":{"lat":43.30294357010728,"lng":5.363928870107279}}},"icon":"https://maps.gstatic.com/mapfiles/place_api/icons/v1/png_71/restaurant-71.png","icon_background_color":"#FF9E67","icon_mask_base_uri":"https://maps.gstatic.com/mapfiles/place_api/icons/v2/restaurant_pinlet","name":"Le Hippie chic café","opening_hours":{"open_now":true},"photos":[{"height":9248,"html_attributions":["<a href=\"https://maps.google.com/maps/contrib/107626101441167907865\">Sonia Akhtar</a>"],"photo_reference":"AeJbb3dYJq5Iy0-dLJWSCNSs3rUCUkg8PMf_RW5LlmA-Vvjz9azuDVKOqZBPGabMo52ku9f_VBj8kHbne6kz2o9sg9uhK-GiQZzY1EH1sBp4rjTQOn27JpkVgiPTbTmRo1P28IBmQTD5aBvyy4DxVwaxsaA5ZWKWbkvUl8jwc9FTF3pn37h6","width":6936}],"place_id":"ChIJZ-ltU3TByRIRyDy5ecVwrgM","plus_code":{"compound_code":"8938+M4 Marseille","global_code":"8FM78938+M4"},"price_level":2,"rating":4.6,"reference":"ChIJZ-ltU3TByRIRyDy5ecVwrgM","types":["cafe","restaurant","food","point_of_interest","establishment"],"user_ratings_total":740},{"business_status":"OPERATIONAL","formatted_address":"9 Quai du Lazaret, 13002 Marseille","geometry":{"location":{"lat":43.30673460000001,"lng":5.3641865},"viewport":{"northeast":{"lat":43.30797107989272,"lng":5.366450299999999},"southwest":{"lat":43.30527142010728,"lng":5.3634319}}},"icon":"https://maps.gstatic.com/mapfiles/place_api/icons/v1/png_71/restaurant-71.png","icon_background_color":"#FF9E67","icon_mask_base_uri":"https://maps.gstatic.com/mapfiles/place_api/icons/v2/restaurant_pinlet","name":"POKAWA Poké bowls","opening_hours":{"open_now":true},"photos":[{"height":4032,"html_attributions":["<a href=\"https://maps.google.com/maps/contrib/112213626600610999638\">julien sarabio</a>"],"photo_reference":"AeJbb3eVBO1zViE2McFlx3I2HwnRMmboR_y2nCFBHD8aq1QlP3HGnUrTjpZxsbQNEapVUBi_U8PhI1ruQPdbA0ssMlcQICpyMrTefGzQmYKh28Ihkzv6ohL-deUyKQYKKRyDDxzZJAfT9vqrvnEnpg7dITM1vYst1pUij4KEhJRgbjEzo5ze","width":3024}],"place_id":"ChIJ2RZ3p4bByRIRAMlbOjS3_vs","plus_code":{"compound_code":"8947+MM Marseille","global_code":"8FM78947+MM"},"price_level":2,"rating":4.6,"reference":"ChIJ2RZ3p4bByRIRAMlbOjS3_vs","types":["restaurant","food","point_of_interest","establishment"],"user_ratings_total":559},{"business_status":"OPERATIONAL","formatted_address":"27 Rue d'Italie, 13006 Marseille","geometry":{"location":{"lat":43.2898175,"lng":5.3823926},"viewport":{"northeast":{"lat":43.29114142989272,"lng":5.383677279892722},"southwest":{"lat":43.28844177010728,"lng":5.380977620107278}}},"icon":"https://maps.gstatic.com/mapfiles/place_api/icons/v1/png_71/restaurant-71.png","icon_background_color":"#FF9E67","icon_mask_base_uri":"https://maps.gstatic.com/mapfiles/place_api/icons/v2/restaurant_pinlet","name":"Shimla Restaurant Indien - Bengali","opening_hours":{"open_now":false},"photos":[{"height":1806,"html_attributions":["<a href=\"https://maps.google.com/maps/contrib/113913537809767759271\">Shimla</a>"],"photo_reference":"AeJbb3cutAAyS4940TEjyp--3Mjodr3LNrJY13eMEh1CrWsCuRs3MI-fSSkmII9zwjN516T7mF7Bw9wGnQdFQ7WU5VJEOh6bC7JHm4LstqC99wtBaMJl051iyXabdipwg4RMz2fieInG7gCYYYN3JUFRIpdpPeS7mUoxw-Z43QO0lW9B5ghb","width":1830}],"place_id":"ChIJ7QGPCrDAyRIRFHfhecJQMYY","plus_code":{"compound_code":"79QJ+WX Marseille","global_code":"8FM779QJ+WX"},"rating":4.6,"reference":"ChIJ7QGPCrDAyRIRFHfhecJQMYY","types":["restaurant","food","point_of_interest","establishment"],"user_ratings_total":514},{"business_status":"OPERATIONAL","formatted_address":"64 Av. Robert Schuman, 13002 Marseille","geometry":{"location":{"lat":43.3042555,"lng":5.367138},"viewport":{"northeast":{"lat":43.30563857989272,"lng":5.368406779892722},"southwest":{"lat":43.30293892010728,"lng":5.365707120107278}}},"icon":"https://maps.gstatic.com/mapfiles/place_api/icons/v1/png_71/restaurant-71.png","icon_background_color":"#FF9E67","icon_mask_base_uri":"https://maps.gstatic.com/mapfiles/place_api/icons/v2/restaurant_pinlet","name":"Flower Burger","opening_hours":{"open_now":false},"photos":[{"height":1868,"html_attributions":["<a href=\"https://maps.google.com/maps/contrib/103505211251674884582\">Laura Suriol Vila</a>"],"photo_reference":"AeJbb3dADpLEWJxFFyVTloc9yxkRwvuBaR02ljHlx6sYwoc_wRTmJyIdQKK1LG-vkTTOMaIA2mY5WkVykRPQwXuKUnqRB8fC8onQgJ26H6Qw_Ylw3BtQ-ROKmE7VrmnfYyzvEtMUD_FGptpA2F0ObIWxYHjEBaLtVgnnluQZP5T7gO-Hp9J6","width":3023}],"place_id":"ChIJG_BKW-nAyRIR27rfYOWxP4Y","plus_code":{"compound_code":"8938+PV Marseille","global_code":"8FM78938+PV"},"price_level":2,"rating":4.6,"reference":"ChIJG_BKW-nAyRIR27rfYOWxP4Y","types":["restaurant","food","point_of_interest","establishment"],"user_ratings_total":507},{"business_status":"OPERATIONAL","formatted_address":"73 Cr Julien, 13006 Marseille","geometry":{"location":{"lat":43.2931747,"lng":5.383843400000001},"viewport":{"northeast":{"lat":43.29444927989272,"lng":5.385002029892722},"southwest":{"lat":43.29174962010728,"lng":5.382302370107278}}},"icon":"https://maps.gstatic.com/mapfiles/place_api/icons/v1/png_71/restaurant-71.png","icon_background_color":"#FF9E67","icon_mask_base_uri":"https://maps.gstatic.com/mapfiles/place_api/icons/v2/restaurant_pinlet","name":"ego","opening_hours":{"open_now":true},"photos":[{"height":697,"html_attributions":["<a href=\"https://maps.google.com/maps/contrib/115426180879119498579\">Ego</a>"],"photo_reference":"AeJbb3dKrTeh_8y_I03C37YSWVSDzrRnD8_Z4ljJwQv9l1Du451IslydCbggaqfBbq9YHLQE53N74KhWErfYuIEJl6JzLLStGFfHT8qnvh2T7LiFjp8W9PQCrVJH61i_UCGH8IeiqaQH58l0dyXjfC75fAyRzN4Uz4lPDQBFx5DQaQb2fR_V","width":720}],"place_id":"ChIJjyoSzKTAyRIRy4m6ghARic4","plus_code":{"compound_code":"79VM+7G Marseille","global_code":"8FM779VM+7G"},"price_level":2,"rating":4.6,"reference":"ChIJjyoSzKTAyRIRy4m6ghARic4","types":["cafe","store","restaurant","food","point_of_interest","establishment"],"user_ratings_total":363},{"business_status":"OPERATIONAL","formatted_address":"102 Cr Julien, 13006 Marseille","geometry":{"location":{"lat":43.2928667,"lng":5.3832973},"viewport":{"northeast":{"lat":43.29424872989272,"lng":5.384754429892722},"southwest":{"lat":43.29154907010728,"lng":5.382054770107279}}},"icon":"https://maps.gstatic.com/mapfiles/place_api/icons/v1/png_71/restaurant-71.png","icon_background_color":"#FF9E67","icon_mask_base_uri":"https://maps.gstatic.com/mapfiles/place_api/icons/v2/restaurant_pinlet","name":"Mariposas","opening_hours":{"open_now":false},"photos":[{"height":2322,"html_attributions":["<a href=\"https://maps.google.com/maps/contrib/117967115092999285988\">Silent Blast</a>"],"photo_reference":"AeJbb3cnFIptfNyZV8SF6f29Q_fcXEEprl7IhM4Zh-Ldiby8T_yj1a8Rl9C4Yk4fE7645asyGkhshzcVjQLveBq_E4BovvE7Qf42l9SOwm7safutwHpE1HNBoKz0IxDZ96edFbJo4hkc6gDGaHMajcNYsHvv5rjhRino2Sqzw1MJ82CGWULB","width":4128}],"place_id":"ChIJH8Zss7nAyRIRm7MGXtMpM5A","plus_code":{"compound_code":"79VM+48 Marseille","global_code":"8FM779VM+48"},"price_level":2,"rating":4.6,"reference":"ChIJH8Zss7nAyRIRm7MGXtMpM5A","types":["restaurant","food","point_of_interest","establishment"],"user_ratings_total":361},{"business_status":"OPERATIONAL","formatted_address":"7 Pl. de Rome, 13006 Marseille","geometry":{"location":{"lat":43.2914397,"lng":5.3809822},"viewport":{"northeast":{"lat":43.29278442989271,"lng":5.382352629892721},"southwest":{"lat":43.29008477010727,"lng":5.379652970107277}}},"icon":"https://maps.gstatic.com/mapfiles/place_api/icons/v1/png_71/cafe-71.png","icon_background_color":"#FF9E67","icon_mask_base_uri":"https://maps.gstatic.com/mapfiles/place_api/icons/v2/cafe_pinlet","name":"Bernie Coffee","opening_hours":{"open_now":true},"photos":[{"height":1350,"html_attributions":["<a href=\"https://maps.google.com/maps/contrib/109291261282392361136\">Patrice Blum</a>"],"photo_reference":"AeJbb3emp4y3bmJ1GCwLW3STa3DB9AkJM90oQp8dee4kg_vrqDHKw9iSNdHf8VFKBDaXZfvHRbZaI_vCh5KKASEBDJgvaMik7VQuC3uQnYIwNnEUUHevZ39z0bPq3ceAOXn6-sJqWOqdAnbrH9opFndeEp9NB61ijf7SzMZ1L6Km-91gpEpp","width":1080}],"place_id":"ChIJ40GLD9a_yRIRRDOZ8ZRO1rk","plus_code":{"compound_code":"79RJ+HC Marseille","global_code":"8FM779RJ+HC"},"price_level":2,"rating":4.6,"reference":"ChIJ40GLD9a_yRIRRDOZ8ZRO1rk","types":["cafe","restaurant","food","point_of_interest","establishment"],"user_ratings_total":340},{"business_status":"OPERATIONAL","formatted_address":"126 Rue Sainte, 13007 Marseille","geometry":{"location":{"lat":43.2908447,"lng":5.367088499999999},"viewport":{"northeast":{"lat":43.29218952989272,"lng":5.368443829892722},"southwest":{"lat":43.28948987010728,"lng":5.365744170107278}}},"icon":"https://maps.gstatic.com/mapfiles/place_api/icons/v1/png_71/restaurant-71.png","icon_background_color":"#FF9E67","icon_mask_base_uri":"https://maps.gstatic.com/mapfiles/place_api/icons/v2/restaurant_pinlet","name":"Taquería LoKa - Restaurant","opening_hours":{"open_now":false},"photos":[{"height":3456,"html_attributions":["<a href=\"https://maps.google.com/maps/contrib/109554120536273586101\">Cédric Martin</a>"],"photo_reference":"AeJbb3dILOG-r0mdo_GJ1bgAWNPSnIjYfCywVj5eyS-PqNvU7H9lUj0UR5Zpsdi6BqsSiRowtA1C8xXKP6u13Zdc3hmDMPfrxi85ZOAyALIFfGkwkoNwxOLJwNlVDrY-rfLCHURhBfqrCSsYDvTS2mhcABSpJCbMo7xZVa4iTfR7KLPvxpeO","width":4608}],"place_id":"ChIJ42Mh98XAyRIRu32z1MFkG4I","plus_code":{"compound_code":"79R8+9R Marseille","global_code":"8FM779R8+9R"},"price_level":2,"rating":4.6,"reference":"ChIJ42Mh98XAyRIRu32z1MFkG4I","types":["restaurant","food","point_of_interest","establishment"],"user_ratings_total":321},{"business_status":"OPERATIONAL","formatted_address":"151 Av. Joseph Vidal, 13008 Marseille","geometry":{"location":{"lat":43.2492516,"lng":5.3754038},"viewport":{"northeast":{"lat":43.25061502989273,"lng":5.376672279892722},"southwest":{"lat":43.24791537010728,"lng":5.373972620107278}}},"icon":"https://maps.gstatic.com/mapfiles/place_api/icons/v1/png_71/restaurant-71.png","icon_background_color":"#FF9E67","icon_mask_base_uri":"https://maps.gstatic.com/mapfiles/place_api/icons/v2/restaurant_pinlet","name":"V&V Marseille (Vegan & Végétarien)","opening_hours":{"open_now":false},"photos":[{"height":3024,"html_attributions":["<a href=\"https://maps.google.com/maps/contrib/117297326627520872054\">Cédric Parachini</a>"],"photo_reference":"AeJbb3cvIIVHuU-S5vvYnciI44zERCJjJiSveDaNlNaJ3QOh4gEBBUhOecXLt68P7RnPdi9VACAectdUoLMBmzf5kihghjDPVr6SM9B6ZqOA4o-iv8SxPnShTYH5BSJ7yN7QcCp64-ARYvoNlYg18uurgERGtcIMhgk2wiyO_YOOouETgA-j","width":4032}],"place_id":"ChIJDypxIsvHyRIRPP2zTaDUZUM","plus_code":{"compound_code":"69XG+P5 Marseille","global_code":"8FM769XG+P5"},"rating":4.6,"reference":"ChIJDypxIsvHyRIRPP2zTaDUZUM","types":["restaurant","food","point_of_interest","establishment"],"user_ratings_total":189},{"business_status":"OPERATIONAL","formatted_address":"57 Rue de Forbin, 13002 Marseille","geometry":{"location":{"lat":43.3047797,"lng":5.3678851},"viewport":{"northeast":{"lat":43.30619157989273,"lng":5.369270929892722},"southwest":{"lat":43.30349192010728,"lng":5.366571270107278}}},"icon":"https://maps.gstatic.com/mapfiles/place_api/icons/v1/png_71/restaurant-71.png","icon_background_color":"#FF9E67","icon_mask_base_uri":"https://maps.gstatic.com/mapfiles/place_api/icons/v2/restaurant_pinlet","name":"NOODLES Chôp - Vitamin Food","opening_hours":{"open_now":false},"photos":[{"height":1707,"html_attributions":["<a href=\"https://maps.google.com/maps/contrib/116385085046004745557\">Noodles Chôp</a>"],"photo_reference":"AeJbb3f-b4o4N8A6sA_BotqgOtJo-xH0t_vKHTAs0OqbpdTxJuf4rpYyDP0R7EZGmXXMQFcGXSav-h2JGVIA0FAKunGWIBWB02HOdN0zgssjrYgE1UbtCDCIQ_thcRCsqyJJ2BOlztdx7MTnxGUdLCwUxvMPydRYMfdiFA7ygTj9ZXVdjE5n","width":1707}],"place_id":"ChIJ40bD_uvAyRIRbvCCyF2Dg_0","plus_code":{"compound_code":"8939+W5 Marseille","global_code":"8FM78939+W5"},"price_level":1,"rating":4.6,"reference":"ChIJ40bD_uvAyRIRbvCCyF2Dg_0","types":["restaurant","food","point_of_interest","establishment"],"user_ratings_total":164},{"business_status":"OPERATIONAL","formatted_address":"34 Rue du Baignoir, 13001 Marseille","geometry":{"location":{"lat":43.2993639,"lng":5.3776361},"viewport":{"northeast":{"lat":43.30070827989272,"lng":5.378901729892721},"southwest":{"lat":43.29800862010728,"lng":5.376202070107277}}},"icon":"https://maps.gstatic.com/mapfiles/place_api/icons/v1/png_71/restaurant-71.png","icon_background_color":"#FF9E67","icon_mask_base_uri":"https://maps.gstatic.com/mapfiles/place_api/icons/v2/restaurant_pinlet","name":"Grain de Sable","opening_hours":{"open_now":false},"photos":[{"height":2252,"html_attributions":["<a href=\"https://maps.google.com/maps/contrib/109871040526486395113\">John Shaft</a>"],"photo_reference":"AeJbb3d5jS29xjJJ8gGvCgWVtYiM2xV3YncQffSwAmo4k89fuQEsrmERIIoIC7RkMq64MwLwEoVZ61UysjV5ntxYGnMxCtjtx25c8B5sIfaSfRnghqX_T5ORPM7kHFsmlto1D431afOc_Dh0vPsGFmbmrzBtDZNTv_ciYmsvSplgINiELHeA","width":4000}],"place_id":"ChIJCWaMHL7AyRIRbitflkei7so","plus_code":{"compound_code":"79XH+P3 Marseille","global_code":"8FM779XH+P3"},"price_level":2,"rating":4.6,"reference":"ChIJCWaMHL7AyRIRbitflkei7so","types":["restaurant","food","point_of_interest","establishment"],"user_ratings_total":147},{"business_status":"OPERATIONAL","formatted_address":"57 Bd des Dames, 13002 Marseille","geometry":{"location":{"lat":43.30306299999999,"lng":5.3661245},"viewport":{"northeast":{"lat":43.30444332989273,"lng":5.367465229892722},"southwest":{"lat":43.30174367010728,"lng":5.364765570107278}}},"icon":"https://maps.gstatic.com/mapfiles/place_api/icons/v1/png_71/restaurant-71.png","icon_background_color":"#FF9E67","icon_mask_base_uri":"https://maps.gstatic.com/mapfiles/place_api/icons/v2/restaurant_pinlet","name":"Arrosoir Dames","opening_hours":{"open_now":false},"photos":[{"height":2240,"html_attributions":["<a href=\"https://maps.google.com/maps/contrib/114836986221284966426\">ze flower</a>"],"photo_reference":"AeJbb3eimwHIqFmVPq55TixE2CgXiu4BX9Y-7q3PdK-Yb1gPpX8EYBXs94rPy1PpaiXAwAl8KLjssOtQ7TRy6CmoRWcAy45sNSQTifrykhiPNA49dOeQiAINiZ8pwp9GpGSRBYk-28w0v8QNs_kF-Pu6uJu1SLZEGzZNKyaRsINHDuZmo4Bj","width":4608}],"place_id":"ChIJ62ZXCenAyRIR6g8-qmcfArg","plus_code":{"compound_code":"8938+5F Marseille","global_code":"8FM78938+5F"},"rating":4.6,"reference":"ChIJ62ZXCenAyRIR6g8-qmcfArg","types":["restaurant","food","point_of_interest","establishment"],"user_ratings_total":144},{"business_status":"OPERATIONAL","formatted_address":"206 Bd Baille, 13005 Marseille","geometry":{"location":{"lat":43.2890252,"lng":5.3961427},"viewport":{"northeast":{"lat":43.29048132989272,"lng":5.397473129892722},"southwest":{"lat":43.28778167010728,"lng":5.394773470107278}}},"icon":"https://maps.gstatic.com/mapfiles/place_api/icons/v1/png_71/restaurant-71.png","icon_background_color":"#FF9E67","icon_mask_base_uri":"https://maps.gstatic.com/mapfiles/place_api/icons/v2/restaurant_pinlet","name":"de bon'heur","opening_hours":{"open_now":false},"photos":[{"height":919,"html_attributions":["<a href=\"https://maps.google.com/maps/contrib/101806093548781743995\">A Google User</a>"],"photo_reference":"AeJbb3dIfTfMIBZw7nXQVGcoGEl8b5TXp8_ZpPbQHAtFEe20Qjt-MobczJPNXdkrDqxyib5co2tuSHVHBI4i2WNidwb_jK3M8TqNgmK3e8OHiH3EvQwjRPv-1OzBxfbD-YLqPCYPqIOKxs4EqybvLi5YIBhtb9vp2QoN3uTtjuPqFVDkwUw","width":919}],"place_id":"ChIJT2hGVdi_yRIRO0UWVfwOwDg","plus_code":{"compound_code":"79QW+JF Marseille","global_code":"8FM779QW+JF"},"rating":4.6,"reference":"ChIJT2hGVdi_yRIRO0UWVfwOwDg","types":["restaurant","food","point_of_interest","establishment"],"user_ratings_total":112},{"business_status":"OPERATIONAL","formatted_address":"16 Pl. Notre Dame du Mont, 13006 Marseille","geometry":{"location":{"lat":43.2919185,"lng":5.3839124},"viewport":{"northeast":{"lat":43.29327402989271,"lng":5.385268329892723},"southwest":{"lat":43.29057437010727,"lng":5.382568670107279}}},"icon":"https://maps.gstatic.com/mapfiles/place_api/icons/v1/png_71/restaurant-71.png","icon_background_color":"#FF9E67","icon_mask_base_uri":"https://maps.gstatic.com/mapfiles/place_api/icons/v2/restaurant_pinlet","name":"L'Usyne","opening_hours":{"open_now":false},"photos":[{"height":3968,"html_attributions":["<a href=\"https://maps.google.com/maps/contrib/102949217604374395129\">Nathalie V</a>"],"photo_reference":"AeJbb3evYrmHblXIEdVMIlR9ezwpoKMmx47zZ1ad9l31pXLOgrXSRRzeilMXegs8EkFeZE2jJ31JBBmloB70vqvQBqxnPM-z-y-Cb4j2aSFBtloX8_iq12-5xbVDLLQgxbK4eMad8ttL7xvHQfhGdq18hd3ggqd6_4Q55KhCI1bAHNtY6Ssx","width":2976}],"place_id":"ChIJWQoqLKXAyRIRslnVURcP-pM","plus_code":{"compound_code":"79RM+PG Marseille","global_code":"8FM779RM+PG"},"rating":4.6,"reference":"ChIJWQoqLKXAyRIRslnVURcP-pM","types":["cafe","restaurant","food","point_of_interest","establishment"],"user_ratings_total":87},{"business_status":"OPERATIONAL","formatted_address":"de MYPALMERAIE, Centre Commercial de Plan de Campagne, 13 Rue Albert Manoukian Bâtiment D, 13480 Cabriès","geometry":{"location":{"lat":43.4200442,"lng":5.3580988},"viewport":{"northeast":{"lat":43.42138072989273,"lng":5.359365879892723},"southwest":{"lat":43.41868107010728,"lng":5.356666220107279}}},"icon":"https://maps.gstatic.com/mapfiles/place_api/icons/v1/png_71/restaurant-71.png","icon_background_color":"#FF9E67","icon_mask_base_uri":"https://maps.gstatic.com/mapfiles/place_api/icons/v2/restaurant_pinlet","name":"POKAWA Poké bowls","opening_hours":{"open_now":true},"photos":[{"height":3030,"html_attributions":["<a href=\"https://maps.google.com/maps/contrib/107369801987042936796\">A Google User</a>"],"photo_reference":"AeJbb3dgKcoD9otinQ9ZzIwrMd4V_Z_AmCX96m_xgUQUjNiArY4skrBMbqj4ocJFs6pXPhKfOsDbu-jMnBBgEcPs-P8NWvEd9YVa_H1PfII5Bbw8zdVwvdhkoBcHyQHNNFZBCVKJcpIxxlrq-ZDMAFZ78tSqQOTNfYnAL-5E9VlL1e0b4ucz","width":2995}],"place_id":"ChIJr8WfB_jryRIRoJxZjUwksyQ","plus_code":{"compound_code":"C9C5+26 Cabriès","global_code":"8FM7C9C5+26"},"rating":4.6,"reference":"ChIJr8WfB_jryRIRoJxZjUwksyQ","types":["restaurant","food","point_of_interest","establishment"],"user_ratings_total":42},{"business_status":"OPERATIONAL","formatted_address":"1 Rue Lali, 13009 Marseille","geometry":{"location":{"lat":43.24612399999999,"lng":5.4039753},"viewport":{"northeast":{"lat":43.24746382989272,"lng":5.405348579892721},"southwest":{"lat":43.24476417010727,"lng":5.402648920107278}}},"icon":"https://maps.gstatic.com/mapfiles/place_api/icons/v1/png_71/restaurant-71.png","icon_background_color":"#FF9E67","icon_mask_base_uri":"https://maps.gstatic.com/mapfiles/place_api/icons/v2/restaurant_pinlet","name":"Les Caprices de Marianne","opening_hours":{"open_now":false},"photos":[{"height":4032,"html_attributions":["<a href=\"https://maps.google.com/maps/contrib/109193179304698050306\">C Et T Elle M</a>"],"photo_reference":"AeJbb3fu0YXQ7OaN3EC5OJjqIzvCFi_Nf3z9wBf5Co-dqTlVGqIP7wdHjYK5Aou_JP_y1QfpzatA2zNL2qf4sofkLRszYZMZwVYwq51sy-Hs44tov1lSwERZK4CCOjblxSoG0M0fGkoZ9hRa4qSaPFBcaz8mHqekVC7KcUdEXy0UQxgmMOmL","width":3024}],"place_id":"ChIJE86C8IW4yRIRKnoeZpdbJ8s","plus_code":{"compound_code":"6CW3+CH Marseille","global_code":"8FM76CW3+CH"},"rating":4.6,"reference":"ChIJE86C8IW4yRIRKnoeZpdbJ8s","types":["restaurant","food","point_of_interest","establishment"],"user_ratings_total":36},{"business_status":"OPERATIONAL","formatted_address":"8 Rte de la Sablière, 13011 Marseille","geometry":{"location":{"lat":43.2901132,"lng":5.4774517},"viewport":{"northeast":{"lat":43.29136877989272,"lng":5.478915529892721},"southwest":{"lat":43.28866912010728,"lng":5.476215870107277}}},"icon":"https://maps.gstatic.com/mapfiles/place_api/icons/v1/png_71/restaurant-71.png","icon_background_color":"#FF9E67","icon_mask_base_uri":"https://maps.gstatic.com/mapfiles/place_api/icons/v2/restaurant_pinlet","name":"POKAWA Poké bowls","opening_hours":{"open_now":true},"photos":[{"height":4128,"html_attributions":["<a href=\"https://maps.google.com/maps/contrib/116530925300246155214\">A Google User</a>"],"photo_reference":"AeJbb3egd-5k5hdLxISxFz3dopuVOY2woPpKqJtOMtNSLE-uzJwYxlwkJtbZ7xZ_AwiA0b3IYMNCWvbWTpJxh1D_o83lGt7y63mQWASYBuzCeuRWD96yrqXFpT1uowYFNHlbHlYziXWagq_HiyxU_Hs8ra18WS1YMKbN7OtS5OYiygcj3W_Q","width":3096}],"place_id":"ChIJG6EX5YO_yRIRfx8LEzmlz1I","plus_code":{"compound_code":"7FRG+2X Marseille","global_code":"8FM77FRG+2X"},"price_level":2,"rating":4.5,"reference":"ChIJG6EX5YO_yRIRfx8LEzmlz1I","types":["restaurant","food","point_of_interest","establishment"],"user_ratings_total":186},{"business_status":"OPERATIONAL","formatted_address":"20 Rue Aviateur le Brix, 13009 Marseille","geometry":{"location":{"lat":43.262437,"lng":5.404268999999999},"viewport":{"northeast":{"lat":43.26376497989272,"lng":5.405702679892721},"southwest":{"lat":43.26106532010728,"lng":5.403003020107278}}},"icon":"https://maps.gstatic.com/mapfiles/place_api/icons/v1/png_71/restaurant-71.png","icon_background_color":"#FF9E67","icon_mask_base_uri":"https://maps.gstatic.com/mapfiles/place_api/icons/v2/restaurant_pinlet","name":"Les Trésors du Liban - Restaurant Marseille","opening_hours":{"open_now":false},"photos":[{"height":467,"html_attributions":["<a href=\"https://maps.google.com/maps/contrib/118127361139143972332\">A Google User</a>"],"photo_reference":"AeJbb3dyuhlcvaT6JBr3aV6Y-3pybOHrxdRhWunM_1iqiQqaP-H_IBBIJI_ay61Ng9yLtFv5r8r81L36qSz7Nw7I4IZ-6uDUPt_Spfc3kKPyHVhtf5MATVaS2lpI9wVwVW4DLv0N_PmdGqIiBzNvjUKOFZtN8QzufeQcmahCTgSujCdX9sQ5","width":700}],"place_id":"ChIJB5izAwi5yRIRA-WBImmefBg","plus_code":{"compound_code":"7C63+XP Marseille","global_code":"8FM77C63+XP"},"rating":4.5,"reference":"ChIJB5izAwi5yRIRA-WBImmefBg","types":["meal_takeaway","meal_delivery","restaurant","food","point_of_interest","establishment"],"user_ratings_total":120},{"business_status":"OPERATIONAL","formatted_address":"53 Rue Grignan, 13006 Marseille","geometry":{"location":{"lat":43.2917711,"lng":5.375838799999999},"viewport":{"northeast":{"lat":43.29316672989272,"lng":5.377169879892722},"southwest":{"lat":43.29046707010728,"lng":5.374470220107278}}},"icon":"https://maps.gstatic.com/mapfiles/place_api/icons/v1/png_71/restaurant-71.png","icon_background_color":"#FF9E67","icon_mask_base_uri":"https://maps.gstatic.com/mapfiles/place_api/icons/v2/restaurant_pinlet","name":"Dubble Marseille Grignan | Healthy Food","opening_hours":{"open_now":false},"photos":[{"height":610,"html_attributions":["<a href=\"https://maps.google.com/maps/contrib/109958826190039489997\">A Google User</a>"],"photo_reference":"AeJbb3fHy4M1r7Z87RmIXf1ctAe9d9dw75OrKbTfkDE7MWYsAsg2pW7GpM5-D2bnJZLmPZUmPQhUn2bYvaeK7c54MX3ihMzsyNP-SRHNcGX-CFOjh32RYwTxWOsZ1I5EtdX51dZ-3PKDo0dT6Lvr0NVqZU5Fo-S4-yjuSBEeuSH5KhKoa2Tj","width":814}],"place_id":"ChIJ7QudtrnAyRIR4VODHd8bVnk","plus_code":{"compound_code":"79RG+P8 Marseille","global_code":"8FM779RG+P8"},"price_level":2,"rating":4.5,"reference":"ChIJ7QudtrnAyRIR4VODHd8bVnk","types":["restaurant","meal_takeaway","food","point_of_interest","establishment"],"user_ratings_total":90},{"business_status":"CLOSED_TEMPORARILY","formatted_address":"1 Rue Pythéas, 13001 Marseille","geometry":{"location":{"lat":43.2943968,"lng":5.375678799999999},"viewport":{"northeast":{"lat":43.29575817989272,"lng":5.377072329892721},"southwest":{"lat":43.29305852010727,"lng":5.374372670107277}}},"icon":"https://maps.gstatic.com/mapfiles/place_api/icons/v1/png_71/restaurant-71.png","icon_background_color":"#FF9E67","icon_mask_base_uri":"https://maps.gstatic.com/mapfiles/place_api/icons/v2/restaurant_pinlet","name":"Scoby | Cantine végétale","permanently_closed":true,"photos":[{"height":2448,"html_attributions":["<a href=\"https://maps.google.com/maps/contrib/102144948221071700278\">A Google User</a>"],"photo_reference":"AeJbb3fbkTyAdBHJzh33velRsX9ShAr7y9oElYBrzHcAeFxRtb-G5aPs2zd93_7cgQ-OWZp2gMTTBFpSJvkiClv9pjRTPgooAAuPXFth0L-9I1OaY7iiU1vOaFhoIdo6D0WK-83JbCB0qq2HI8sp3L6yDIvAyMcnMQkYeceFp5zmq6iP5Nox","width":2448}],"place_id":"ChIJq6qWJ7nAyRIRk4SOgEWbtTA","plus_code":{"compound_code":"79VG+P7 Marseille","global_code":"8FM779VG+P7"},"price_level":1,"rating":4.5,"reference":"ChIJq6qWJ7nAyRIRk4SOgEWbtTA","types":["meal_takeaway","restaurant","food","point_of_interest","establishment"],"user_ratings_total":21},{"business_status":"OPERATIONAL","formatted_address":"2 Pl. des Marseillaises, 13001 Marseille","geometry":{"location":{"lat":43.3013991,"lng":5.3808339},"viewport":{"northeast":{"lat":43.30279077989272,"lng":5.382191979892721},"southwest":{"lat":43.30009112010728,"lng":5.379492320107278}}},"icon":"https://maps.gstatic.com/mapfiles/place_api/icons/v1/png_71/restaurant-71.png","icon_background_color":"#FF9E67","icon_mask_base_uri":"https://maps.gstatic.com/mapfiles/place_api/icons/v2/restaurant_pinlet","name":"Café l'Écomotive","opening_hours":{"open_now":true},"photos":[{"height":735,"html_attributions":["<a href=\"https://maps.google.com/maps/contrib/100855511356430871577\">Café l&#39;Écomotive</a>"],"photo_reference":"AeJbb3c73GSdDfOXqOyToVOC0Iq3tQUXFZ23UmUNA5Xcqj-NSbHANl65QCVQ5mcpB621Q4Fd6JT0QRhvOROOQvRKVXrwc3Lhyi_MnWLXl1ezSW1bxHJ5b2dVo5MJO1KU76MB5uJhXQ0VEvF7iuLz8aOHX5L3o0OOK0tT2dgG2ss2QrTorSEt","width":1100}],"place_id":"ChIJa3YETpbAyRIRGS-0bRmZBrM","plus_code":{"compound_code":"892J+H8 Marseille","global_code":"8FM7892J+H8"},"price_level":1,"rating":4.4,"reference":"ChIJa3YETpbAyRIRGS-0bRmZBrM","types":["cafe","restaurant","food","point_of_interest","store","establishment"],"user_ratings_total":750},{"business_status":"OPERATIONAL","formatted_address":"4 Rue 3 Frères Barthélémy, 13006 Marseille","geometry":{"location":{"lat":43.2923814,"lng":5.3840784},"viewport":{"northeast":{"lat":43.29379007989272,"lng":5.385340029892721},"southwest":{"lat":43.29109042010727,"lng":5.382640370107278}}},"icon":"https://maps.gstatic.com/mapfiles/place_api/icons/v1/png_71/restaurant-71.png","icon_background_color":"#FF9E67","icon_mask_base_uri":"https://maps.gstatic.com/mapfiles/place_api/icons/v2/restaurant_pinlet","name":"VV House","opening_hours":{"open_now":true},"photos":[{"height":2268,"html_attributions":["<a href=\"https://maps.google.com/maps/contrib/112534956976609742449\">A Google User</a>"],"photo_reference":"AeJbb3f-lIM4O0__TbzfXkQBodmudRTo7f1X9tzheh2uapUMcsVfFQRMxELIRUugvo8QmAu-myCtkHtcEc10ZHgJxhAvYjbfZm8Yup2mDePiks7SjSAyp69_5zG_0b5FUGQfPPD9M2QDCXdTJ_6utmlTGi2Knlik63umHhRnbXYG-3x9h0D6","width":4032}],"place_id":"ChIJFUmaY5jByRIRJz5y0vJS1zU","plus_code":{"compound_code":"79RM+XJ Marseille","global_code":"8FM779RM+XJ"},"rating":4.4,"reference":"ChIJFUmaY5jByRIRJz5y0vJS1zU","types":["restaurant","food","point_of_interest","establishment"],"user_ratings_total":123},{"business_status":"OPERATIONAL","formatted_address":"24 Rue des Trois Rois, 13006 Marseille","geometry":{"location":{"lat":43.29403800000001,"lng":5.384682},"viewport":{"northeast":{"lat":43.29540707989272,"lng":5.386086079892721},"southwest":{"lat":43.29270742010728,"lng":5.383386420107278}}},"icon":"https://maps.gstatic.com/mapfiles/place_api/icons/v1/png_71/restaurant-71.png","icon_background_color":"#FF9E67","icon_mask_base_uri":"https://maps.gstatic.com/mapfiles/place_api/icons/v2/restaurant_pinlet","name":"Green Meal","opening_hours":{"open_now":true},"photos":[{"height":3024,"html_attributions":["<a href=\"https://maps.google.com/maps/contrib/107474726943130427307\">A Google User</a>"],"photo_reference":"AeJbb3fMTrqMCdB4jGS2fWlyTxCLlDFge0pa66ecHZhA3il9-3DrNHlLtfmq67xrqTYYu657w2yzrRP3_Ifhd2GWkEYCB8TRK0A_f0yIHuavI8uGQZLn-QGSD8mLGCf_tAec6QLYPhK-3gGk0rn87IwFVFGo28FzVX78DplFihhcHxn68-YB","width":4032}],"place_id":"ChIJ7YS84-_ByRIRasvkLFoU-tY","plus_code":{"compound_code":"79VM+JV Marseille","global_code":"8FM779VM+JV"},"rating":4.3,"reference":"ChIJ7YS84-_ByRIRasvkLFoU-tY","types":["bakery","restaurant","food","point_of_interest","store","establishment"],"user_ratings_total":29},{"business_status":"OPERATIONAL","formatted_address":"25 Pl. aux Huiles, 13001 Marseille","geometry":{"location":{"lat":43.2927334,"lng":5.372053600000001},"viewport":{"northeast":{"lat":43.29398657989272,"lng":5.373619279892722},"southwest":{"lat":43.29128692010728,"lng":5.370919620107278}}},"icon":"https://maps.gstatic.com/mapfiles/place_api/icons/v1/png_71/restaurant-71.png","icon_background_color":"#FF9E67","icon_mask_base_uri":"https://maps.gstatic.com/mapfiles/place_api/icons/v2/restaurant_pinlet","name":"Sri Ganesh","opening_hours":{"open_now":false},"photos":[{"height":3008,"html_attributions":["<a href=\"https://maps.google.com/maps/contrib/101824746141690678808\"># GALLEGO #</a>"],"photo_reference":"AeJbb3cnprKyilyX1dpn-KtiMT2YR6hfePi1Y9DPxvq510UzDyi1KJu9aFtGaJdPwDJ8SXG9y1-jmKioJyAs13xkq2PdOppVCjS5n1Gk_hJq4j5aM9q4DjuRU4AHmVnaHaS8n85OGtXZPcELA6HQAbtSenJqtoV3hgwuadmS_3ITwN1VhQfk","width":4016}],"place_id":"ChIJqeQMnsfAyRIRzbPut6TZPr0","plus_code":{"compound_code":"79VC+3R Marseille","global_code":"8FM779VC+3R"},"price_level":2,"rating":4.2,"reference":"ChIJqeQMnsfAyRIRzbPut6TZPr0","types":["restaurant","food","point_of_interest","establishment"],"user_ratings_total":432},{"business_status":"OPERATIONAL","formatted_address":"90 Rue d'Italie, 13006 Marseille","geometry":{"location":{"lat":43.2871151,"lng":5.3839498},"viewport":{"northeast":{"lat":43.28846327989272,"lng":5.385305129892721},"southwest":{"lat":43.28576362010728,"lng":5.382605470107277}}},"icon":"https://maps.gstatic.com/mapfiles/place_api/icons/v1/png_71/restaurant-71.png","icon_background_color":"#FF9E67","icon_mask_base_uri":"https://maps.gstatic.com/mapfiles/place_api/icons/v2/restaurant_pinlet","name":"Little Vegan Boy","place_id":"ChIJG2J7GBLByRIRFvPv-7MAxLU","plus_code":{"compound_code":"79PM+RG Marseille","global_code":"8FM779PM+RG"},"rating":4.2,"reference":"ChIJG2J7GBLByRIRFvPv-7MAxLU","types":["restaurant","food","point_of_interest","establishment"],"user_ratings_total":5},{"business_status":"OPERATIONAL","formatted_address":"9 Rue Pasteur, 13260 Cassis","geometry":{"location":{"lat":43.2147973,"lng":5.5379102},"viewport":{"northeast":{"lat":43.21613702989272,"lng":5.539246729892723},"southwest":{"lat":43.21343737010727,"lng":5.536547070107279}}},"icon":"https://maps.gstatic.com/mapfiles/place_api/icons/v1/png_71/restaurant-71.png","icon_background_color":"#FF9E67","icon_mask_base_uri":"https://maps.gstatic.com/mapfiles/place_api/icons/v2/restaurant_pinlet","name":"D’une rive à l’autre","opening_hours":{"open_now":false},"photos":[{"height":4032,"html_attributions":["<a href=\"https://maps.google.com/maps/contrib/103085504531756099943\">Philippe Araujo</a>"],"photo_reference":"AeJbb3dQpjBLk-zoNpw0IHIdK_A289yqF8PUsmX1yobulcmKPjhOG7YjuheNBYkWh2ZWr4gKMh8BYfbHsg4c9PAtpuSqBQ7WypbweGcj_FlyZzEV5Z27RdzbiAOelZ04HEuttGkgF_D9_25HyQeV4WcVVAkmkbuqDp9bFByrqzYAS7GhbiPv","width":3024}],"place_id":"ChIJt2jQx0y7yRIRo35eVGPdmq8","plus_code":{"compound_code":"6G7Q+W4 Cassis","global_code":"8FM76G7Q+W4"},"rating":4.1,"reference":"ChIJt2jQx0y7yRIRo35eVGPdmq8","types":["restaurant","food","point_of_interest","establishment"],"user_ratings_total":137},{"business_status":"OPERATIONAL","formatted_address":"48 Quai du Lazaret, 13002 Marseille","geometry":{"location":{"lat":43.3106385,"lng":5.3677832},"viewport":{"northeast":{"lat":43.31203102989272,"lng":5.368890279892722},"southwest":{"lat":43.30933137010728,"lng":5.366190620107278}}},"icon":"https://maps.gstatic.com/mapfiles/place_api/icons/v1/png_71/restaurant-71.png","icon_background_color":"#FF9E67","icon_mask_base_uri":"https://maps.gstatic.com/mapfiles/place_api/icons/v2/restaurant_pinlet","name":"Jour Euromed","opening_hours":{"open_now":false},"photos":[{"height":2527,"html_attributions":["<a href=\"https://maps.google.com/maps/contrib/106217276923792882542\">A Google User</a>"],"photo_reference":"AeJbb3c_hv54p8GfI4Gw4tkv8XIFrNx1ChghowoE40BzbjFVefzFJooHPnKpmhIrEYHdC7wrSANkHEIPmzitZS33MWDgf4n7xsW7JS5-cB8gq4dC-W10hcIVaHxrXbEEfB0BEnBPTsQ836WCwry9JoH2XbuIY1kvjQxauECk1XHI2O2BYHU0","width":4604}],"place_id":"ChIJ3R5cD0LByRIRtTZibRJse0Q","plus_code":{"compound_code":"8969+74 Marseille","global_code":"8FM78969+74"},"price_level":2,"rating":4.1,"reference":"ChIJ3R5cD0LByRIRtTZibRJse0Q","types":["restaurant","food","point_of_interest","establishment"],"user_ratings_total":37},{"business_status":"OPERATIONAL","formatted_address":"1 Rue des Docks, 13002 Marseille","geometry":{"location":{"lat":43.3057039,"lng":5.3662566},"viewport":{"northeast":{"lat":43.30701682989272,"lng":5.367637729892721},"southwest":{"lat":43.30431717010728,"lng":5.364938070107277}}},"icon":"https://maps.gstatic.com/mapfiles/place_api/icons/v1/png_71/restaurant-71.png","icon_background_color":"#FF9E67","icon_mask_base_uri":"https://maps.gstatic.com/mapfiles/place_api/icons/v2/restaurant_pinlet","name":"Jour","opening_hours":{"open_now":true},"photos":[{"height":4032,"html_attributions":["<a href=\"https://maps.google.com/maps/contrib/103680781810903618404\">H Jenny</a>"],"photo_reference":"AeJbb3c5RHl2sSvU3e07aS-GiOkZ9DhFSMoaEe_wmmTOV3YT_gHauR75N54BYUQ6gReeEwNZr4HiQf5SqkyM6_43d3I_DfeWWTx2U-8v9Fo83tCgU3g6bc69huum5KWSyjodthjmMrGN585FihVcjQNchpS-Zn2ik6pMO16QsQXmev9QTaeP","width":3024}],"place_id":"ChIJX15tkvfByRIR5-xw07S0z7U","plus_code":{"compound_code":"8948+7G Marseille","global_code":"8FM78948+7G"},"price_level":2,"rating":4,"reference":"ChIJX15tkvfByRIR5-xw07S0z7U","types":["restaurant","food","point_of_interest","establishment"],"user_ratings_total":219},{"business_status":"OPERATIONAL","formatted_address":"84 Bd Vauban, 13006 Marseille","geometry":{"location":{"lat":43.2834363,"lng":5.374679},"viewport":{"northeast":{"lat":43.28471537989272,"lng":5.376157229892721},"southwest":{"lat":43.28201572010727,"lng":5.373457570107277}}},"icon":"https://maps.gstatic.com/mapfiles/place_api/icons/v1/png_71/restaurant-71.png","icon_background_color":"#FF9E67","icon_mask_base_uri":"https://maps.gstatic.com/mapfiles/place_api/icons/v2/restaurant_pinlet","name":"Carlotta With","opening_hours":{"open_now":true},"photos":[{"height":2797,"html_attributions":["<a href=\"https://maps.google.com/maps/contrib/115703031723738424603\">Ophélie Bilocq</a>"],"photo_reference":"AeJbb3fT3WKWokEVwutNVyk9kzJ_p4Go6mO5njmGU-IOlmO4a4e67GFRvVOnsZ8DHQJppmVDqRtbINAuNEhX5zEw9_LRMbf40ljMw8ZQ4pCTfrfxBa5r1iSgrsAfzuUHRJ_h37hIUaPtzUUBr4W8QUrxWL1v4aA5v56NxrBiBrJ7ihE0nOlI","width":2959}],"place_id":"ChIJE6okj9XByRIR7zqcfT0PSBQ","plus_code":{"compound_code":"79MF+9V Marseille","global_code":"8FM779MF+9V"},"rating":3.8,"reference":"ChIJE6okj9XByRIR7zqcfT0PSBQ","types":["restaurant","food","point_of_interest","establishment"],"user_ratings_total":226},{"business_status":"OPERATIONAL","formatted_address":"48 Av. Merleau Ponty, 13013 Marseille","geometry":{"location":{"lat":43.3364103,"lng":5.4267426},"viewport":{"northeast":{"lat":43.33783077989272,"lng":5.428099479892722},"southwest":{"lat":43.33513112010728,"lng":5.425399820107279}}},"icon":"https://maps.gstatic.com/mapfiles/place_api/icons/v1/png_71/restaurant-71.png","icon_background_color":"#FF9E67","icon_mask_base_uri":"https://maps.gstatic.com/mapfiles/place_api/icons/v2/restaurant_pinlet","name":"Vegedal","opening_hours":{"open_now":true},"place_id":"ChIJjwXTJo6_yRIRuWiypFANuyc","plus_code":{"compound_code":"8CPG+HM Marseille","global_code":"8FM78CPG+HM"},"rating":3.7,"reference":"ChIJjwXTJo6_yRIRuWiypFANuyc","types":["restaurant","food","point_of_interest","establishment"],"user_ratings_total":3},{"business_status":"OPERATIONAL","formatted_address":"86 Bd Baille, 13006 Marseille","geometry":{"location":{"lat":43.2874559,"lng":5.3900372},"viewport":{"northeast":{"lat":43.28885417989273,"lng":5.391362529892721},"southwest":{"lat":43.28615452010728,"lng":5.388662870107277}}},"icon":"https://maps.gstatic.com/mapfiles/place_api/icons/v1/png_71/restaurant-71.png","icon_background_color":"#FF9E67","icon_mask_base_uri":"https://maps.gstatic.com/mapfiles/place_api/icons/v2/restaurant_pinlet","name":"Vegedal - Castellane","place_id":"ChIJJcARDW_ByRIRvBMljsBBEGQ","plus_code":{"compound_code":"79PR+X2 Marseille","global_code":"8FM779PR+X2"},"rating":3.3,"reference":"ChIJJcARDW_ByRIRvBMljsBBEGQ","types":["restaurant","food","point_of_interest","establishment"],"user_ratings_total":10},{"business_status":"OPERATIONAL","formatted_address":"28 Av. Roger Salengro, 13400 Aubagne","geometry":{"location":{"lat":43.29932240000001,"lng":5.569380799999999},"viewport":{"northeast":{"lat":43.30067562989272,"lng":5.570698529892722},"southwest":{"lat":43.29797597010727,"lng":5.567998870107278}}},"icon":"https://maps.gstatic.com/mapfiles/place_api/icons/v1/png_71/restaurant-71.png","icon_background_color":"#FF9E67","icon_mask_base_uri":"https://maps.gstatic.com/mapfiles/place_api/icons/v2/restaurant_pinlet","name":"Aubagne Nature","opening_hours":{"open_now":true},"photos":[{"height":3024,"html_attributions":["<a href=\"https://maps.google.com/maps/contrib/106412064215114885899\">Софья Кленицка</a>"],"photo_reference":"AeJbb3emMLuoXt7BhYdfCMqHLVjqPUaG1nwvw1VNDaCwmYd-AcoFK1m2UbL2wOUtV40dba3D-oPDJ2SrLStNGhAAryRz7PGJEoI5BP8UtV7CtfFq8GTFsjzqnObRxHpP4hr9tMIIyuRFJPdG2-LR2zB2VX1UPjDNRFEaKcsAstrmZ364qQXK","width":4032}],"place_id":"ChIJGa3B1C-jyRIRuSELYZEVzgk","plus_code":{"compound_code":"7HX9+PQ Aubagne","global_code":"8FM77HX9+PQ"},"rating":3.3,"reference":"ChIJGa3B1C-jyRIRuSELYZEVzgk","types":["restaurant","food","point_of_interest","establishment"],"user_ratings_total":3},{"business_status":"OPERATIONAL","formatted_address":"18 Pl. de Lenche, 13002 Marseille","geometry":{"location":{"lat":43.297815,"lng":5.365560700000001},"viewport":{"northeast":{"lat":43.29914267989273,"lng":5.366909529892722},"southwest":{"lat":43.29644302010728,"lng":5.364209870107278}}},"icon":"https://maps.gstatic.com/mapfiles/place_api/icons/v1/png_71/restaurant-71.png","icon_background_color":"#FF9E67","icon_mask_base_uri":"https://maps.gstatic.com/mapfiles/place_api/icons/v2/restaurant_pinlet","name":".","opening_hours":{"open_now":true},"photos":[{"height":2268,"html_attributions":["<a href=\"https://maps.google.com/maps/contrib/115980265266709308850\">A Google User</a>"],"photo_reference":"AeJbb3dA7UT_JuK9aDGLu1kqfRxnGziUxiz1TfTes_4e-8VmYj1VqaS9paMCChEcjBuukZuLyCK5XlXCUC3CHnqlgnq6EqSzpQssruumlJaYjM7rDNrGrQvBT2r6jejIll91pDHniBaKCSHegiMFNzqnqTUEJM3eAi3bwuKjxyWQaThEPeho","width":4032}],"place_id":"ChIJZQyKrMPAyRIRx94qn9SJB8Y","plus_code":{"compound_code":"79X8+46 Marseille","global_code":"8FM779X8+46"},"rating":3,"reference":"ChIJZQyKrMPAyRIRx94qn9SJB8Y","types":["restaurant","food","point_of_interest","establishment"],"user_ratings_total":91},{"business_status":"OPERATIONAL","formatted_address":"64 Av. Robert Schuman, 13002 Marseille","geometry":{"location":{"lat":43.3042806,"lng":5.3671507},"viewport":{"northeast":{"lat":43.30564527989272,"lng":5.368410979892722},"southwest":{"lat":43.30294562010727,"lng":5.365711320107278}}},"icon":"https://maps.gstatic.com/mapfiles/place_api/icons/v1/png_71/restaurant-71.png","icon_background_color":"#FF9E67","icon_mask_base_uri":"https://maps.gstatic.com/mapfiles/place_api/icons/v2/restaurant_pinlet","name":"Café végétarien","place_id":"ChIJJSWCax7ByRIRjq9zWATE-uE","plus_code":{"compound_code":"8938+PV Marseille","global_code":"8FM78938+PV"},"rating":0,"reference":"ChIJJSWCax7ByRIRjq9zWATE-uE","types":["restaurant","food","point_of_interest","establishment"],"user_ratings_total":0},{"business_status":"OPERATIONAL","formatted_address":"28 Av. Roger Salengro, 13400 Aubagne","geometry":{"location":{"lat":43.29932,"lng":5.56941},"viewport":{"northeast":{"lat":43.30067562989272,"lng":5.570698529892722},"southwest":{"lat":43.29797597010727,"lng":5.567998870107278}}},"icon":"https://maps.gstatic.com/mapfiles/place_api/icons/v1/png_71/restaurant-71.png","icon_background_color":"#FF9E67","icon_mask_base_uri":"https://maps.gstatic.com/mapfiles/place_api/icons/v2/restaurant_pinlet","name":"Café végétarien","place_id":"ChIJz2NdpqijyRIRXjIfWpChOcs","plus_code":{"compound_code":"7HX9+PQ Aubagne","global_code":"8FM77HX9+PQ"},"rating":0,"reference":"ChIJz2NdpqijyRIRXjIfWpChOcs","types":["restaurant","food","point_of_interest","establishment"],"user_ratings_total":0},{"business_status":"OPERATIONAL","formatted_address":"27 Pl. Sébastopol, 13004 Marseille","geometry":{"location":{"lat":43.2988627,"lng":5.3978698},"viewport":{"northeast":{"lat":43.30019612989272,"lng":5.39918957989272},"southwest":{"lat":43.29749647010728,"lng":5.396489920107276}}},"icon":"https://maps.gstatic.com/mapfiles/place_api/icons/v1/png_71/restaurant-71.png","icon_background_color":"#FF9E67","icon_mask_base_uri":"https://maps.gstatic.com/mapfiles/place_api/icons/v2/restaurant_pinlet","name":"Vegan Impact","place_id":"ChIJJRr6n2C_yRIR8i44yUXKT9Y","plus_code":{"compound_code":"79XX+G4 Marseille","global_code":"8FM779XX+G4"},"rating":0,"reference":"ChIJJRr6n2C_yRIR8i44yUXKT9Y","types":["restaurant","food","point_of_interest","establishment"],"user_ratings_total":0},{"business_status":"OPERATIONAL","formatted_address":"5 Av. de Luminy, 13009 Marseille","geometry":{"location":{"lat":43.2313225,"lng":5.4369427},"viewport":{"northeast":{"lat":43.23266162989272,"lng":5.438212579892722},"southwest":{"lat":43.22996197010728,"lng":5.435512920107278}}},"icon":"https://maps.gstatic.com/mapfiles/place_api/icons/v1/png_71/restaurant-71.png","icon_background_color":"#FF9E67","icon_mask_base_uri":"https://maps.gstatic.com/mapfiles/place_api/icons/v2/restaurant_pinlet","name":"ECOLOTRUCK","opening_hours":{"open_now":true},"photos":[{"height":1847,"html_attributions":["<a href=\"https://maps.google.com/maps/contrib/108134247677417512364\">A Google User</a>"],"photo_reference":"AeJbb3dGsUO3j95DqwOSOfdPzSVEwSq4aZAJmycawaiSb_vvRSP9B_nfsbl6l-dhD5Fqy0UNNyJmrkSeeIQV0oPcXUaQtAszqKjuM0mZ0YrVNkd1XnA0W7c5bQMxIY7HZTOmA6paHaMO4ZhwZKcDFJDgRMWin9ZRz65ZwcaWBgz2LRljiJXz","width":3282}],"place_id":"ChIJqZp5hgK5yRIRzd0Yr82PSY8","plus_code":{"compound_code":"6CJP+GQ Marseille","global_code":"8FM76CJP+GQ"},"rating":0,"reference":"ChIJqZp5hgK5yRIRzd0Yr82PSY8","types":["restaurant","food","point_of_interest","establishment"],"user_ratings_total":0}]