[{"business_status":"OPERATIONAL","formatted_address":"13 Rue Belle Ombre, 13009 Marseille","geometry":{"location":{"lat":43.2693374,"lng":5.4086962},"viewport":{"northeast":{"lat":43.27066432989272,"lng":5.409988529892722},"southwest":{"lat":43.26796467010728,"lng":5.407288870107278}}},"icon":"https://maps.gstatic.com/mapfiles/place_api/icons/v1/png_71/restaurant-71.png","icon_background_color":"#FF9E67","icon_mask_base_uri":"https://maps.gstatic.com/mapfiles/place_api/icons/v2/restaurant_pinlet","name":"Banh Mi Fusion","opening_hours":{"open_now":true},"photos":[{"height":2800,"html_attributions":["<a href=\"https://maps.google.com/maps/contrib/103811289242202164441\">A Google User</a>"],"photo_reference":"AeJbb3f7gP6BKKbTFqPW_ukW9Fr8iAB79hGq1Nla0iavPeWPpKFs3IWZkk9z4yXA24pzfELam5Hd3lpXOGOUzLO2xcFA8BFKgUeNNix14XV3GlePbYZDPpucHY5EFBNi_KbUcWbaonZkXpcyv2EcUbQFJWGwDsm2Myl2gtUcosLXKyP_8ZHr","width":4200}],"place_id":"ChIJERgWEvi5yRIRzXKSEtodMd8","plus_code":{"compound_code":"7C95+PF Marseille","global_code":"8FM77C95+PF"},"rating":5,"reference":"ChIJERgWEvi5yRIRzXKSEtodMd8","types":["restaurant","food","point_of_interest","establishment"],"user_ratings_total":7},{"business_status":"OPERATIONAL","formatted_address":"36 Cr de la République, 13120 Gardanne","geometry":{"location":{"lat":43.4561685,"lng":5.4719923},"viewport":{"northeast":{"lat":43.45753707989272,"lng":5.473268729892722},"southwest":{"lat":43.45483742010727,"lng":5.470569070107278}}},"icon":"https://maps.gstatic.com/mapfiles/place_api/icons/v1/png_71/restaurant-71.png","icon_background_color":"#FF9E67","icon_mask_base_uri":"https://maps.gstatic.com/mapfiles/place_api/icons/v2/restaurant_pinlet","name":"RESTAURANT VIETNAMIEN PHAN GIA","opening_hours":{"open_now":false},"place_id":"ChIJKztOK9-TyRIR9dFxa_Mdncs","plus_code":{"compound_code":"FF4C+FQ Gardanne","global_code":"8FM7FF4C+FQ"},"rating":4.9,"reference":"ChIJKztOK9-TyRIR9dFxa_Mdncs","types":["liquor_store","bar","restaurant","store","food","point_of_interest","establishment"],"user_ratings_total":155},{"business_status":"OPERATIONAL","formatted_address":"35 Rue Sainte, 13001 Marseille","geometry":{"location":{"lat":43.2923467,"lng":5.375204999999999},"viewport":{"northeast":{"lat":43.29376012989272,"lng":5.376544929892722},"southwest":{"lat":43.29106047010728,"lng":5.373845270107278}}},"icon":"https://maps.gstatic.com/mapfiles/place_api/icons/v1/png_71/restaurant-71.png","icon_background_color":"#FF9E67","icon_mask_base_uri":"https://maps.gstatic.com/mapfiles/place_api/icons/v2/restaurant_pinlet","name":"Ca Phe S - Vietnamese Coffee","opening_hours":{"open_now":true},"photos":[{"height":3456,"html_attributions":["<a href=\"https://maps.google.com/maps/contrib/115051570263131211085\">Hakim Louati</a>"],"photo_reference":"AeJbb3cb5TLjCvvdg4J-xoBNfnTzuWrgV1jdT0YJ9i2njsaCkgg6mw9jx7tePdjQr_p9odNV0GHpSeZnh7A3cu0USCMx0vL6a4Zj42Woft-hr9TFd4pGP7Jt2w8NFVRm06jOp8Ip6VSzVQFGbZb1RsN4_igRXUjby1xEG1wDHfC4wYJi9otH","width":4608}],"place_id":"ChIJ2dIaY_rByRIRWYEc29VLIx4","plus_code":{"compound_code":"79RG+W3 Marseille","global_code":"8FM779RG+W3"},"rating":4.8,"reference":"ChIJ2dIaY_rByRIRWYEc29VLIx4","types":["restaurant","food","point_of_interest","establishment"],"user_ratings_total":214},{"business_status":"OPERATIONAL","formatted_address":"Avenue de la Gratiane 13320, 13320 Bouc-Bel-Air","geometry":{"location":{"lat":43.4601844,"lng":5.4139189},"viewport":{"northeast":{"lat":43.46157007989272,"lng":5.415289379892722},"southwest":{"lat":43.45887042010727,"lng":5.412589720107278}}},"icon":"https://maps.gstatic.com/mapfiles/place_api/icons/v1/png_71/restaurant-71.png","icon_background_color":"#FF9E67","icon_mask_base_uri":"https://maps.gstatic.com/mapfiles/place_api/icons/v2/restaurant_pinlet","name":"BOBUN NEM EXPRESS","opening_hours":{"open_now":true},"place_id":"ChIJRchmaT2TyRIRV5pMHrcs7DM","plus_code":{"compound_code":"FC67+3H Bouc-Bel-Air","global_code":"8FM7FC67+3H"},"rating":4.8,"reference":"ChIJRchmaT2TyRIRV5pMHrcs7DM","types":["meal_takeaway","restaurant","food","point_of_interest","establishment"],"user_ratings_total":55},{"business_status":"OPERATIONAL","formatted_address":"1 Av. Alice, 13400 Aubagne","geometry":{"location":{"lat":43.283074,"lng":5.5333099},"viewport":{"northeast":{"lat":43.28446022989272,"lng":5.534665329892722},"southwest":{"lat":43.28176057010727,"lng":5.531965670107278}}},"icon":"https://maps.gstatic.com/mapfiles/place_api/icons/v1/png_71/restaurant-71.png","icon_background_color":"#FF9E67","icon_mask_base_uri":"https://maps.gstatic.com/mapfiles/place_api/icons/v2/restaurant_pinlet","name":"Restaurant Tan A","opening_hours":{"open_now":false},"place_id":"ChIJlw-dhpC8yRIR6h01jN8Y4XY","plus_code":{"compound_code":"7GMM+68 Aubagne","global_code":"8FM77GMM+68"},"price_level":1,"rating":4.7,"reference":"ChIJlw-dhpC8yRIR6h01jN8Y4XY","types":["restaurant","food","point_of_interest","establishment"],"user_ratings_total":347},{"business_status":"OPERATIONAL","formatted_address":"176 Bd Voltaire, 13821 La Penne-sur-Huveaune","geometry":{"location":{"lat":43.2810654,"lng":5.518129099999999},"viewport":{"northeast":{"lat":43.28248342989272,"lng":5.519492779892722},"southwest":{"lat":43.27978377010728,"lng":5.516793120107279}}},"icon":"https://maps.gstatic.com/mapfiles/place_api/icons/v1/png_71/restaurant-71.png","icon_background_color":"#FF9E67","icon_mask_base_uri":"https://maps.gstatic.com/mapfiles/place_api/icons/v2/restaurant_pinlet","name":"Viet Xua","opening_hours":{"open_now":false},"photos":[{"height":3000,"html_attributions":["<a href=\"https://maps.google.com/maps/contrib/117861248289585711219\">Philippe Huynh</a>"],"photo_reference":"AeJbb3d8s3m8WS_KM5blB9fH08sAuTHvPWrNnoPg-nPi1ZqeXtspMhNSqkk6CJ9AcNJw5XISXDTWK9WzN_l_faij3Fr4Rod8bThyCCdvFhOtLPiCHbOoO2FLvlEBEKXeR-1Qb_MivTiS5VSbJy2fWV9PW2OmU_4t1N1qVTtZHzAV7guWAv7-","width":5333}],"place_id":"ChIJ-4DIoH28yRIR1Q-iEcz3LRA","plus_code":{"compound_code":"7GJ9+C7 La Penne-sur-Huveaune","global_code":"8FM77GJ9+C7"},"price_level":1,"rating":4.7,"reference":"ChIJ-4DIoH28yRIR1Q-iEcz3LRA","types":["restaurant","food","point_of_interest","establishment"],"user_ratings_total":257},{"business_status":"OPERATIONAL","formatted_address":"3 Rue 3 Frères Barthélémy, 13006 Marseille","geometry":{"location":{"lat":43.292702,"lng":5.384122899999999},"viewport":{"northeast":{"lat":43.29399627989273,"lng":5.385509679892722},"southwest":{"lat":43.29129662010728,"lng":5.382810020107279}}},"icon":"https://maps.gstatic.com/mapfiles/place_api/icons/v1/png_71/restaurant-71.png","icon_background_color":"#FF9E67","icon_mask_base_uri":"https://maps.gstatic.com/mapfiles/place_api/icons/v2/restaurant_pinlet","name":"La Source de Jade","opening_hours":{"open_now":false},"place_id":"ChIJZysFoaTAyRIRh7f9nMAn8aY","plus_code":{"compound_code":"79VM+3J Marseille","global_code":"8FM779VM+3J"},"price_level":1,"rating":4.7,"reference":"ChIJZysFoaTAyRIRh7f9nMAn8aY","types":["restaurant","food","point_of_interest","establishment"],"user_ratings_total":231},{"business_status":"OPERATIONAL","formatted_address":"39 Av. François Mitterrand, 13170 Les Pennes-Mirabeau","geometry":{"location":{"lat":43.3784514,"lng":5.3518474},"viewport":{"northeast":{"lat":43.37978657989272,"lng":5.353247729892722},"southwest":{"lat":43.37708692010728,"lng":5.350548070107277}}},"icon":"https://maps.gstatic.com/mapfiles/place_api/icons/v1/png_71/restaurant-71.png","icon_background_color":"#FF9E67","icon_mask_base_uri":"https://maps.gstatic.com/mapfiles/place_api/icons/v2/restaurant_pinlet","name":"Binh Dan","opening_hours":{"open_now":false},"photos":[{"height":4032,"html_attributions":["<a href=\"https://maps.google.com/maps/contrib/116457471533335846699\">Aurélien</a>"],"photo_reference":"AeJbb3cpcZUP2r6jqQOv5WUzGH08RJ1jxgeQajVaret_QXP7xsxxP9Swy0-KDgb_PMOlDFI8Q8WRU9HoqYjIfJydnmEhlVyfYS9zUMV-7L8AehjtgnLdlAUMaDXmsu9pv1gixA5PElRGurhQUWGhkC-LSQ8NjKDbnNNYKozPCETH3uBDsc_5","width":3024}],"place_id":"ChIJC3UJ-V_qyRIRx3V-UTqUl64","plus_code":{"compound_code":"99H2+9P Les Pennes-Mirabeau","global_code":"8FM799H2+9P"},"price_level":1,"rating":4.7,"reference":"ChIJC3UJ-V_qyRIRx3V-UTqUl64","types":["meal_takeaway","restaurant","food","point_of_interest","establishment"],"user_ratings_total":172},{"business_status":"OPERATIONAL","formatted_address":"56 Rue d'Italie, 13006 Marseille","geometry":{"location":{"lat":43.2883755,"lng":5.3830933},"viewport":{"northeast":{"lat":43.28973912989272,"lng":5.384484829892721},"southwest":{"lat":43.28703947010727,"lng":5.381785170107277}}},"icon":"https://maps.gstatic.com/mapfiles/place_api/icons/v1/png_71/restaurant-71.png","icon_background_color":"#FF9E67","icon_mask_base_uri":"https://maps.gstatic.com/mapfiles/place_api/icons/v2/restaurant_pinlet","name":"TANTAKY","opening_hours":{"open_now":false},"photos":[{"height":1440,"html_attributions":["<a href=\"https://maps.google.com/maps/contrib/100146434986028587980\">A Google User</a>"],"photo_reference":"AeJbb3eXiCpfoGRw_NSAZ1fmoTA7bXN70OjG1xgTt0ERPU5oqcU5uqw16Dky51ecWOs2uiFfRAfSUMlTpy88QXIdg8tZ5UI2-E81yQvJ3-1FIBgol_d1odBcvSFf_DITjctCjR65t9R2LU168kGfmi0-5el3IPOIbougR02jmVW8ext-D8XN","width":1440}],"place_id":"ChIJU14BQGXByRIRocCoTJ8ITTI","plus_code":{"compound_code":"79QM+96 Marseille","global_code":"8FM779QM+96"},"rating":4.7,"reference":"ChIJU14BQGXByRIRocCoTJ8ITTI","types":["restaurant","food","point_of_interest","establishment"],"user_ratings_total":150},{"business_status":"OPERATIONAL","formatted_address":"5 Rue Alfred Curtel, 13010 Marseille","geometry":{"location":{"lat":43.2799764,"lng":5.4082702},"viewport":{"northeast":{"lat":43.28134607989273,"lng":5.409551229892722},"southwest":{"lat":43.27864642010728,"lng":5.406851570107278}}},"icon":"https://maps.gstatic.com/mapfiles/place_api/icons/v1/png_71/restaurant-71.png","icon_background_color":"#FF9E67","icon_mask_base_uri":"https://maps.gstatic.com/mapfiles/place_api/icons/v2/restaurant_pinlet","name":"A Tay","opening_hours":{"open_now":false},"place_id":"ChIJa00lwUy_yRIRh-t9Pw6-iow","plus_code":{"compound_code":"7CH5+X8 Marseille","global_code":"8FM77CH5+X8"},"price_level":1,"rating":4.7,"reference":"ChIJa00lwUy_yRIRh-t9Pw6-iow","types":["bar","restaurant","food","point_of_interest","establishment"],"user_ratings_total":137},{"business_status":"OPERATIONAL","formatted_address":"1 Rue Bernex, 13001 Marseille","geometry":{"location":{"lat":43.30042770000001,"lng":5.3884653},"viewport":{"northeast":{"lat":43.30175722989271,"lng":5.389844829892722},"southwest":{"lat":43.29905757010727,"lng":5.387145170107278}}},"icon":"https://maps.gstatic.com/mapfiles/place_api/icons/v1/png_71/restaurant-71.png","icon_background_color":"#FF9E67","icon_mask_base_uri":"https://maps.gstatic.com/mapfiles/place_api/icons/v2/restaurant_pinlet","name":"Ô Ha Noi","opening_hours":{"open_now":false},"photos":[{"height":1472,"html_attributions":["<a href=\"https://maps.google.com/maps/contrib/104758104513663466394\">A Google User</a>"],"photo_reference":"AeJbb3cq8PwN7dzdPZGinlOEQ2hY48ZEaukdbLNdky_UW-MCUxMUpWaVJCy7WGk9QLB4g5bWT9o3E0jZPcELoz4CqGWyQ2KbLhwcZPJiijFofEb0bcqjElrXpm_LNTTPzL95h2gloS-KcR8-NhCRSbyQBd9Ym8NuZrn1rsoMv_-7g0H_wRO2","width":2070}],"place_id":"ChIJUyczvzvByRIRoGy6vud1asc","plus_code":{"compound_code":"892Q+59 Marseille","global_code":"8FM7892Q+59"},"rating":4.7,"reference":"ChIJUyczvzvByRIRoGy6vud1asc","types":["restaurant","food","point_of_interest","establishment"],"user_ratings_total":24},{"business_status":"OPERATIONAL","formatted_address":"6 Rue Méry, 13002 Marseille","geometry":{"location":{"lat":43.2983333,"lng":5.371111099999999},"viewport":{"northeast":{"lat":43.29970112989272,"lng":5.372400979892721},"southwest":{"lat":43.29700147010728,"lng":5.369701320107278}}},"icon":"https://maps.gstatic.com/mapfiles/place_api/icons/v1/png_71/restaurant-71.png","icon_background_color":"#FF9E67","icon_mask_base_uri":"https://maps.gstatic.com/mapfiles/place_api/icons/v2/restaurant_pinlet","name":"Nguyen-Hoang","opening_hours":{"open_now":false},"photos":[{"height":1796,"html_attributions":["<a href=\"https://maps.google.com/maps/contrib/118298720514436102800\">Olga Perepelitsa</a>"],"photo_reference":"AeJbb3fyxDeWbZFBwu4krBqxlZCMCvks9EdOzD4Wb-O3rE26GUojGa9bjIWdwXBKg9Xhkk-ktOKuDpPQ-56dQxNyYCORe5FXcheBZ4cydqVtJ0dVmyk15hWzWsQUwIxoLazdfTZT1EGpakOWOrsLWjRO_K17p6I6yTaks9Jo94qOW5JrOZxu","width":2964}],"place_id":"ChIJx7HcT8DAyRIRRgHK2irnm00","plus_code":{"compound_code":"79XC+8C Marseille","global_code":"8FM779XC+8C"},"price_level":1,"rating":4.6,"reference":"ChIJx7HcT8DAyRIRRgHK2irnm00","types":["bar","restaurant","food","point_of_interest","establishment"],"user_ratings_total":418},{"business_status":"OPERATIONAL","formatted_address":"21 Av. des Chartreux, 13004 Marseille","geometry":{"location":{"lat":43.3036573,"lng":5.3977121},"viewport":{"northeast":{"lat":43.30498787989272,"lng":5.399099679892722},"southwest":{"lat":43.30228822010728,"lng":5.396400020107278}}},"icon":"https://maps.gstatic.com/mapfiles/place_api/icons/v1/png_71/restaurant-71.png","icon_background_color":"#FF9E67","icon_mask_base_uri":"https://maps.gstatic.com/mapfiles/place_api/icons/v2/restaurant_pinlet","name":"Restaurant Riz d'Or","opening_hours":{"open_now":false},"photos":[{"height":7296,"html_attributions":["<a href=\"https://maps.google.com/maps/contrib/100140684291227496030\">Nicolas Climber</a>"],"photo_reference":"AeJbb3chWiAmyCZKdEJ3Weu0RZT2zjIeAjhAWxsEWBfzweyzm7SHsZwuwN1zA0obf-bnSItInq01GJK6P_bq6ZJSYOghsLObevuRRV9OWs2Zh_KCKOhEcuxQBGFDc3MZjDKp-aD7aclrup5h9ieYAL0KQa8rCHeJpD9hGUGIaFp9-e5kxZ94","width":5472}],"place_id":"ChIJU_QvYGG_yRIRNUpHAF2hEMU","plus_code":{"compound_code":"893X+F3 Marseille","global_code":"8FM7893X+F3"},"price_level":2,"rating":4.6,"reference":"ChIJU_QvYGG_yRIRNUpHAF2hEMU","types":["restaurant","food","point_of_interest","establishment"],"user_ratings_total":305},{"business_status":"OPERATIONAL","formatted_address":"48 Av. Jean Mermoz, 13700 Marignane","geometry":{"location":{"lat":43.4189821,"lng":5.214012400000001},"viewport":{"northeast":{"lat":43.42034347989272,"lng":5.215350679892722},"southwest":{"lat":43.41764382010728,"lng":5.212651020107278}}},"icon":"https://maps.gstatic.com/mapfiles/place_api/icons/v1/png_71/restaurant-71.png","icon_background_color":"#FF9E67","icon_mask_base_uri":"https://maps.gstatic.com/mapfiles/place_api/icons/v2/restaurant_pinlet","name":"La Baie d’Along","opening_hours":{"open_now":false},"place_id":"ChIJbdYUjDzmyRIRVZeadgnXOVU","plus_code":{"compound_code":"C697+HJ Marignane","global_code":"8FM7C697+HJ"},"price_level":2,"rating":4.6,"reference":"ChIJbdYUjDzmyRIRVZeadgnXOVU","types":["restaurant","food","point_of_interest","establishment"],"user_ratings_total":248},{"business_status":"OPERATIONAL","formatted_address":"16 Bd Bara, 13013 Marseille","geometry":{"location":{"lat":43.351641,"lng":5.439914},"viewport":{"northeast":{"lat":43.35302952989272,"lng":5.441295529892723},"southwest":{"lat":43.35032987010728,"lng":5.438595870107279}}},"icon":"https://maps.gstatic.com/mapfiles/place_api/icons/v1/png_71/restaurant-71.png","icon_background_color":"#FF9E67","icon_mask_base_uri":"https://maps.gstatic.com/mapfiles/place_api/icons/v2/restaurant_pinlet","name":"La Baie d'Along","opening_hours":{"open_now":false},"place_id":"ChIJn7FZyCu-yRIRxiyXh-InGFQ","plus_code":{"compound_code":"9C2Q+MX Marseille","global_code":"8FM79C2Q+MX"},"rating":4.6,"reference":"ChIJn7FZyCu-yRIRxiyXh-InGFQ","types":["liquor_store","bar","restaurant","store","food","point_of_interest","establishment"],"user_ratings_total":204},{"business_status":"OPERATIONAL","formatted_address":"57 Rue de Forbin, 13002 Marseille","geometry":{"location":{"lat":43.3047797,"lng":5.3678851},"viewport":{"northeast":{"lat":43.30619157989273,"lng":5.369270929892722},"southwest":{"lat":43.30349192010728,"lng":5.366571270107278}}},"icon":"https://maps.gstatic.com/mapfiles/place_api/icons/v1/png_71/restaurant-71.png","icon_background_color":"#FF9E67","icon_mask_base_uri":"https://maps.gstatic.com/mapfiles/place_api/icons/v2/restaurant_pinlet","name":"NOODLES Chôp - Vitamin Food","opening_hours":{"open_now":false},"photos":[{"height":1073,"html_attributions":["<a href=\"https://maps.google.com/maps/contrib/116385085046004745557\">Noodles Chôp</a>"],"photo_reference":"AeJbb3fD7SQbaIu4Zy3GljKYN6TmjHvfPNd_3YlTfSzMiZt4zlvfqDBM269uWbJg55BGZMKMHASmhinti1_Kt9o3tbTnfhv9oUdYLLmGt4VsaADDnN0Cl792-G-3DczKG6BY4-z72DkBdMt6X9ECWhWvlwnPay_HVbFp_PqzKlpyuz4gSHx6","width":1073}],"place_id":"ChIJ40bD_uvAyRIRbvCCyF2Dg_0","plus_code":{"compound_code":"8939+W5 Marseille","global_code":"8FM78939+W5"},"price_level":1,"rating":4.6,"reference":"ChIJ40bD_uvAyRIRbvCCyF2Dg_0","types":["restaurant","food","point_of_interest","establishment"],"user_ratings_total":164},{"business_status":"OPERATIONAL","formatted_address":"14 Rue de la Mûre, 13002 Marseille","geometry":{"location":{"lat":43.2974674,"lng":5.371975},"viewport":{"northeast":{"lat":43.29895847989272,"lng":5.373303429892722},"southwest":{"lat":43.29625882010728,"lng":5.370603770107278}}},"icon":"https://maps.gstatic.com/mapfiles/place_api/icons/v1/png_71/restaurant-71.png","icon_background_color":"#FF9E67","icon_mask_base_uri":"https://maps.gstatic.com/mapfiles/place_api/icons/v2/restaurant_pinlet","name":"Vientiane Restaurant","opening_hours":{"open_now":false},"photos":[{"height":3120,"html_attributions":["<a href=\"https://maps.google.com/maps/contrib/115987354675485961514\">A Google User</a>"],"photo_reference":"AeJbb3cZ7Ifdst0Iv9G7oGJsJCb8ij4fW3vG-DBFtG7N8v30ZqPuLyagmTXLrrTwcTjUJpv4gGRAsTklR5P9D336frjQDkgM-BQROCYrUSaScI69cdl7H3U0HGq6FGPVKyABbq6DCGf72KqaZOktkQkEdoBN4AjY6pbYZ-XybksBTliu7pdv","width":4160}],"place_id":"ChIJF79pisDAyRIRqchp_i4qU-A","plus_code":{"compound_code":"79WC+XQ Marseille","global_code":"8FM779WC+XQ"},"price_level":1,"rating":4.6,"reference":"ChIJF79pisDAyRIRqchp_i4qU-A","types":["restaurant","food","point_of_interest","establishment"],"user_ratings_total":116},{"business_status":"OPERATIONAL","formatted_address":"175 Bd de Saint-Marcel, 13011 Marseille","geometry":{"location":{"lat":43.2875151,"lng":5.4656991},"viewport":{"northeast":{"lat":43.28879207989272,"lng":5.467006979892722},"southwest":{"lat":43.28609242010727,"lng":5.464307320107278}}},"icon":"https://maps.gstatic.com/mapfiles/place_api/icons/v1/png_71/restaurant-71.png","icon_background_color":"#FF9E67","icon_mask_base_uri":"https://maps.gstatic.com/mapfiles/place_api/icons/v2/restaurant_pinlet","name":"Long chau","opening_hours":{"open_now":false},"place_id":"ChIJ1-Zt7Lq-yRIRGR_UlWC8-yM","plus_code":{"compound_code":"7FQ8+27 Marseille","global_code":"8FM77FQ8+27"},"price_level":1,"rating":4.6,"reference":"ChIJ1-Zt7Lq-yRIRGR_UlWC8-yM","types":["restaurant","food","point_of_interest","establishment"],"user_ratings_total":106},{"business_status":"OPERATIONAL","formatted_address":"1 Pl. Joseph Rau, 13400 Aubagne","geometry":{"location":{"lat":43.2919287,"lng":5.569922},"viewport":{"northeast":{"lat":43.29331752989273,"lng":5.571241379892721},"southwest":{"lat":43.29061787010728,"lng":5.568541720107277}}},"icon":"https://maps.gstatic.com/mapfiles/place_api/icons/v1/png_71/restaurant-71.png","icon_background_color":"#FF9E67","icon_mask_base_uri":"https://maps.gstatic.com/mapfiles/place_api/icons/v2/restaurant_pinlet","name":"Dragon de Jade","opening_hours":{"open_now":false},"photos":[{"height":3136,"html_attributions":["<a href=\"https://maps.google.com/maps/contrib/117728289221124473840\">117728289221124473840</a>"],"photo_reference":"AeJbb3c-7eN95OyXQx90Pgzq8BjH5XU5pNzw5d8KNkzhI-gTFUM7L8OabBG2XO156go-XIPAYpFUXQE-p2UTJAT4nKcefCaqeIjtH9ZEprOjMbRfWmbhBV9Ljx4p48fQy2VmUBp6LHvRAM9qkK94B35L067hLVIzxZ7hW5LD-zVGQ11p2IVI","width":4224}],"place_id":"ChIJzamAyjejyRIRglcu-b6WYUY","plus_code":{"compound_code":"7HR9+QX Aubagne","global_code":"8FM77HR9+QX"},"rating":4.6,"reference":"ChIJzamAyjejyRIRglcu-b6WYUY","types":["restaurant","food","point_of_interest","establishment"],"user_ratings_total":92},{"business_status":"OPERATIONAL","formatted_address":"34 Av. de Saint-Just, 13004 Marseille","geometry":{"location":{"lat":43.3137509,"lng":5.4026773},"viewport":{"northeast":{"lat":43.31509677989273,"lng":5.404036629892722},"southwest":{"lat":43.31239712010728,"lng":5.401336970107278}}},"icon":"https://maps.gstatic.com/mapfiles/place_api/icons/v1/png_71/restaurant-71.png","icon_background_color":"#FF9E67","icon_mask_base_uri":"https://maps.gstatic.com/mapfiles/place_api/icons/v2/restaurant_pinlet","name":"Jade d'Asie","opening_hours":{"open_now":false},"photos":[{"height":4032,"html_attributions":["<a href=\"https://maps.google.com/maps/contrib/109858098649453498899\">A Google User</a>"],"photo_reference":"AeJbb3eiBM6Cgca7DtP2o9Hl2LL1IsJr2zDJK2gokIULExtQXWJPYSh1JQC-0VYonNit_KZuBBrX5kKwUIGPiWD7RqmA786wmFL0tZhZh8CYWbttmA4vj3GUzKZN8ypMj5eI4AtCJ9c9BjJEqi1lceKyZ8cZJZR9pyAZ2IhLzIn-eXLOGd4I","width":3024}],"place_id":"ChIJdaebDim_yRIRoPJgzi-xXVw","plus_code":{"compound_code":"8C73+G3 Marseille","global_code":"8FM78C73+G3"},"rating":4.6,"reference":"ChIJdaebDim_yRIRoPJgzi-xXVw","types":["restaurant","food","point_of_interest","establishment"],"user_ratings_total":72},{"business_status":"OPERATIONAL","formatted_address":"13 Rue Belle Ombre, 13009 Marseille","geometry":{"location":{"lat":43.2693374,"lng":5.4086962},"viewport":{"northeast":{"lat":43.27066307989271,"lng":5.409989429892722},"southwest":{"lat":43.26796342010727,"lng":5.407289770107278}}},"icon":"https://maps.gstatic.com/mapfiles/place_api/icons/v1/png_71/restaurant-71.png","icon_background_color":"#FF9E67","icon_mask_base_uri":"https://maps.gstatic.com/mapfiles/place_api/icons/v2/restaurant_pinlet","name":"KUNG PHO","opening_hours":{"open_now":false},"photos":[{"height":630,"html_attributions":["<a href=\"https://maps.google.com/maps/contrib/113650134422710356406\">A Google User</a>"],"photo_reference":"AeJbb3frA2wpsARRsTrtJB970IVYJ4de8FPJ4QBlo9xYe-c03laeE0UhPqIqD16KbCRw7wAt-2rgkPrhUsx88DNH9peEcbb1ObdG9Bbn9H4b1q-ESFgYIIAywMK3U3YNLELL-KaiuDX7MvWEpwjQS2ROCwqOwNUsEpYHdMSOVXHkqqD3Vw1N","width":1120}],"place_id":"ChIJdZVr4R25yRIREHvFg6rtUD0","plus_code":{"compound_code":"7C95+PF Marseille","global_code":"8FM77C95+PF"},"rating":4.6,"reference":"ChIJdZVr4R25yRIREHvFg6rtUD0","types":["restaurant","food","point_of_interest","establishment"],"user_ratings_total":70},{"business_status":"OPERATIONAL","formatted_address":"38 Rue d'Italie, 13006 Marseille","geometry":{"location":{"lat":43.2890658,"lng":5.3826661},"viewport":{"northeast":{"lat":43.29042677989272,"lng":5.384047079892721},"southwest":{"lat":43.28772712010728,"lng":5.381347420107277}}},"icon":"https://maps.gstatic.com/mapfiles/place_api/icons/v1/png_71/restaurant-71.png","icon_background_color":"#FF9E67","icon_mask_base_uri":"https://maps.gstatic.com/mapfiles/place_api/icons/v2/restaurant_pinlet","name":"Au Viet Thai","opening_hours":{"open_now":false},"photos":[{"height":4032,"html_attributions":["<a href=\"https://maps.google.com/maps/contrib/112400377191869752897\">A Google User</a>"],"photo_reference":"AeJbb3f7iOk2GvRqij1SFRcUSxdnp9RQEzX2MAuuqQbnSXpTAs4X7I9vujgMZEl2VIB0p3jfo-SsIz0g1-n8PEXVFHJUP_SEURpYlMg06A9M69546m9QW8ht0WA1FCPCO9lAwm8dwQGZJJFRkJ-QKaDs4UJsatTgp8sdLUnygxwSL23S9pNE","width":3024}],"place_id":"ChIJ-9dbb_nByRIR4F_PE4q59tQ","plus_code":{"compound_code":"79QM+J3 Marseille","global_code":"8FM779QM+J3"},"rating":4.6,"reference":"ChIJ-9dbb_nByRIR4F_PE4q59tQ","types":["restaurant","food","point_of_interest","establishment"],"user_ratings_total":59},{"business_status":"OPERATIONAL","formatted_address":"Bhbdemenagement.com, 33 Rue Coutellerie, 13002 Marseille","geometry":{"location":{"lat":43.29668220000001,"lng":5.3724757},"viewport":{"northeast":{"lat":43.29807142989272,"lng":5.373819279892722},"southwest":{"lat":43.29537177010728,"lng":5.371119620107279}}},"icon":"https://maps.gstatic.com/mapfiles/place_api/icons/v1/png_71/restaurant-71.png","icon_background_color":"#FF9E67","icon_mask_base_uri":"https://maps.gstatic.com/mapfiles/place_api/icons/v2/restaurant_pinlet","name":"Chez Tri","opening_hours":{"open_now":false},"photos":[{"height":4032,"html_attributions":["<a href=\"https://maps.google.com/maps/contrib/116503474170853453286\">Nathan</a>"],"photo_reference":"AeJbb3cA1_Z7EiIFTajyEJ9huZdvpudDLRGOrsGOsLtxIgt7KfUSbh8D7DcE0Xuu6y6oeg5gNvmjXFpK9pm9X_sxLnH0MAmvZAumtPHPx2ZQzK0HHq2LrsQnR4NLRvBy7ArgNMo9lYZOSBAdjtGbGkeiLIAl-JkPFSzAJyBvGzApnO4h7p8Z","width":3024}],"place_id":"ChIJKy3Nm8DAyRIRU7E1lkQYbyo","plus_code":{"compound_code":"79WC+MX Marseille","global_code":"8FM779WC+MX"},"price_level":1,"rating":4.6,"reference":"ChIJKy3Nm8DAyRIRU7E1lkQYbyo","types":["bar","restaurant","food","point_of_interest","establishment"],"user_ratings_total":47},{"business_status":"OPERATIONAL","formatted_address":"1 Rue de la Frago, 13470 Carnoux-en-Provence","geometry":{"location":{"lat":43.26061989999999,"lng":5.574275399999999},"viewport":{"northeast":{"lat":43.26195167989273,"lng":5.575552479892721},"southwest":{"lat":43.25925202010728,"lng":5.572852820107277}}},"icon":"https://maps.gstatic.com/mapfiles/place_api/icons/v1/png_71/restaurant-71.png","icon_background_color":"#FF9E67","icon_mask_base_uri":"https://maps.gstatic.com/mapfiles/place_api/icons/v2/restaurant_pinlet","name":"Tan Viet","opening_hours":{"open_now":false},"place_id":"ChIJ-09Ww7qkyRIR_NF4b4uuY2I","plus_code":{"compound_code":"7H6F+6P Carnoux-en-Provence","global_code":"8FM77H6F+6P"},"price_level":2,"rating":4.5,"reference":"ChIJ-09Ww7qkyRIR_NF4b4uuY2I","types":["bar","meal_takeaway","restaurant","food","point_of_interest","establishment"],"user_ratings_total":241},{"business_status":"OPERATIONAL","formatted_address":"108 Cor Président John Fitzgerald Kennedy, 13007 Marseille","geometry":{"location":{"lat":43.2833419,"lng":5.3501083},"viewport":{"northeast":{"lat":43.28471262989272,"lng":5.351530729892722},"southwest":{"lat":43.28201297010727,"lng":5.348831070107278}}},"icon":"https://maps.gstatic.com/mapfiles/place_api/icons/v1/png_71/restaurant-71.png","icon_background_color":"#FF9E67","icon_mask_base_uri":"https://maps.gstatic.com/mapfiles/place_api/icons/v2/restaurant_pinlet","name":"Son Thuy","opening_hours":{"open_now":false},"place_id":"ChIJg9cS7yrByRIR_zT51t8ykF4","plus_code":{"compound_code":"79M2+82 Marseille","global_code":"8FM779M2+82"},"price_level":1,"rating":4.5,"reference":"ChIJg9cS7yrByRIR_zT51t8ykF4","types":["restaurant","food","point_of_interest","establishment"],"user_ratings_total":225},{"business_status":"OPERATIONAL","formatted_address":"2 Rue Dr Escat, 13006 Marseille","geometry":{"location":{"lat":43.2838824,"lng":5.3839424},"viewport":{"northeast":{"lat":43.28521652989272,"lng":5.385292179892721},"southwest":{"lat":43.28251687010727,"lng":5.382592520107277}}},"icon":"https://maps.gstatic.com/mapfiles/place_api/icons/v1/png_71/restaurant-71.png","icon_background_color":"#FF9E67","icon_mask_base_uri":"https://maps.gstatic.com/mapfiles/place_api/icons/v2/restaurant_pinlet","name":"Le Petit Hanoi","opening_hours":{"open_now":false},"photos":[{"height":2448,"html_attributions":["<a href=\"https://maps.google.com/maps/contrib/110769458254307653365\">JC</a>"],"photo_reference":"AeJbb3fGNUMBH8lysviH3T4PXQR7ba7t63wBdXJAHOy--07n3_ZHWmB1FwaTsgnxo5c7oQrC_uLlO9s4G76gyAr9OzthsZzm7YKxGSCHioF3_ygrB-PKMp9bEUpZp8ZTyOQ6hDJJDyAJB-Bp15F-AwQ3PiZ2EHxrjH2RdyFJoESAj2Uo54Io","width":3264}],"place_id":"ChIJmyZDpB_ByRIRCvfroPlkxSE","plus_code":{"compound_code":"79MM+HH Marseille","global_code":"8FM779MM+HH"},"rating":4.5,"reference":"ChIJmyZDpB_ByRIRCvfroPlkxSE","types":["restaurant","food","point_of_interest","establishment"],"user_ratings_total":154},{"business_status":"OPERATIONAL","formatted_address":"7 Rue Bonneterie, 13002 Marseille","geometry":{"location":{"lat":43.2969985,"lng":5.3715206},"viewport":{"northeast":{"lat":43.29836277989271,"lng":5.372925329892722},"southwest":{"lat":43.29566312010727,"lng":5.370225670107278}}},"icon":"https://maps.gstatic.com/mapfiles/place_api/icons/v1/png_71/restaurant-71.png","icon_background_color":"#FF9E67","icon_mask_base_uri":"https://maps.gstatic.com/mapfiles/place_api/icons/v2/restaurant_pinlet","name":"Khai Hoan","opening_hours":{"open_now":false},"photos":[{"height":2322,"html_attributions":["<a href=\"https://maps.google.com/maps/contrib/102995138102489152360\">Mariem elMokhtar</a>"],"photo_reference":"AeJbb3cRXfbCTi5j2y03LEGd8Xke6oUZge53op9kfc8Loz5K-sfnAEBH3zMRtCjeuvqYiQUEMTaK4Gu6bkq-d7VN5aEI81wfVtsQCBCr8akJTD5F1Oi46CxLmO5Bgd6-BibxrZCbVWhXsVmQhqr8WRTBVD6H556pDUWaJdbl8Ez_mh1M4iv4","width":4128}],"place_id":"ChIJ9ROS8sDAyRIRqmZLmbpEBSc","plus_code":{"compound_code":"79WC+QJ Marseille","global_code":"8FM779WC+QJ"},"price_level":1,"rating":4.4,"reference":"ChIJ9ROS8sDAyRIRqmZLmbpEBSc","types":["restaurant","food","point_of_interest","establishment"],"user_ratings_total":310},{"business_status":"OPERATIONAL","formatted_address":"221 Bd de la Libération, 13004 Marseille","geometry":{"location":{"lat":43.3025392,"lng":5.3954362},"viewport":{"northeast":{"lat":43.30382637989272,"lng":5.396832829892721},"southwest":{"lat":43.30112672010728,"lng":5.394133170107277}}},"icon":"https://maps.gstatic.com/mapfiles/place_api/icons/v1/png_71/restaurant-71.png","icon_background_color":"#FF9E67","icon_mask_base_uri":"https://maps.gstatic.com/mapfiles/place_api/icons/v2/restaurant_pinlet","name":"Pho Vietnam","opening_hours":{"open_now":false},"photos":[{"height":3840,"html_attributions":["<a href=\"https://maps.google.com/maps/contrib/118298010007349854477\">Jean-Paul LA</a>"],"photo_reference":"AeJbb3dH4uAh1F2OkPOYzoqmkL3ENf1jT7xP2f6V63XMOE2WZSO_5hvxEAsYQoQoVSWESkbV_f3bLcNWPROjZ58RTmxwockSg7z-YqqhT0AC2jQTXYNkGDTArtrcKO-kLvUfhPn9QUhl8rLHAHcnbAtcmsNtA4Ua4YUjBuRXlIZotOLMojoP","width":5120}],"place_id":"ChIJozWzV5e_yRIRaB5S6n1ZiT0","plus_code":{"compound_code":"893W+25 Marseille","global_code":"8FM7893W+25"},"price_level":1,"rating":4.4,"reference":"ChIJozWzV5e_yRIRaB5S6n1ZiT0","types":["restaurant","food","point_of_interest","establishment"],"user_ratings_total":180},{"business_status":"OPERATIONAL","formatted_address":"18 Rue Bonneterie, 13002 Marseille","geometry":{"location":{"lat":43.2973085,"lng":5.3717501},"viewport":{"northeast":{"lat":43.29870917989272,"lng":5.373014729892723},"southwest":{"lat":43.29600952010728,"lng":5.370315070107279}}},"icon":"https://maps.gstatic.com/mapfiles/place_api/icons/v1/png_71/restaurant-71.png","icon_background_color":"#FF9E67","icon_mask_base_uri":"https://maps.gstatic.com/mapfiles/place_api/icons/v2/restaurant_pinlet","name":"Asia Express","opening_hours":{"open_now":false},"place_id":"ChIJyWlj88DAyRIR2IiRMEPegzc","plus_code":{"compound_code":"79WC+WP Marseille","global_code":"8FM779WC+WP"},"price_level":1,"rating":4.4,"reference":"ChIJyWlj88DAyRIR2IiRMEPegzc","types":["meal_delivery","meal_takeaway","restaurant","food","point_of_interest","establishment"],"user_ratings_total":157},{"business_status":"OPERATIONAL","formatted_address":"28 Rue Maréchal Fayolle, 13004 Marseille","geometry":{"location":{"lat":43.3003648,"lng":5.398428},"viewport":{"northeast":{"lat":43.30186177989273,"lng":5.399829479892722},"southwest":{"lat":43.29916212010728,"lng":5.397129820107278}}},"icon":"https://maps.gstatic.com/mapfiles/place_api/icons/v1/png_71/restaurant-71.png","icon_background_color":"#FF9E67","icon_mask_base_uri":"https://maps.gstatic.com/mapfiles/place_api/icons/v2/restaurant_pinlet","name":"La Jonque Viet","opening_hours":{"open_now":false},"photos":[{"height":4032,"html_attributions":["<a href=\"https://maps.google.com/maps/contrib/113560356933593654948\">Amandine Papain</a>"],"photo_reference":"AeJbb3ffdUhys6Ciq1gH-sI6DULwlV1HlQpPY_WxHLTIWpgPnguNcFhx1_PQr067qEPBJyUlotmd6qxI3b8qQnmvdZAt3bXhqTytGl3LLBlMDZf5-Vggy4JqVed0QqHZD2374lehOitDEpeptCQIvhcJLolFt2t8EvCkkR6wrNNHPieTCLVq","width":3024}],"place_id":"ChIJ2aGpyGC_yRIR3rfR3XkXQjM","plus_code":{"compound_code":"892X+49 Marseille","global_code":"8FM7892X+49"},"rating":4.4,"reference":"ChIJ2aGpyGC_yRIR3rfR3XkXQjM","types":["restaurant","food","point_of_interest","establishment"],"user_ratings_total":147},{"business_status":"OPERATIONAL","formatted_address":"81 Prom. Georges Pompidou, 13008 Marseille","geometry":{"location":{"lat":43.2634239,"lng":5.3741714},"viewport":{"northeast":{"lat":43.26476342989272,"lng":5.375479629892722},"southwest":{"lat":43.26206377010728,"lng":5.372779970107278}}},"icon":"https://maps.gstatic.com/mapfiles/place_api/icons/v1/png_71/restaurant-71.png","icon_background_color":"#FF9E67","icon_mask_base_uri":"https://maps.gstatic.com/mapfiles/place_api/icons/v2/restaurant_pinlet","name":"Lido Saïgon","opening_hours":{"open_now":false},"place_id":"ChIJvWjeZkDHyRIRE-d44yd_wIo","plus_code":{"compound_code":"797F+9M Marseille","global_code":"8FM7797F+9M"},"price_level":1,"rating":4.4,"reference":"ChIJvWjeZkDHyRIRE-d44yd_wIo","types":["bar","restaurant","food","point_of_interest","establishment"],"user_ratings_total":145},{"business_status":"OPERATIONAL","formatted_address":"100 Bd de la Comtesse, 13012 Marseille","geometry":{"location":{"lat":43.31751879999999,"lng":5.4475636},"viewport":{"northeast":{"lat":43.31879432989272,"lng":5.448786179892723},"southwest":{"lat":43.31609467010727,"lng":5.446086520107279}}},"icon":"https://maps.gstatic.com/mapfiles/place_api/icons/v1/png_71/restaurant-71.png","icon_background_color":"#FF9E67","icon_mask_base_uri":"https://maps.gstatic.com/mapfiles/place_api/icons/v2/restaurant_pinlet","name":"Allô Asia","opening_hours":{"open_now":false},"place_id":"ChIJ_YssN1i-yRIRVEXMDuzVtc0","plus_code":{"compound_code":"8C9X+22 Marseille","global_code":"8FM78C9X+22"},"price_level":1,"rating":4.4,"reference":"ChIJ_YssN1i-yRIRVEXMDuzVtc0","types":["restaurant","food","point_of_interest","establishment"],"user_ratings_total":29},{"business_status":"OPERATIONAL","formatted_address":"40 Chem. des Fabres, 13105 Mimet","geometry":{"location":{"lat":43.42914690000001,"lng":5.4718661},"viewport":{"northeast":{"lat":43.43037967989272,"lng":5.473189579892722},"southwest":{"lat":43.42768002010727,"lng":5.470489920107278}}},"icon":"https://maps.gstatic.com/mapfiles/place_api/icons/v1/png_71/restaurant-71.png","icon_background_color":"#FF9E67","icon_mask_base_uri":"https://maps.gstatic.com/mapfiles/place_api/icons/v2/restaurant_pinlet","name":"Traiteur Vietnam - Mimet","opening_hours":{"open_now":true},"photos":[{"height":4032,"html_attributions":["<a href=\"https://maps.google.com/maps/contrib/115364680272256808911\">A Google User</a>"],"photo_reference":"AeJbb3cyQZpXSZRF5Uh-MPH944D70VVNTeOfmlj_CjX01XQwJ9CzvoWG38c6w0lKBGhNRd1mWoX5F_LiODqNfhuF_rRFT6f89ATfg6x2Epf8C5v7PedXFWep6HWRI7WmlyIkSsOoscQvEoTesX2Vt-CGQjFw40wbKP2ecRoHEt70acN0F1SU","width":3024}],"place_id":"ChIJAS9j7OWVyRIR9wb9tCBl6nw","plus_code":{"compound_code":"CFHC+MP Mimet","global_code":"8FM7CFHC+MP"},"rating":4.4,"reference":"ChIJAS9j7OWVyRIR9wb9tCBl6nw","types":["restaurant","food","point_of_interest","establishment"],"user_ratings_total":15},{"business_status":"OPERATIONAL","formatted_address":"148 Av. Pierre Mendès France, 13008 Marseille","geometry":{"location":{"lat":43.2541437,"lng":5.375308200000001},"viewport":{"northeast":{"lat":43.25539107989272,"lng":5.376884879892722},"southwest":{"lat":43.25269142010728,"lng":5.374185220107278}}},"icon":"https://maps.gstatic.com/mapfiles/place_api/icons/v1/png_71/restaurant-71.png","icon_background_color":"#FF9E67","icon_mask_base_uri":"https://maps.gstatic.com/mapfiles/place_api/icons/v2/restaurant_pinlet","name":"Chez Quan","opening_hours":{"open_now":false},"photos":[{"height":2610,"html_attributions":["<a href=\"https://maps.google.com/maps/contrib/106710336028465359450\">Didier Massart</a>"],"photo_reference":"AeJbb3fDWl7F7KFA_175FPaR1flz1PUZFK4OcjFMUhI-5ur6Jn135-ltscW3BVMn7ZSMLjlJXP7zjzJD8PEuexMee4itcKMfGxmRSP8jO0ftB55ubx3PLORSkgC70_2W1_YgQPiP5EyPkD70xzw91jV3K-oa8W0Zfo5zJZa6LQUutkeV_wOI","width":4640}],"place_id":"ChIJhUOIWmzHyRIRLMzrNw5iZ80","plus_code":{"compound_code":"793G+M4 Marseille","global_code":"8FM7793G+M4"},"price_level":2,"rating":4.3,"reference":"ChIJhUOIWmzHyRIRLMzrNw5iZ80","types":["restaurant","food","point_of_interest","establishment"],"user_ratings_total":421},{"business_status":"OPERATIONAL","formatted_address":"33 Bd Luce, 13008 Marseille","geometry":{"location":{"lat":43.2573631,"lng":5.3945206},"viewport":{"northeast":{"lat":43.25875187989272,"lng":5.395850679892723},"southwest":{"lat":43.25605222010728,"lng":5.393151020107279}}},"icon":"https://maps.gstatic.com/mapfiles/place_api/icons/v1/png_71/restaurant-71.png","icon_background_color":"#FF9E67","icon_mask_base_uri":"https://maps.gstatic.com/mapfiles/place_api/icons/v2/restaurant_pinlet","name":"Le Palais d'Asie","opening_hours":{"open_now":false},"photos":[{"height":2322,"html_attributions":["<a href=\"https://maps.google.com/maps/contrib/113486935953534825582\">Cécilia Faraut</a>"],"photo_reference":"AeJbb3d8kPCblXL2wh7FLoDv4wpOcr_SwE5tM1AvWy5hL82y_ePrjaDm6gNkCGB_Ngn4IvlFGacBPjYknq_YGiIK5SuuCgkrcN26K6M02O-X6vSl5Xw4nlDwGeXc-C4HwUhjvCq9WvkKtQUTgXrATEkhocugEG5OonWii2GpB-vXRoJewpOC","width":4128}],"place_id":"ChIJZxPAJZ64yRIRblW8OF8z5u8","plus_code":{"compound_code":"794V+WR Marseille","global_code":"8FM7794V+WR"},"price_level":2,"rating":4.3,"reference":"ChIJZxPAJZ64yRIRblW8OF8z5u8","types":["restaurant","food","point_of_interest","establishment"],"user_ratings_total":363},{"business_status":"OPERATIONAL","formatted_address":"3 Rue Crillon, 13005 Marseille","geometry":{"location":{"lat":43.2901357,"lng":5.397914},"viewport":{"northeast":{"lat":43.29147887989272,"lng":5.399301629892721},"southwest":{"lat":43.28877922010727,"lng":5.396601970107278}}},"icon":"https://maps.gstatic.com/mapfiles/place_api/icons/v1/png_71/restaurant-71.png","icon_background_color":"#FF9E67","icon_mask_base_uri":"https://maps.gstatic.com/mapfiles/place_api/icons/v2/restaurant_pinlet","name":"Dragon d'Asie","opening_hours":{"open_now":false},"photos":[{"height":4000,"html_attributions":["<a href=\"https://maps.google.com/maps/contrib/106504361723433723806\">A Google User</a>"],"photo_reference":"AeJbb3dmH7zJ1oKw6NhAqGiqaJ_tVL2HpyIydZzIjdi4i1zqP77GxIqDQNse4xhPFxHiFRRo2eeMCWVhSjOA-hji4P-SFBqVR3fujT173p3CetzxNz5aePAnKqrllMlrMPu71XmFgxB3Vk1o-U1tIJ6Fu89lWaqdvazodlf2Ih_UuUWCFQlJ","width":3000}],"place_id":"ChIJkQL96Fm_yRIR8rLhtLzkcAg","plus_code":{"compound_code":"79RX+35 Marseille","global_code":"8FM779RX+35"},"price_level":1,"rating":4.3,"reference":"ChIJkQL96Fm_yRIR8rLhtLzkcAg","types":["restaurant","food","point_of_interest","establishment"],"user_ratings_total":147},{"business_status":"OPERATIONAL","formatted_address":"15/17 Rue Saint-Sébastien, 13006 Marseille","geometry":{"location":{"lat":43.2854102,"lng":5.3826386},"viewport":{"northeast":{"lat":43.28673027989272,"lng":5.383967279892722},"southwest":{"lat":43.28403062010727,"lng":5.381267620107278}}},"icon":"https://maps.gstatic.com/mapfiles/place_api/icons/v1/png_71/restaurant-71.png","icon_background_color":"#FF9E67","icon_mask_base_uri":"https://maps.gstatic.com/mapfiles/place_api/icons/v2/restaurant_pinlet","name":"Bao","opening_hours":{"open_now":false},"photos":[{"height":3448,"html_attributions":["<a href=\"https://maps.google.com/maps/contrib/106327743224398686259\">A Google User</a>"],"photo_reference":"AeJbb3cZSTqYXWNOEuB2vTm1js2GcwBWPauGdCoNh4nUvltcYRmN5uO1OLckCVDcRiJfd26N2aXb8tyM000ZZ8pyCxH0SZPZ3etejMlz2jCPK04QDzrPFqbJ4H1gg8cWNOLBSWj8ZyiTi0y9HCvmKa7cp1gtw5tR3xT5dHS5bnaY_Olg4EbP","width":4592}],"place_id":"ChIJb1fN4drByRIRVP-En8qP41E","plus_code":{"compound_code":"79PM+53 Marseille","global_code":"8FM779PM+53"},"rating":4.3,"reference":"ChIJb1fN4drByRIRVP-En8qP41E","types":["restaurant","food","point_of_interest","establishment"],"user_ratings_total":122},{"business_status":"OPERATIONAL","formatted_address":"3 Rue Breteuil, 13001 Marseille","geometry":{"location":{"lat":43.2926498,"lng":5.374945500000001},"viewport":{"northeast":{"lat":43.29399332989271,"lng":5.376262529892722},"southwest":{"lat":43.29129367010727,"lng":5.373562870107278}}},"icon":"https://maps.gstatic.com/mapfiles/place_api/icons/v1/png_71/restaurant-71.png","icon_background_color":"#FF9E67","icon_mask_base_uri":"https://maps.gstatic.com/mapfiles/place_api/icons/v2/restaurant_pinlet","name":"O canard laqué","opening_hours":{"open_now":true},"place_id":"ChIJfchKtfDByRIRoO1x6-6erCw","plus_code":{"compound_code":"79VF+3X Marseille","global_code":"8FM779VF+3X"},"rating":4.3,"reference":"ChIJfchKtfDByRIRoO1x6-6erCw","types":["restaurant","food","point_of_interest","establishment"],"user_ratings_total":69},{"business_status":"OPERATIONAL","formatted_address":"6 Rue d'Israël, 13006 Marseille","geometry":{"location":{"lat":43.2816178,"lng":5.3814687},"viewport":{"northeast":{"lat":43.28292912989272,"lng":5.382834029892722},"southwest":{"lat":43.28022947010728,"lng":5.380134370107278}}},"icon":"https://maps.gstatic.com/mapfiles/place_api/icons/v1/png_71/restaurant-71.png","icon_background_color":"#FF9E67","icon_mask_base_uri":"https://maps.gstatic.com/mapfiles/place_api/icons/v2/restaurant_pinlet","name":"Phan Le Thuyen","opening_hours":{"open_now":false},"place_id":"ChIJcdwI6LLAyRIRB8mVDUTyC8s","plus_code":{"compound_code":"79JJ+JH Marseille","global_code":"8FM779JJ+JH"},"rating":4.3,"reference":"ChIJcdwI6LLAyRIRB8mVDUTyC8s","types":["restaurant","food","point_of_interest","establishment"],"user_ratings_total":11},{"business_status":"OPERATIONAL","formatted_address":"50 Cr Gouffé, 13006 Marseille","geometry":{"location":{"lat":43.2856112,"lng":5.3886755},"viewport":{"northeast":{"lat":43.28697752989272,"lng":5.390022079892722},"southwest":{"lat":43.28427787010727,"lng":5.387322420107278}}},"icon":"https://maps.gstatic.com/mapfiles/place_api/icons/v1/png_71/restaurant-71.png","icon_background_color":"#FF9E67","icon_mask_base_uri":"https://maps.gstatic.com/mapfiles/place_api/icons/v2/restaurant_pinlet","name":"Restaurant Le Bol d'Or Marseille","opening_hours":{"open_now":false},"photos":[{"height":1960,"html_attributions":["<a href=\"https://maps.google.com/maps/contrib/104092140019275697318\">Nat&#39; Sella</a>"],"photo_reference":"AeJbb3eav4QtdiwiCYRJ0aX2PnCIsdONkg83Qw01vczRQr0A16j8fycGHNw9w7-DdjyvDzPu5d5O6105niga0arFXRq3atsNtZfsdLKrB848gxBJ_gc3AmfOZgjkLsLZ2SNO3p2cLG5L1xBGiJ1Ii1UwsHwyCFQLSzeSGiTbOpaFEot2I5ap","width":4032}],"place_id":"ChIJlc9Ws67AyRIRRu8X26s167E","plus_code":{"compound_code":"79PQ+6C Marseille","global_code":"8FM779PQ+6C"},"rating":4.2,"reference":"ChIJlc9Ws67AyRIRRu8X26s167E","types":["restaurant","food","point_of_interest","establishment"],"user_ratings_total":133},{"business_status":"OPERATIONAL","formatted_address":"39 Rue Emile Zola, 13009 Marseille","geometry":{"location":{"lat":43.2472211,"lng":5.4014415},"viewport":{"northeast":{"lat":43.24858002989272,"lng":5.402807279892722},"southwest":{"lat":43.24588037010727,"lng":5.400107620107278}}},"icon":"https://maps.gstatic.com/mapfiles/place_api/icons/v1/png_71/restaurant-71.png","icon_background_color":"#FF9E67","icon_mask_base_uri":"https://maps.gstatic.com/mapfiles/place_api/icons/v2/restaurant_pinlet","name":"Perle d'Asie","opening_hours":{"open_now":false},"photos":[{"height":3024,"html_attributions":["<a href=\"https://maps.google.com/maps/contrib/106056657485943888879\">Karim SAARI</a>"],"photo_reference":"AeJbb3e0AMwApKksXoXxCh_rv5l_gfQ1cRSv2F3n5NKf748DWoRmNfJ7x1Fj01OY93BD8VYY0q1KKN-wncEv5T1OlzIPL76JppqYaux0FWnykDf76gBMJDeejk9on4ffnSEv7mJoDJYJXqbIEJpdKPA7n17agoKEbj4bhSNon2KWGCYsPnwy","width":3024}],"place_id":"ChIJyXOYToS4yRIR0TYSeIhg9DI","plus_code":{"compound_code":"6CW2+WH Marseille","global_code":"8FM76CW2+WH"},"price_level":2,"rating":4.2,"reference":"ChIJyXOYToS4yRIR0TYSeIhg9DI","types":["bar","restaurant","food","point_of_interest","establishment"],"user_ratings_total":112},{"business_status":"OPERATIONAL","formatted_address":"Centre commercial Valentine Grand Centre, Rte de la Sablière, 13011 Marseille","geometry":{"location":{"lat":43.2916776,"lng":5.4766846},"viewport":{"northeast":{"lat":43.29279562989272,"lng":5.477951979892722},"southwest":{"lat":43.29009597010727,"lng":5.475252320107278}}},"icon":"https://maps.gstatic.com/mapfiles/place_api/icons/v1/png_71/restaurant-71.png","icon_background_color":"#FF9E67","icon_mask_base_uri":"https://maps.gstatic.com/mapfiles/place_api/icons/v2/restaurant_pinlet","name":"Zen Square","opening_hours":{"open_now":true},"photos":[{"height":4032,"html_attributions":["<a href=\"https://maps.google.com/maps/contrib/109429396704922171575\">Marine Vu</a>"],"photo_reference":"AeJbb3fBtV1Jcebo6b8XQP1r1OkqiYMGZqHif8TulEIoqr3JMteICXeqdy1Hupcv4PMgBZUMlF7aEjrUVbRA6g0GsT8BLI3ZSAsQTT9DIFZdhZg6vubzMR6uEfXe6wB8Nv4qt4WatQa_yKvYhQ67_tkikPqqssOTbbwMLWY3wqCBLYVxlmwp","width":2268}],"place_id":"ChIJ4XfZnx-8yRIRhi7UN0kmacs","plus_code":{"compound_code":"7FRG+MM Marseille","global_code":"8FM77FRG+MM"},"price_level":1,"rating":4.2,"reference":"ChIJ4XfZnx-8yRIRhi7UN0kmacs","types":["restaurant","food","point_of_interest","establishment"],"user_ratings_total":43},{"business_status":"OPERATIONAL","formatted_address":"81 Rue de la République, 13400 Aubagne","geometry":{"location":{"lat":43.2904187,"lng":5.5711647},"viewport":{"northeast":{"lat":43.29176337989272,"lng":5.572509429892722},"southwest":{"lat":43.28906372010727,"lng":5.569809770107279}}},"icon":"https://maps.gstatic.com/mapfiles/place_api/icons/v1/png_71/restaurant-71.png","icon_background_color":"#FF9E67","icon_mask_base_uri":"https://maps.gstatic.com/mapfiles/place_api/icons/v2/restaurant_pinlet","name":"Le Saigon","photos":[{"height":2160,"html_attributions":["<a href=\"https://maps.google.com/maps/contrib/110582907522815661567\">Grégory Raba</a>"],"photo_reference":"AeJbb3d1-wTnnl8yfCnnRuvsRO1MyIXRsONp_14betoovsLgt9CM60LAyD05qEc5sHXnOUQrvwRX5VBYPCD6m-u21Ug-1kNxi4r6UdThbr-RmgMAo5HR8ypOgC8eOLCXt6bqu8T9o5lCLfe18dnG-Y7TMZIPsMbv0LMzdjKijpm6tyuzpyoT","width":3840}],"place_id":"ChIJ-8U1HkijyRIRknMGgDHRhOY","plus_code":{"compound_code":"7HRC+5F Aubagne","global_code":"8FM77HRC+5F"},"rating":4.2,"reference":"ChIJ-8U1HkijyRIRknMGgDHRhOY","types":["restaurant","food","point_of_interest","establishment"],"user_ratings_total":37},{"business_status":"OPERATIONAL","formatted_address":"7 Rue Bailli de Suffren, 13001 Marseille","geometry":{"location":{"lat":43.2947591,"lng":5.3749074},"viewport":{"northeast":{"lat":43.29607777989272,"lng":5.376251279892721},"southwest":{"lat":43.29337812010728,"lng":5.373551620107277}}},"icon":"https://maps.gstatic.com/mapfiles/place_api/icons/v1/png_71/restaurant-71.png","icon_background_color":"#FF9E67","icon_mask_base_uri":"https://maps.gstatic.com/mapfiles/place_api/icons/v2/restaurant_pinlet","name":"O-Pho 187","opening_hours":{"open_now":false},"photos":[{"height":3024,"html_attributions":["<a href=\"https://maps.google.com/maps/contrib/116961912650407276151\">Julien Pach</a>"],"photo_reference":"AeJbb3ezHyUCoytS9YoVKs-QID7W6xf4UzT_dotlEv5FnvQf4uazgVmHgnpTJhXOoJDsu89wxey4kCimOFqhmkn-KiyRV_gG_mzi2ABdcCreV4JXAt7H3fXxa2ddPDx3j6XgObP4wXSZwXUMp8GJ4QTnN6ml05DTOHyhoT7ipYMmVp9anEVu","width":4032}],"place_id":"ChIJD44FzrjAyRIRVLTpLMagkaY","plus_code":{"compound_code":"79VF+VX Marseille","global_code":"8FM779VF+VX"},"price_level":1,"rating":4.1,"reference":"ChIJD44FzrjAyRIRVLTpLMagkaY","types":["restaurant","food","point_of_interest","establishment"],"user_ratings_total":727},{"business_status":"OPERATIONAL","formatted_address":"73 Bd Jeanne d'Arc, 13005 Marseille","geometry":{"location":{"lat":43.2934245,"lng":5.4038789},"viewport":{"northeast":{"lat":43.29471382989271,"lng":5.405209379892722},"southwest":{"lat":43.29201417010727,"lng":5.402509720107278}}},"icon":"https://maps.gstatic.com/mapfiles/place_api/icons/v1/png_71/restaurant-71.png","icon_background_color":"#FF9E67","icon_mask_base_uri":"https://maps.gstatic.com/mapfiles/place_api/icons/v2/restaurant_pinlet","name":"Restaurant HOANG","opening_hours":{"open_now":false},"place_id":"ChIJVdwPWlu_yRIRB6VRC5kADP8","plus_code":{"compound_code":"7CV3+9H Marseille","global_code":"8FM77CV3+9H"},"price_level":2,"rating":4.1,"reference":"ChIJVdwPWlu_yRIRB6VRC5kADP8","types":["restaurant","food","point_of_interest","establishment"],"user_ratings_total":148},{"business_status":"OPERATIONAL","formatted_address":"83 Rue Emile Zola, 13009 Marseille","geometry":{"location":{"lat":43.246583,"lng":5.402825},"viewport":{"northeast":{"lat":43.24792082989272,"lng":5.404163979892722},"southwest":{"lat":43.24522117010728,"lng":5.401464320107278}}},"icon":"https://maps.gstatic.com/mapfiles/place_api/icons/v1/png_71/restaurant-71.png","icon_background_color":"#FF9E67","icon_mask_base_uri":"https://maps.gstatic.com/mapfiles/place_api/icons/v2/restaurant_pinlet","name":"CHEZ THUONG","opening_hours":{"open_now":false},"place_id":"ChIJfdQ9wYW4yRIRKte8TGYlstk","plus_code":{"compound_code":"6CW3+J4 Marseille","global_code":"8FM76CW3+J4"},"price_level":1,"rating":4.1,"reference":"ChIJfdQ9wYW4yRIRKte8TGYlstk","types":["restaurant","food","point_of_interest","establishment"],"user_ratings_total":91},{"business_status":"OPERATIONAL","formatted_address":"37 Bd de la Concorde, 13009 Marseille","geometry":{"location":{"lat":43.2492049,"lng":5.402174},"viewport":{"northeast":{"lat":43.25057462989272,"lng":5.403507479892721},"southwest":{"lat":43.24787497010728,"lng":5.400807820107278}}},"icon":"https://maps.gstatic.com/mapfiles/place_api/icons/v1/png_71/restaurant-71.png","icon_background_color":"#FF9E67","icon_mask_base_uri":"https://maps.gstatic.com/mapfiles/place_api/icons/v2/restaurant_pinlet","name":"Chez Viet","opening_hours":{"open_now":false},"photos":[{"height":5184,"html_attributions":["<a href=\"https://maps.google.com/maps/contrib/109761951635608125279\">A Google User</a>"],"photo_reference":"AeJbb3fdzOkMyWTtkBPacbxw35ygyugIxU8WRg4hviQprXY4kx9otgZga51Z9xUoIfav3qu-IwatPK32IdI-Yb6PO1JCrkNuI5Ue5itxRDOFdgKqu_VvWDkwFQX_h1U64_IDaRhgGyS7wxLyAezlufQmyUEgpiyOgjwkLu2FPN16mLujfQ0q","width":3456}],"place_id":"ChIJsUbfpYe5yRIRlRdfygXzMVA","plus_code":{"compound_code":"6CX2+MV Marseille","global_code":"8FM76CX2+MV"},"rating":4.1,"reference":"ChIJsUbfpYe5yRIRlRdfygXzMVA","types":["restaurant","food","point_of_interest","establishment"],"user_ratings_total":74},{"business_status":"OPERATIONAL","formatted_address":"10 Bd Rouvier, 13010 Marseille","geometry":{"location":{"lat":43.2792128,"lng":5.416559599999999},"viewport":{"northeast":{"lat":43.28052762989272,"lng":5.417941779892721},"southwest":{"lat":43.27782797010727,"lng":5.415242120107277}}},"icon":"https://maps.gstatic.com/mapfiles/place_api/icons/v1/png_71/restaurant-71.png","icon_background_color":"#FF9E67","icon_mask_base_uri":"https://maps.gstatic.com/mapfiles/place_api/icons/v2/restaurant_pinlet","name":"Thao","opening_hours":{"open_now":false},"place_id":"ChIJqxxXNzW_yRIRXdpRq1aDYzY","plus_code":{"compound_code":"7CH8+MJ Marseille","global_code":"8FM77CH8+MJ"},"rating":4.1,"reference":"ChIJqxxXNzW_yRIRXdpRq1aDYzY","types":["restaurant","food","point_of_interest","establishment"],"user_ratings_total":34},{"business_status":"OPERATIONAL","formatted_address":"113 Rue du Rouet, 13008 Marseille","geometry":{"location":{"lat":43.2801301,"lng":5.3903363},"viewport":{"northeast":{"lat":43.28144902989273,"lng":5.391632179892722},"southwest":{"lat":43.27874937010728,"lng":5.388932520107279}}},"icon":"https://maps.gstatic.com/mapfiles/place_api/icons/v1/png_71/restaurant-71.png","icon_background_color":"#FF9E67","icon_mask_base_uri":"https://maps.gstatic.com/mapfiles/place_api/icons/v2/restaurant_pinlet","name":"Chez Nam","opening_hours":{"open_now":false},"photos":[{"height":3456,"html_attributions":["<a href=\"https://maps.google.com/maps/contrib/101061373501313611275\">La Rizière</a>"],"photo_reference":"AeJbb3dm7_krhm82gRgS4mwFTfaXiOEBGbodD1Tolocn8TPMgtXYCsSXV1na6AEmYuVeaeKPIrpj1ZdeD5oSg0QychSTrd1Z9CVFWcMsXy-u1CswLDsJyJwL11HVqfrHiE_HepU0nL39mFqrU9Q9bHW0F_ESJBpOxROJLCEuPkJ3ZqUpyO1O","width":5184}],"place_id":"ChIJn5BBNKvAyRIR7VavhaENbv0","plus_code":{"compound_code":"79JR+24 Marseille","global_code":"8FM779JR+24"},"rating":4,"reference":"ChIJn5BBNKvAyRIR7VavhaENbv0","types":["restaurant","food","point_of_interest","establishment"],"user_ratings_total":204},{"business_status":"OPERATIONAL","formatted_address":"13 Av. du Maréchal Foch, 13004 Marseille","geometry":{"location":{"lat":43.30197889999999,"lng":5.3979738},"viewport":{"northeast":{"lat":43.30328802989272,"lng":5.399306479892722},"southwest":{"lat":43.30058837010728,"lng":5.396606820107277}}},"icon":"https://maps.gstatic.com/mapfiles/place_api/icons/v1/png_71/restaurant-71.png","icon_background_color":"#FF9E67","icon_mask_base_uri":"https://maps.gstatic.com/mapfiles/place_api/icons/v2/restaurant_pinlet","name":"Dakao Cinq Avenues","opening_hours":{"open_now":false},"photos":[{"height":4128,"html_attributions":["<a href=\"https://maps.google.com/maps/contrib/112320773935914640803\">A Google User</a>"],"photo_reference":"AeJbb3f9lSj7ldmZCQ-be7mM7pwKXdm6BXH1lJDImEmkhKx_DPSgpvJzdV19jtMZdabvImkMIRydT3LbfyLwJ2zgYijOhyr4gJPoZXMeD1yu__8YIZPmGadXUPNMPdDO-tzEyiGdUIgLYS-ZCh19aYLhTxhOwkAdrW5o6w2iINmKnmxQ-7F8","width":3096}],"place_id":"ChIJzyd-CUW_yRIR5M2YAQKPIQQ","plus_code":{"compound_code":"892X+Q5 Marseille","global_code":"8FM7892X+Q5"},"rating":4,"reference":"ChIJzyd-CUW_yRIR5M2YAQKPIQQ","types":["restaurant","food","point_of_interest","establishment"],"user_ratings_total":12},{"business_status":"OPERATIONAL","formatted_address":"10 Pl. de la Joliette, 13002 Marseille","geometry":{"location":{"lat":43.3054512,"lng":5.3659534},"viewport":{"northeast":{"lat":43.30719477989273,"lng":5.367586079892723},"southwest":{"lat":43.30449512010728,"lng":5.364886420107279}}},"icon":"https://maps.gstatic.com/mapfiles/place_api/icons/v1/png_71/restaurant-71.png","icon_background_color":"#FF9E67","icon_mask_base_uri":"https://maps.gstatic.com/mapfiles/place_api/icons/v2/restaurant_pinlet","name":"Dakao Docks Village","opening_hours":{"open_now":true},"photos":[{"height":630,"html_attributions":["<a href=\"https://maps.google.com/maps/contrib/112595621696064820375\">A Google User</a>"],"photo_reference":"AeJbb3cIT8wXgASOY-1bzKKhJ_63-TsRjMc8brYD9Kd5QMaeSpii7Vds-ZGfmjSuT_4-NfVyTwNSmZdoP_pYfgcl_WVD8JnHJV4qff3rqX7EDpHabmS9Y9fQ1piREt2C4ZF1yCsg7N5MnIDYKvouuvuFwQcGa0Etz8JVCYYosUVDfh1POFHP","width":1200}],"place_id":"ChIJzUV7zu7AyRIRu4hYG7V0RzU","plus_code":{"compound_code":"8948+59 Marseille","global_code":"8FM78948+59"},"rating":3.7,"reference":"ChIJzUV7zu7AyRIRu4hYG7V0RzU","types":["restaurant","food","point_of_interest","establishment"],"user_ratings_total":174},{"business_status":"OPERATIONAL","formatted_address":"7 Pl. Général de Gaulle, 13001 Marseille","geometry":{"location":{"lat":43.2950457,"lng":5.376162799999999},"viewport":{"northeast":{"lat":43.29636707989272,"lng":5.377484929892723},"southwest":{"lat":43.29366742010728,"lng":5.374785270107279}}},"icon":"https://maps.gstatic.com/mapfiles/place_api/icons/v1/png_71/restaurant-71.png","icon_background_color":"#FF9E67","icon_mask_base_uri":"https://maps.gstatic.com/mapfiles/place_api/icons/v2/restaurant_pinlet","name":"Dakao Vieux-Port Marseille","opening_hours":{"open_now":true},"place_id":"ChIJFaag1bjAyRIReFcEH56YfCA","plus_code":{"compound_code":"79WG+2F Marseille","global_code":"8FM779WG+2F"},"price_level":1,"rating":3.5,"reference":"ChIJFaag1bjAyRIReFcEH56YfCA","types":["restaurant","food","point_of_interest","establishment"],"user_ratings_total":432},{"business_status":"OPERATIONAL","formatted_address":"18 Pl. Castellane, 13006 Marseille","geometry":{"location":{"lat":43.2857986,"lng":5.383115699999999},"viewport":{"northeast":{"lat":43.28711897989272,"lng":5.384468329892721},"southwest":{"lat":43.28441932010728,"lng":5.381768670107277}}},"icon":"https://maps.gstatic.com/mapfiles/place_api/icons/v1/png_71/restaurant-71.png","icon_background_color":"#FF9E67","icon_mask_base_uri":"https://maps.gstatic.com/mapfiles/place_api/icons/v2/restaurant_pinlet","name":"DAKAO Castellane","opening_hours":{"open_now":true},"photos":[{"height":3533,"html_attributions":["<a href=\"https://maps.google.com/maps/contrib/105320962357833894014\">A Google User</a>"],"photo_reference":"AeJbb3c47lLjXWRwGCQ0VZ8rk7N3knbG45QTpe66Ypjen8Tz_B3CwCZFPAvN2UlSngTfX-qgCOmmRRuG9qjnBL9cnVvJThpW05Isgr--v2dodS3kXPPA_nLfl6E9gFx0N7WuR4Qnbc1ydGPvBAJnVHRl-fX_oeCAocdXpF43U3zkK_qmGHzE","width":5300}],"place_id":"ChIJJyjs5LHAyRIRzhuz8X5ohPg","plus_code":{"compound_code":"79PM+86 Marseille","global_code":"8FM779PM+86"},"rating":3.4,"reference":"ChIJJyjs5LHAyRIRzhuz8X5ohPg","types":["restaurant","food","point_of_interest","establishment"],"user_ratings_total":402},{"business_status":"OPERATIONAL","formatted_address":"61 Bd de Plombières, 13003 Marseille","geometry":{"location":{"lat":43.3153314,"lng":5.384631199999999},"viewport":{"northeast":{"lat":43.31674727989272,"lng":5.386005079892722},"southwest":{"lat":43.31404762010728,"lng":5.383305420107278}}},"icon":"https://maps.gstatic.com/mapfiles/place_api/icons/v1/png_71/restaurant-71.png","icon_background_color":"#FF9E67","icon_mask_base_uri":"https://maps.gstatic.com/mapfiles/place_api/icons/v2/restaurant_pinlet","name":"DaKao Plombières","opening_hours":{"open_now":true},"photos":[{"height":3024,"html_attributions":["<a href=\"https://maps.google.com/maps/contrib/104144083505732696244\">Machiatto Caramel</a>"],"photo_reference":"AeJbb3d9TyLEgACji3OWBo7ub5xxPOz8rjXkMOBICJs8Lus6mRubcm07KtKHFl59ntvz1tYKyjdyZsHcMEoU1vQxHRoyPEC7l8QQRiJ1NOZpJ1udLL8VF4DDpQrEZdO7YOQ4_efnM92OcM3oYK6ulgMZO-hvo-8Syu4vLOywinkCpWwBwVap","width":3024}],"place_id":"ChIJjU-YJIbAyRIRgR6JaWag4rw","plus_code":{"compound_code":"898M+4V Marseille","global_code":"8FM7898M+4V"},"rating":3.3,"reference":"ChIJjU-YJIbAyRIRgR6JaWag4rw","types":["restaurant","food","point_of_interest","establishment"],"user_ratings_total":68},{"business_status":"OPERATIONAL","formatted_address":"Gare, Av. du Général Leclerc, 13003 Marseille","geometry":{"location":{"lat":43.3038507,"lng":5.3793891},"viewport":{"northeast":{"lat":43.30506267989271,"lng":5.380613779892722},"southwest":{"lat":43.30236302010727,"lng":5.377914120107278}}},"icon":"https://maps.gstatic.com/mapfiles/place_api/icons/v1/png_71/restaurant-71.png","icon_background_color":"#FF9E67","icon_mask_base_uri":"https://maps.gstatic.com/mapfiles/place_api/icons/v2/restaurant_pinlet","name":"DaKao Gare Saint-Charles","opening_hours":{"open_now":true},"photos":[{"height":4032,"html_attributions":["<a href=\"https://maps.google.com/maps/contrib/104777091870399356508\">A Google User</a>"],"photo_reference":"AeJbb3eHgtEsuCOVScVH1VIk9rVGgoQdahaBcqmM1FelVO67AINYML9BISvbgNP-1VOYTidwfEcQdxVdvN-KSb69wc1Pr6GQzs3ravP6vVEG5uX6EiEjfs3Jnobr8l2TglDfLWBHnHmNrF4hajSaZFeI0FwMuIwmi5bb7XOXCkuayF5s2iRw","width":3024}],"place_id":"ChIJo6hndWHByRIRY27dZMnUyfs","plus_code":{"compound_code":"893H+GQ Marseille","global_code":"8FM7893H+GQ"},"rating":3.1,"reference":"ChIJo6hndWHByRIRY27dZMnUyfs","types":["restaurant","food","point_of_interest","establishment"],"user_ratings_total":175},{"business_status":"OPERATIONAL","formatted_address":"59 Av. de la Capelette, 13010 Marseille","geometry":{"location":{"lat":43.2833095,"lng":5.4016719},"viewport":{"northeast":{"lat":43.28462537989272,"lng":5.402959529892722},"southwest":{"lat":43.28192572010727,"lng":5.400259870107278}}},"icon":"https://maps.gstatic.com/mapfiles/place_api/icons/v1/png_71/restaurant-71.png","icon_background_color":"#FF9E67","icon_mask_base_uri":"https://maps.gstatic.com/mapfiles/place_api/icons/v2/restaurant_pinlet","name":"GÉNÉRAL BAO","opening_hours":{"open_now":false},"place_id":"ChIJ0UBXCAy_yRIRvPmyNQ76R-M","plus_code":{"compound_code":"7CM2+8M Marseille","global_code":"8FM77CM2+8M"},"rating":0,"reference":"ChIJ0UBXCAy_yRIRvPmyNQ76R-M","types":["restaurant","food","point_of_interest","establishment"],"user_ratings_total":0}]