[{"business_status":"OPERATIONAL","formatted_address":"Maskavas iela 226, Latgales priekšpilsēta, Rīga, LV-1019","geometry":{"location":{"lat":56.9237019,"lng":24.1689254},"viewport":{"northeast":{"lat":56.92507437989272,"lng":24.17047887989272},"southwest":{"lat":56.92237472010727,"lng":24.16777922010727}}},"icon":"https://maps.gstatic.com/mapfiles/place_api/icons/v1/png_71/restaurant-71.png","icon_background_color":"#FF9E67","icon_mask_base_uri":"https://maps.gstatic.com/mapfiles/place_api/icons/v2/restaurant_pinlet","name":"Shawarma Factory & Grill","opening_hours":{"open_now":true},"photos":[{"height":3792,"html_attributions":["<a href=\"https://maps.google.com/maps/contrib/101778642936531980170\">Raitis Misa</a>"],"photo_reference":"AeJbb3eVUGc6tDz0n7gABYz2CXajgWpj-ft4QZJaFNuyjvD9V1H1rx9h6U9wZyz0QE1yOjMnV-nOU1Nw0nyfH9Opwc9HqcG7zUJUG_hKe6YzIZqwVDH1zXxx3I-p3qN4uBc5QJL_k3pepO2lKECqxq6ZrRXwAPGwYUdWmwL0hTqoO_ijqcTY","width":5056}],"place_id":"ChIJ-88FBxPP7kYRFR0oiwdHcqc","plus_code":{"compound_code":"W5F9+FH Riga","global_code":"9G86W5F9+FH"},"rating":5,"reference":"ChIJ-88FBxPP7kYRFR0oiwdHcqc","types":["restaurant","point_of_interest","food","establishment"],"user_ratings_total":21},{"business_status":"OPERATIONAL","formatted_address":"Krišjāņa Barona iela 79, Centra rajons, Rīga, LV-1001","geometry":{"location":{"lat":56.9600995,"lng":24.1384411},"viewport":{"northeast":{"lat":56.96136337989271,"lng":24.13993562989272},"southwest":{"lat":56.95866372010727,"lng":24.13723597010727}}},"icon":"https://maps.gstatic.com/mapfiles/place_api/icons/v1/png_71/restaurant-71.png","icon_background_color":"#FF9E67","icon_mask_base_uri":"https://maps.gstatic.com/mapfiles/place_api/icons/v2/restaurant_pinlet","name":"Humosa bļoda","opening_hours":{"open_now":true},"photos":[{"height":2048,"html_attributions":["<a href=\"https://maps.google.com/maps/contrib/106742812323617249329\">A Google User</a>"],"photo_reference":"AeJbb3eZMVWVII9uy32Ycnu6Dx5OVxfHNwYJZnFBeA7TheJ4eH-CnirHqhwC-JsW1eaHk11K-yRJKAcya02_pu18KStnqCDimWNsfj-uU5M-f8vLv_zq74gCgMD0knn-H3N5pRiLguRUnbRP3M4R6jFjC2PRBgOEfCrYf8A6725_GIoEytH0","width":1149}],"place_id":"ChIJqyqm9GDP7kYRvCNTgMVia_M","plus_code":{"compound_code":"X46Q+29 Riga","global_code":"9G86X46Q+29"},"rating":5,"reference":"ChIJqyqm9GDP7kYRvCNTgMVia_M","types":["restaurant","food","point_of_interest","establishment"],"user_ratings_total":21},{"business_status":"OPERATIONAL","formatted_address":"Krišjāņa Valdemāra iela 37, Centra rajons, Rīga, LV-1010","geometry":{"location":{"lat":56.9583749,"lng":24.1169192},"viewport":{"northeast":{"lat":56.95974237989272,"lng":24.11825407989273},"southwest":{"lat":56.95704272010728,"lng":24.11555442010728}}},"icon":"https://maps.gstatic.com/mapfiles/place_api/icons/v1/png_71/restaurant-71.png","icon_background_color":"#FF9E67","icon_mask_base_uri":"https://maps.gstatic.com/mapfiles/place_api/icons/v2/restaurant_pinlet","name":"Antalya kebab and grill valdemara","opening_hours":{"open_now":true},"photos":[{"height":4032,"html_attributions":["<a href=\"https://maps.google.com/maps/contrib/110041375316084344785\">A Google User</a>"],"photo_reference":"AeJbb3dpeEmOCjT42cEEoSE-iK6yOZec_RORPGLuDLZscYRgPpoA0YjfB3CFFX5UwN_YxL7d5gLRdvFzQ8y2LwcepM-9K38JAVxrib6HzkYy6pWT-DhaykZVcjPUpkxdFeF5A0ohPi9ExSRPmQouWWyTslUgIxo64OjTu8_bXlTR8ItvsnMt","width":3024}],"place_id":"ChIJOz7_lljP7kYRxo542Y8MuSQ","plus_code":{"compound_code":"X458+9P Riga","global_code":"9G86X458+9P"},"rating":5,"reference":"ChIJOz7_lljP7kYRxo542Y8MuSQ","types":["restaurant","point_of_interest","food","establishment"],"user_ratings_total":5},{"business_status":"OPERATIONAL","formatted_address":"Ģertrūdes iela 48a, Latgales priekšpilsēta, Rīga, LV-1011","geometry":{"location":{"lat":56.9527157,"lng":24.130825},"viewport":{"northeast":{"lat":56.95409657989273,"lng":24.13223337989272},"southwest":{"lat":56.95139692010728,"lng":24.12953372010728}}},"icon":"https://maps.gstatic.com/mapfiles/place_api/icons/v1/png_71/cafe-71.png","icon_background_color":"#FF9E67","icon_mask_base_uri":"https://maps.gstatic.com/mapfiles/place_api/icons/v2/cafe_pinlet","name":"Ģertrūdes Kebabs","opening_hours":{"open_now":true},"photos":[{"height":773,"html_attributions":["<a href=\"https://maps.google.com/maps/contrib/101862311131159061024\">A Google User</a>"],"photo_reference":"AeJbb3er8ZwfNw3h_WQgQ_T9Do-oBtkaWEKhqPG0tlaFHnHvgoZ0CqkRhF91ISdAEhO8_9IHbq7plks4Xkj_wE1ZUmZV8iPBvHmrYlzdLGWgbsf5pvV69mVISIni9UkIu9XgEBnMtqjTzhXBSZNRhXIrMC8jh7NGdRQT0CA0JscqbGzPa0bw","width":1436}],"place_id":"ChIJRTu39NHP7kYR57LqSUbIli4","plus_code":{"compound_code":"X43J+38 Riga","global_code":"9G86X43J+38"},"rating":5,"reference":"ChIJRTu39NHP7kYR57LqSUbIli4","types":["cafe","restaurant","food","point_of_interest","establishment"],"user_ratings_total":5},{"business_status":"OPERATIONAL","formatted_address":"Rīgas Centrāltirgus, Latgales priekšpilsēta, Rīga","geometry":{"location":{"lat":56.9439588,"lng":24.1150678},"viewport":{"northeast":{"lat":56.94543437989272,"lng":24.11626612989272},"southwest":{"lat":56.94273472010727,"lng":24.11356647010728}}},"icon":"https://maps.gstatic.com/mapfiles/place_api/icons/v1/png_71/restaurant-71.png","icon_background_color":"#FF9E67","icon_mask_base_uri":"https://maps.gstatic.com/mapfiles/place_api/icons/v2/restaurant_pinlet","name":"Karstie pīrādziņi","photos":[{"height":1080,"html_attributions":["<a href=\"https://maps.google.com/maps/contrib/103747504819335133157\">Raimonda Jokubauskaitė</a>"],"photo_reference":"AeJbb3ceZ94i3bLrwxNc2WdsJaXiLhgnkLpcMRZBOGDQo8-dSmVvJ4EHoiZwl62ITX8-MhvUr3toNyNK5sLq3OPeLpdxI2OMpA065z3WWdC3M23TluqNmjqHtS_-eKYnaxhalFgKeJzZNOY96lbMCIlg-Yh_LVszsrsY0DZVjXtVSSQZ4LdE","width":1908}],"place_id":"ChIJM8j-zm_P7kYRtNjLkBda8rc","plus_code":{"compound_code":"W4V8+H2 Riga","global_code":"9G86W4V8+H2"},"rating":5,"reference":"ChIJM8j-zm_P7kYRtNjLkBda8rc","types":["restaurant","point_of_interest","food","establishment"],"user_ratings_total":2},{"business_status":"OPERATIONAL","formatted_address":"Krišjāņa Barona iela 95, Latgales priekšpilsēta, Rīga, LV-1012","geometry":{"location":{"lat":56.9610993,"lng":24.1406246},"viewport":{"northeast":{"lat":56.96239297989272,"lng":24.14207417989272},"southwest":{"lat":56.95969332010728,"lng":24.13937452010728}}},"icon":"https://maps.gstatic.com/mapfiles/place_api/icons/v1/png_71/restaurant-71.png","icon_background_color":"#FF9E67","icon_mask_base_uri":"https://maps.gstatic.com/mapfiles/place_api/icons/v2/restaurant_pinlet","name":"Food Hub-Kebab Bar","place_id":"ChIJI_m0ps3P7kYRoOYvwXdQMJk","plus_code":{"compound_code":"X46R+C6 Riga","global_code":"9G86X46R+C6"},"rating":5,"reference":"ChIJI_m0ps3P7kYRoOYvwXdQMJk","types":["restaurant","point_of_interest","food","establishment"],"user_ratings_total":1},{"business_status":"OPERATIONAL","formatted_address":"Krišjāņa Barona iela 79, Centra rajons, Rīga, LV-1001","geometry":{"location":{"lat":56.9600807,"lng":24.1385483},"viewport":{"northeast":{"lat":56.96136727989272,"lng":24.14000387989272},"southwest":{"lat":56.95866762010728,"lng":24.13730422010727}}},"icon":"https://maps.gstatic.com/mapfiles/place_api/icons/v1/png_71/restaurant-71.png","icon_background_color":"#FF9E67","icon_mask_base_uri":"https://maps.gstatic.com/mapfiles/place_api/icons/v2/restaurant_pinlet","name":"Grāpis","opening_hours":{"open_now":true},"place_id":"ChIJR3ISZQDP7kYRqx9-BIdRmlg","plus_code":{"compound_code":"X46Q+2C Riga","global_code":"9G86X46Q+2C"},"rating":5,"reference":"ChIJR3ISZQDP7kYRqx9-BIdRmlg","types":["restaurant","point_of_interest","food","establishment"],"user_ratings_total":1},{"business_status":"OPERATIONAL","formatted_address":"Andreja Saharova iela 13A, Latgales priekšpilsēta, Rīga, LV-1082","geometry":{"location":{"lat":56.9362074,"lng":24.201835},"viewport":{"northeast":{"lat":56.93751942989272,"lng":24.20348552989272},"southwest":{"lat":56.93481977010727,"lng":24.20078587010728}}},"icon":"https://maps.gstatic.com/mapfiles/place_api/icons/v1/png_71/restaurant-71.png","icon_background_color":"#FF9E67","icon_mask_base_uri":"https://maps.gstatic.com/mapfiles/place_api/icons/v2/restaurant_pinlet","name":"Blin King","opening_hours":{"open_now":true},"photos":[{"height":667,"html_attributions":["<a href=\"https://maps.google.com/maps/contrib/102447487606915443035\">A Google User</a>"],"photo_reference":"AeJbb3cOh4rRUnyeCMPN28JMCyWyQlk2Nqjb6DNAGmvCiGtRvSXCXTQuXVvFGX9Y0_GHyDvbxhNJcX_MM00PZ2EmIe_XSoTUci6woed1VNcIdWlMftjQau_dTEiK5kj120xmKvJoA0YkOwjsw9QA6oiqLuMJOhr6kWwNnj3-XMzrqczezQ1x","width":1000}],"place_id":"ChIJlyquaKLN7kYR-i0osO041RU","plus_code":{"compound_code":"W6P2+FP Riga","global_code":"9G86W6P2+FP"},"rating":5,"reference":"ChIJlyquaKLN7kYR-i0osO041RU","types":["meal_takeaway","restaurant","food","point_of_interest","establishment"],"user_ratings_total":1},{"business_status":"OPERATIONAL","formatted_address":"Ģertrūdes iela 48a, Latgales priekšpilsēta, Rīga, LV-1011","geometry":{"location":{"lat":56.952642,"lng":24.1309326},"viewport":{"northeast":{"lat":56.95400662989272,"lng":24.13231027989272},"southwest":{"lat":56.95130697010728,"lng":24.12961062010727}}},"icon":"https://maps.gstatic.com/mapfiles/place_api/icons/v1/png_71/restaurant-71.png","icon_background_color":"#FF9E67","icon_mask_base_uri":"https://maps.gstatic.com/mapfiles/place_api/icons/v2/restaurant_pinlet","name":"Gastropagalms","opening_hours":{"open_now":true},"photos":[{"height":3024,"html_attributions":["<a href=\"https://maps.google.com/maps/contrib/105186092641977609075\">A Google User</a>"],"photo_reference":"AeJbb3frNNh9Tx-5GkUM1ebM-_AhW1VF4dUExkJ5bWNtFq_MbZxDnZIHeNYEgw4BXD0MjwotNNE36hVjAp5GYSx28Ib_hbupma1V_B6GB1MMDe7LdRWKLu7rdBpAf1tlzXkX12RDzyNcdlAKZDYVL6pepFjFwA05eNNZ4ac8ok9BLaDJaWwk","width":3024}],"place_id":"ChIJzRo4kqrP7kYRwimNWF6U-4I","plus_code":{"compound_code":"X43J+28 Riga","global_code":"9G86X43J+28"},"rating":4.9,"reference":"ChIJzRo4kqrP7kYRwimNWF6U-4I","types":["restaurant","point_of_interest","food","establishment"],"user_ratings_total":12},{"business_status":"OPERATIONAL","formatted_address":"Ģertrūdes iela 48, Latgales priekšpilsēta, Rīga, LV-1011","geometry":{"location":{"lat":56.9526088,"lng":24.1310245},"viewport":{"northeast":{"lat":56.95398847989272,"lng":24.13243062989272},"southwest":{"lat":56.95128882010727,"lng":24.12973097010728}}},"icon":"https://maps.gstatic.com/mapfiles/place_api/icons/v1/png_71/restaurant-71.png","icon_background_color":"#FF9E67","icon_mask_base_uri":"https://maps.gstatic.com/mapfiles/place_api/icons/v2/restaurant_pinlet","name":"Marmaris restaurant","opening_hours":{"open_now":true},"photos":[{"height":1536,"html_attributions":["<a href=\"https://maps.google.com/maps/contrib/102145627680252452776\">A Google User</a>"],"photo_reference":"AeJbb3fPHoMtFqvs4aUa1oNtw1UCuADsuslNfDn5V5L30v5_ZvHTh6JRrPreSnctMMseZofaHo4XAO0qWJPf5NXfM4dI6tZ6f4ZVlHb5tDPk3ZS1vZ8LMA3LlECuLfreeBpOJk087sOMIp2NH4b8tDWDOrl87-ehO1CMwgfkxPnsit4QVj0","width":2048}],"place_id":"ChIJG3C-dqbP7kYREk00ib58acA","plus_code":{"compound_code":"X43J+2C Riga","global_code":"9G86X43J+2C"},"rating":4.8,"reference":"ChIJG3C-dqbP7kYREk00ib58acA","types":["cafe","store","restaurant","food","point_of_interest","establishment"],"user_ratings_total":118},{"business_status":"OPERATIONAL","formatted_address":"Tērbatas iela 41/43, Centra rajons, Rīga, LV-1011","geometry":{"location":{"lat":56.9559179,"lng":24.1252287},"viewport":{"northeast":{"lat":56.95726837989272,"lng":24.12657967989272},"southwest":{"lat":56.95456872010728,"lng":24.12388002010728}}},"icon":"https://maps.gstatic.com/mapfiles/place_api/icons/v1/png_71/restaurant-71.png","icon_background_color":"#FF9E67","icon_mask_base_uri":"https://maps.gstatic.com/mapfiles/place_api/icons/v2/restaurant_pinlet","name":"HuMMus","opening_hours":{"open_now":true},"photos":[{"height":1360,"html_attributions":["<a href=\"https://maps.google.com/maps/contrib/109598407742066313688\">A Google User</a>"],"photo_reference":"AeJbb3fD_yqJSEUWkZMjnKPEU1BEgQoz_aMV9G8QTcAuuNuvfCr1cMS3YyUveMn_sJEliDE2Majha2lAquln88pNpiFsd9U2HqLicLYk0zNjICTqc39UgSo35i_xzCYPFpDqD5xe3F-HfzKk7S03SZO0XDGPCJpuBNSNd_ex7xMadMgLeSLn","width":2048}],"place_id":"ChIJlzgu9grP7kYRdlos58IySH8","plus_code":{"compound_code":"X44G+93 Riga","global_code":"9G86X44G+93"},"rating":4.8,"reference":"ChIJlzgu9grP7kYRdlos58IySH8","types":["restaurant","point_of_interest","food","establishment"],"user_ratings_total":49},{"business_status":"OPERATIONAL","formatted_address":"Baznīcas iela 15, Centra rajons, Rīga, LV-1010","geometry":{"location":{"lat":56.9565323,"lng":24.1189085},"viewport":{"northeast":{"lat":56.95787037989273,"lng":24.12028137989272},"southwest":{"lat":56.95517072010728,"lng":24.11758172010728}}},"icon":"https://maps.gstatic.com/mapfiles/place_api/icons/v1/png_71/restaurant-71.png","icon_background_color":"#FF9E67","icon_mask_base_uri":"https://maps.gstatic.com/mapfiles/place_api/icons/v2/restaurant_pinlet","name":"Mazā Terapija","opening_hours":{"open_now":true},"photos":[{"height":4032,"html_attributions":["<a href=\"https://maps.google.com/maps/contrib/111986337857535143447\">Inga Garbarino</a>"],"photo_reference":"AeJbb3chYbowppLu5xHGqEWBTObu_yItWVGa2Tm2VrT_S8grLRbOmbSxkaMurfGwcB9qH3pBVOtkAmA8WFqEro8Jv0u_sUcSJXWNhHxn0zfx-8PdsL59zim0wabKCtpg2Jx9AEBL0a4dsDkjkBgJdep_dPE_eFq0O41t8IX7ea_ZFe7Zq1v5","width":3024}],"place_id":"ChIJHTiOTobP7kYR2HaP2cwhV4Y","plus_code":{"compound_code":"X449+JG Riga","global_code":"9G86X449+JG"},"price_level":2,"rating":4.7,"reference":"ChIJHTiOTobP7kYR2HaP2cwhV4Y","types":["restaurant","point_of_interest","food","establishment"],"user_ratings_total":477},{"business_status":"OPERATIONAL","formatted_address":"Bruņinieku iela 12, Centra rajons, Rīga, LV-1001","geometry":{"location":{"lat":56.9580565,"lng":24.12774},"viewport":{"northeast":{"lat":56.95945137989272,"lng":24.12917177989272},"southwest":{"lat":56.95675172010728,"lng":24.12647212010727}}},"icon":"https://maps.gstatic.com/mapfiles/place_api/icons/v1/png_71/restaurant-71.png","icon_background_color":"#FF9E67","icon_mask_base_uri":"https://maps.gstatic.com/mapfiles/place_api/icons/v2/restaurant_pinlet","name":"Ali Baba","opening_hours":{"open_now":true},"photos":[{"height":1200,"html_attributions":["<a href=\"https://maps.google.com/maps/contrib/102890979116463562053\">hadsa jabarkhail</a>"],"photo_reference":"AeJbb3cUSpe6RTgApCsSX6ZUy4gT2LZN-pdK9mD7abs3OyWp_uB_yG8EiCVWg-ZXd4WQN-aoNxvRfYkDtoykQf7DeqA4vm-NcBcY0jyjgJ3EW0KrHD91f6eMUnFj7LT7az8GpPh0pBeWIYgHkc_Bb3YWEoIK46V6gAA6QFHjA4S5ogn6K8ui","width":1600}],"place_id":"ChIJvyt_gYbP7kYReL_8wFomxq8","plus_code":{"compound_code":"X45H+63 Riga","global_code":"9G86X45H+63"},"rating":4.7,"reference":"ChIJvyt_gYbP7kYReL_8wFomxq8","types":["restaurant","point_of_interest","food","establishment"],"user_ratings_total":207},{"business_status":"OPERATIONAL","formatted_address":"Krišjāņa Barona iela 41/43, Centra rajons, Rīga, LV-1001","geometry":{"location":{"lat":56.9550705,"lng":24.1286196},"viewport":{"northeast":{"lat":56.95636282989272,"lng":24.13005737989272},"southwest":{"lat":56.95366317010727,"lng":24.12735772010728}}},"icon":"https://maps.gstatic.com/mapfiles/place_api/icons/v1/png_71/restaurant-71.png","icon_background_color":"#FF9E67","icon_mask_base_uri":"https://maps.gstatic.com/mapfiles/place_api/icons/v2/restaurant_pinlet","name":"2eat falafel & hummus","opening_hours":{"open_now":true},"photos":[{"height":2268,"html_attributions":["<a href=\"https://maps.google.com/maps/contrib/112879812457473759364\">Linda Viksne</a>"],"photo_reference":"AeJbb3frR6TwwKRW-aohukD8zBKpTNt8uxX1WceNvFyBczkm3o7CownpGs3EbS0F9UcVNcNtX7q9zpmpIK51adXr77dfScFmogA8SfUlDFd5BFEhoSOeY4PYbO9MmnmXEH2DBI1T7_Z6W_UBiSGXrQfXfrQygT56PLWmyAGYAslrStCihnNH","width":4032}],"place_id":"ChIJ0-khLSfP7kYRvQAewpZu3-M","plus_code":{"compound_code":"X44H+2C Riga","global_code":"9G86X44H+2C"},"rating":4.7,"reference":"ChIJ0-khLSfP7kYRvQAewpZu3-M","types":["restaurant","point_of_interest","food","establishment"],"user_ratings_total":105},{"business_status":"OPERATIONAL","formatted_address":"Mārstaļu iela 12, Centra rajons, Rīga, LV-1050","geometry":{"location":{"lat":56.9463611,"lng":24.1101716},"viewport":{"northeast":{"lat":56.94774077989272,"lng":24.11145927989272},"southwest":{"lat":56.94504112010728,"lng":24.10875962010728}}},"icon":"https://maps.gstatic.com/mapfiles/place_api/icons/v1/png_71/restaurant-71.png","icon_background_color":"#FF9E67","icon_mask_base_uri":"https://maps.gstatic.com/mapfiles/place_api/icons/v2/restaurant_pinlet","name":"Urfa Turkish Cafe","opening_hours":{"open_now":true},"photos":[{"height":3931,"html_attributions":["<a href=\"https://maps.google.com/maps/contrib/106509465190898670079\">A Google User</a>"],"photo_reference":"AeJbb3f6oE0iyBekptFtH9O-ldHxb-F8t3qHBYdH57mhNbFsLrdFQRYoSQCBuP0ExiIOue5WO7PMUDYEKHmdm3KEIakM1j8_YS9QeZDdyGtHoD7tAbR98UGSNNHI3YOdqw1kspseP5-ySpmF6uxZHH3az1uWPuL-_jhq3HyTvLVCm462vS-v","width":3024}],"place_id":"ChIJM8Q_wNTP7kYRs1ewaMKMYJg","plus_code":{"compound_code":"W4W6+G3 Riga","global_code":"9G86W4W6+G3"},"rating":4.7,"reference":"ChIJM8Q_wNTP7kYRs1ewaMKMYJg","types":["restaurant","point_of_interest","food","establishment"],"user_ratings_total":77},{"business_status":"OPERATIONAL","formatted_address":"Antonijas iela 6A, Centra rajons, Rīga, LV-1010","geometry":{"location":{"lat":56.9572738,"lng":24.1102441},"viewport":{"northeast":{"lat":56.95859392989272,"lng":24.11150812989272},"southwest":{"lat":56.95589427010727,"lng":24.10880847010727}}},"icon":"https://maps.gstatic.com/mapfiles/place_api/icons/v1/png_71/restaurant-71.png","icon_background_color":"#FF9E67","icon_mask_base_uri":"https://maps.gstatic.com/mapfiles/place_api/icons/v2/restaurant_pinlet","name":"Foodbox","opening_hours":{"open_now":true},"photos":[{"height":3000,"html_attributions":["<a href=\"https://maps.google.com/maps/contrib/112766219157532251885\">Stas Medvedev</a>"],"photo_reference":"AeJbb3c1s-2sgSwe35ghpyFMZR0k0m2Zx75CNZqT4eG1Um9n3eGZjsPLnu_9dJHw3wP5m_5SMFgBoOrqQ9aihnkhSE1xeaHI0UNV7Q3ounaWcHpPsEQR__MFNmJuMk30LySr8GVnDSu7oy7z_1AxQOou4917AzI0rdUjwgz3S53Mfk5ZdlL9","width":3000}],"place_id":"ChIJ3V-ZP83P7kYRjA9DNZrPYo4","plus_code":{"compound_code":"X446+W4 Riga","global_code":"9G86X446+W4"},"rating":4.6,"reference":"ChIJ3V-ZP83P7kYRjA9DNZrPYo4","types":["restaurant","point_of_interest","food","establishment"],"user_ratings_total":797},{"business_status":"OPERATIONAL","formatted_address":"Ģertrūdes iela 43, Centra rajons, Rīga, LV-1011","geometry":{"location":{"lat":56.9537409,"lng":24.1294426},"viewport":{"northeast":{"lat":56.95506442989272,"lng":24.13074557989272},"southwest":{"lat":56.95236477010727,"lng":24.12804592010728}}},"icon":"https://maps.gstatic.com/mapfiles/place_api/icons/v1/png_71/restaurant-71.png","icon_background_color":"#FF9E67","icon_mask_base_uri":"https://maps.gstatic.com/mapfiles/place_api/icons/v2/restaurant_pinlet","name":"Stop. Ēd Turku Tantuni Kebabs","opening_hours":{"open_now":true},"photos":[{"height":3468,"html_attributions":["<a href=\"https://maps.google.com/maps/contrib/108623378659591746928\">Aivars</a>"],"photo_reference":"AeJbb3eCop7ZWs_kRb9QcKfSwNNB13oy4RXKXow6mh5k0SKMMa2UBoOVhLrhDwZJNzOEy6SfxCM9QrS1gOxucEhddYu0Ib2qHMGEsQ2C3pDppO-JLCbMIWxeokEJFvXNq6kMntNjABORFDMLZ7DcUCTGDsZgf1hrPtCP1DzpwrVn-Tb1W29Q","width":4624}],"place_id":"ChIJfxsaEJzP7kYRHLlzt4bH0IA","plus_code":{"compound_code":"X43H+GQ Riga","global_code":"9G86X43H+GQ"},"rating":4.6,"reference":"ChIJfxsaEJzP7kYRHLlzt4bH0IA","types":["restaurant","point_of_interest","food","establishment"],"user_ratings_total":201},{"business_status":"OPERATIONAL","formatted_address":"Avotu iela 30-1, Latgales priekšpilsēta, Rīga, LV-1009","geometry":{"location":{"lat":56.9507841,"lng":24.1337355},"viewport":{"northeast":{"lat":56.95217332989272,"lng":24.13505762989272},"southwest":{"lat":56.94947367010728,"lng":24.13235797010728}}},"icon":"https://maps.gstatic.com/mapfiles/place_api/icons/v1/png_71/restaurant-71.png","icon_background_color":"#FF9E67","icon_mask_base_uri":"https://maps.gstatic.com/mapfiles/place_api/icons/v2/restaurant_pinlet","name":"Rīgas Kebabs Avotu","opening_hours":{"open_now":true},"photos":[{"height":3000,"html_attributions":["<a href=\"https://maps.google.com/maps/contrib/102060160826681330760\">Andrejs L</a>"],"photo_reference":"AeJbb3coDks29P1dQEIKHy7--_vhm1pPiv63SGCAuN5TLXck8IULXkS1ZxcWVCHpU-dabfF-3qUigDqSSgfq7VBjzcQHL8h8o2s3aHN9ELlsolcYJAECQy_YB5-4Ru3VwwnxPX8QSGbUE8Phiw1SQ0SPlhPUm8qXYkQ590_kntXPdmQ5c-tO","width":4000}],"place_id":"ChIJ3asIDqLP7kYRePdCzvVfKlw","plus_code":{"compound_code":"X42M+8F Riga","global_code":"9G86X42M+8F"},"rating":4.6,"reference":"ChIJ3asIDqLP7kYRePdCzvVfKlw","types":["restaurant","point_of_interest","food","establishment"],"user_ratings_total":183},{"business_status":"OPERATIONAL","formatted_address":"Augusta Deglava iela 69b, Vidzemes priekšpilsēta, Rīga, LV-1035","geometry":{"location":{"lat":56.9480326,"lng":24.1958096},"viewport":{"northeast":{"lat":56.94928662989273,"lng":24.19711717989272},"southwest":{"lat":56.94658697010728,"lng":24.19441752010728}}},"icon":"https://maps.gstatic.com/mapfiles/place_api/icons/v1/png_71/restaurant-71.png","icon_background_color":"#FF9E67","icon_mask_base_uri":"https://maps.gstatic.com/mapfiles/place_api/icons/v2/restaurant_pinlet","name":"Hasana Kebabs Deglava","opening_hours":{"open_now":true},"photos":[{"height":3024,"html_attributions":["<a href=\"https://maps.google.com/maps/contrib/105144504553470340018\">Orhan Mgr</a>"],"photo_reference":"AeJbb3eam2O_UQn6brGB6-LZ5GCm1EpXQkj0fk-ds4W4VWPgNcXW-U4yaFq0eqI4A8uRUOwY-MwGQUb64SEiurGNCiRv49xgHLmUBY1TohHCiZ4xc_qU8siGimJvZ0Kl2koyK8o56nAXOF6MVqJaP-ybkvRHXX0P7Rw0qo87M-6gqtj5c--O","width":4032}],"place_id":"ChIJm8Uq4HHP7kYR8nbYVG3Gj3k","plus_code":{"compound_code":"W5XW+68 Riga","global_code":"9G86W5XW+68"},"rating":4.6,"reference":"ChIJm8Uq4HHP7kYR8nbYVG3Gj3k","types":["restaurant","point_of_interest","food","establishment"],"user_ratings_total":35},{"business_status":"OPERATIONAL","formatted_address":"Brīvības iela 170, Latgales priekšpilsēta, Rīga, LV-1012","geometry":{"location":{"lat":56.9660869,"lng":24.1447272},"viewport":{"northeast":{"lat":56.96748572989272,"lng":24.14601912989272},"southwest":{"lat":56.96478607010728,"lng":24.14331947010728}}},"icon":"https://maps.gstatic.com/mapfiles/place_api/icons/v1/png_71/restaurant-71.png","icon_background_color":"#FF9E67","icon_mask_base_uri":"https://maps.gstatic.com/mapfiles/place_api/icons/v2/restaurant_pinlet","name":"Hasana kebabs Brivibas iela 170 riga","opening_hours":{"open_now":true},"photos":[{"height":4032,"html_attributions":["<a href=\"https://maps.google.com/maps/contrib/110219081529055019334\">A Google User</a>"],"photo_reference":"AeJbb3e1VgTEUAeJ6-xCVs5DcQFD8Wzumyj04SwQG7tFDz2-IAM60wUCe8Yzx7qlLXLbjupUnkq-lv3k233UuPtezCGB2ckhmzkoVYTs1CJhXe-5Fhn6KswD0DHtHDTolglBXkJ4Niq6A6HpKKxHQlRKVeNVQdVQqD_SFg-IMNuVZQssXW28","width":3024}],"place_id":"ChIJyynrRojP7kYRbOcFyMlAYdI","plus_code":{"compound_code":"X48V+CV Riga","global_code":"9G86X48V+CV"},"rating":4.6,"reference":"ChIJyynrRojP7kYRbOcFyMlAYdI","types":["restaurant","food","point_of_interest","establishment"],"user_ratings_total":7},{"business_status":"OPERATIONAL","formatted_address":"Valdeķu iela 62/1, Zemgales priekšpilsēta, Rīga, LV-1058","geometry":{"location":{"lat":56.90207729999999,"lng":24.0938904},"viewport":{"northeast":{"lat":56.90340972989272,"lng":24.09532177989272},"southwest":{"lat":56.90071007010727,"lng":24.09262212010728}}},"icon":"https://maps.gstatic.com/mapfiles/place_api/icons/v1/png_71/restaurant-71.png","icon_background_color":"#FF9E67","icon_mask_base_uri":"https://maps.gstatic.com/mapfiles/place_api/icons/v2/restaurant_pinlet","name":"Euro doner kebab","opening_hours":{"open_now":true},"photos":[{"height":3120,"html_attributions":["<a href=\"https://maps.google.com/maps/contrib/108518186638596645658\">Trang Web Vàng</a>"],"photo_reference":"AeJbb3fsFRhcJPebC1UCs6wKH7038jcA5kjbe8l2SAB-pdTLiwN5pTpSnPCG5l3aZ-SOkrD8e4ES-oBPK1THIDTaAX-a-LJd8BNMze5bBy-CkiRRMN0xpNHQLu3ThSGDKE5AoSt2Km1iIiRCBs47VaZzEciE0fe0U0SzVvYtAmk2a9ulranp","width":4160}],"place_id":"ChIJixyl_qjR7kYRFH1tV_Y-CfU","plus_code":{"compound_code":"W32V+RG Riga","global_code":"9G86W32V+RG"},"price_level":2,"rating":4.5,"reference":"ChIJixyl_qjR7kYRFH1tV_Y-CfU","types":["restaurant","point_of_interest","food","establishment"],"user_ratings_total":893},{"business_status":"OPERATIONAL","formatted_address":"Antonijas iela 8, Centra rajons, Rīga, LV-1010","geometry":{"location":{"lat":56.9581451,"lng":24.1113029},"viewport":{"northeast":{"lat":56.95953822989272,"lng":24.11257912989272},"southwest":{"lat":56.95683857010728,"lng":24.10987947010728}}},"icon":"https://maps.gstatic.com/mapfiles/place_api/icons/v1/png_71/restaurant-71.png","icon_background_color":"#FF9E67","icon_mask_base_uri":"https://maps.gstatic.com/mapfiles/place_api/icons/v2/restaurant_pinlet","name":"Space Falafel","opening_hours":{"open_now":true},"photos":[{"height":4080,"html_attributions":["<a href=\"https://maps.google.com/maps/contrib/114471344799146999728\">Nikhil Durgani</a>"],"photo_reference":"AeJbb3emuyLXtD8xL4uzyYcscVGNtuiotZk0-XOx11qMO3Qo8mj7Z3OogYg5IVPAcN298kxVwAqM1COpzNi7q2Tx2_KaIi5UGwg77EQCwEVR7actDLmsCwoCthcU-wq5QNLtXl4W0PleZbOD9U0RdoKoGRRK2x9U08fDeGXmDw5ngEY0vrl9","width":3072}],"place_id":"ChIJ2X53HZnP7kYR0Az62Wnlmrc","plus_code":{"compound_code":"X456+7G Riga","global_code":"9G86X456+7G"},"price_level":2,"rating":4.5,"reference":"ChIJ2X53HZnP7kYR0Az62Wnlmrc","types":["restaurant","point_of_interest","food","establishment"],"user_ratings_total":306},{"business_status":"OPERATIONAL","formatted_address":"Tērbatas iela 33/35, Centra rajons, Rīga, LV-1011","geometry":{"location":{"lat":56.9553789,"lng":24.1243783},"viewport":{"northeast":{"lat":56.95667102989272,"lng":24.12582477989272},"southwest":{"lat":56.95397137010728,"lng":24.12312512010728}}},"icon":"https://maps.gstatic.com/mapfiles/place_api/icons/v1/png_71/restaurant-71.png","icon_background_color":"#FF9E67","icon_mask_base_uri":"https://maps.gstatic.com/mapfiles/place_api/icons/v2/restaurant_pinlet","name":"KINGU - Kebabs & Chicken story (Tērbatas iela)","opening_hours":{"open_now":true},"photos":[{"height":1080,"html_attributions":["<a href=\"https://maps.google.com/maps/contrib/118381130190231604109\">kaspars vilcāns</a>"],"photo_reference":"AeJbb3cqJrGqxiptBnNQ_Y9pRvQQBqYI8sfnr0wlzyAw_RzC-jzHtU9wlbgYK5WVM-cTlWmzxUN_r91T7xgM_cYw6dEC3M9VojQRQcWGHDfhVXboaqN2TIL1-wWSnb97VLR7alYc4Xe7iU9cuJ1vgrOhp3Kv6R4F0u4exzikbDSAPXfpaXsS","width":1920}],"place_id":"ChIJfQPDeAfP7kYRfcd76rv6nRM","plus_code":{"compound_code":"X44F+5Q Riga","global_code":"9G86X44F+5Q"},"rating":4.5,"reference":"ChIJfQPDeAfP7kYRfcd76rv6nRM","types":["cafe","meal_takeaway","restaurant","food","point_of_interest","establishment"],"user_ratings_total":279},{"business_status":"OPERATIONAL","formatted_address":"Lāčplēša iela 27, Centra rajons, Rīga, LV-1011","geometry":{"location":{"lat":56.9544516,"lng":24.1253355},"viewport":{"northeast":{"lat":56.95575232989272,"lng":24.12660287989273},"southwest":{"lat":56.95305267010728,"lng":24.12390322010728}}},"icon":"https://maps.gstatic.com/mapfiles/place_api/icons/v1/png_71/restaurant-71.png","icon_background_color":"#FF9E67","icon_mask_base_uri":"https://maps.gstatic.com/mapfiles/place_api/icons/v2/restaurant_pinlet","name":"Lazy cats kebab bar","opening_hours":{"open_now":true},"photos":[{"height":4032,"html_attributions":["<a href=\"https://maps.google.com/maps/contrib/115328818674003895931\">A Google User</a>"],"photo_reference":"AeJbb3cBPuL58loKfeXSAMJmsJRCoq9qRNSdYeNeW8orNQaDv0dYj1g-OE5KvFzQfORur2bpIDavu_5egW0hTBIGSIkXolCAnGkFA6x9DeGg6ub85XpBXptfYziJE4DtlVRuz8c63l0mWZTXl8GXCKwfqMNPrLSMZBATyNKXBAjZnrWS20WG","width":3024}],"place_id":"ChIJIYiGeN3P7kYRGPCOAKtk0dg","plus_code":{"compound_code":"X43G+Q4 Riga","global_code":"9G86X43G+Q4"},"price_level":2,"rating":4.5,"reference":"ChIJIYiGeN3P7kYRGPCOAKtk0dg","types":["restaurant","food","point_of_interest","establishment"],"user_ratings_total":161},{"business_status":"OPERATIONAL","formatted_address":"Kurzeme District, Riga, LV-1083","geometry":{"location":{"lat":56.9532866,"lng":24.0528596},"viewport":{"northeast":{"lat":56.95463817989271,"lng":24.05420502989272},"southwest":{"lat":56.95193852010727,"lng":24.05150537010728}}},"icon":"https://maps.gstatic.com/mapfiles/place_api/icons/v1/png_71/restaurant-71.png","icon_background_color":"#FF9E67","icon_mask_base_uri":"https://maps.gstatic.com/mapfiles/place_api/icons/v2/restaurant_pinlet","name":"ZB SHAURMA","opening_hours":{"open_now":true},"photos":[{"height":3024,"html_attributions":["<a href=\"https://maps.google.com/maps/contrib/115802635953699999826\">A Google User</a>"],"photo_reference":"AeJbb3d0ZFWMC0iYhA8ugroPFN0IIjY5Sthy2q9q7l4rxi1b-qMQ-qEHpZI5imCJyyZw2MvDMp6WwRbieEEix1uzCE6C4IfAeW_n4BIq7KsRHOYs403FCwLZjhvj-fCzqFZU9AIc5TEWvXJhRbnLi8E8ZbQqfMVTPR22gWJlEu2vRMi4gYg7","width":4032}],"place_id":"ChIJyRyf6YDR7kYRQiXcOP5uyz8","plus_code":{"compound_code":"X333+84 Riga","global_code":"9G86X333+84"},"rating":4.5,"reference":"ChIJyRyf6YDR7kYRQiXcOP5uyz8","types":["restaurant","point_of_interest","food","establishment"],"user_ratings_total":123},{"business_status":"OPERATIONAL","formatted_address":"Brīvības iela 218, Vidzemes priekšpilsēta, Rīga, LV-1039","geometry":{"location":{"lat":56.9717584,"lng":24.1627961},"viewport":{"northeast":{"lat":56.97321487989272,"lng":24.16403277989272},"southwest":{"lat":56.97051522010728,"lng":24.16133312010728}}},"icon":"https://maps.gstatic.com/mapfiles/place_api/icons/v1/png_71/restaurant-71.png","icon_background_color":"#FF9E67","icon_mask_base_uri":"https://maps.gstatic.com/mapfiles/place_api/icons/v2/restaurant_pinlet","name":"HAS KEBABS","opening_hours":{"open_now":true},"photos":[{"height":4032,"html_attributions":["<a href=\"https://maps.google.com/maps/contrib/106362704979108771999\">A Google User</a>"],"photo_reference":"AeJbb3dDAIKTzpi8dCKxGu49pZ157OV5usOrmIQGG6YiWdFrtLh49oHw_cJJzpkQ0QsAAxA8wb8yprIK3e-DaONmQJulxYTnhOTKdOsRfEJgHHWNgQ13qyXqFhsXTgqDOVYFZ4_nSb0U-5Z5xK7WHXExp-dezzTiNC7g4L_wRgkxq16DvTBr","width":3024}],"place_id":"ChIJz9MTmSLP7kYRXCtjv6IfYNc","plus_code":{"compound_code":"X5C7+P4 Riga","global_code":"9G86X5C7+P4"},"rating":4.5,"reference":"ChIJz9MTmSLP7kYRXCtjv6IfYNc","types":["restaurant","point_of_interest","food","establishment"],"user_ratings_total":113},{"business_status":"OPERATIONAL","formatted_address":"Skolas iela 6/1, Centra rajons, Rīga, LV-1010","geometry":{"location":{"lat":56.9565168,"lng":24.1167462},"viewport":{"northeast":{"lat":56.95788377989272,"lng":24.11806082989272},"southwest":{"lat":56.95518412010728,"lng":24.11536117010728}}},"icon":"https://maps.gstatic.com/mapfiles/place_api/icons/v1/png_71/restaurant-71.png","icon_background_color":"#FF9E67","icon_mask_base_uri":"https://maps.gstatic.com/mapfiles/place_api/icons/v2/restaurant_pinlet","name":"Cafe \"7:40\"","opening_hours":{"open_now":true},"photos":[{"height":360,"html_attributions":["<a href=\"https://maps.google.com/maps/contrib/102381007689650959479\">A Google User</a>"],"photo_reference":"AeJbb3eCNWx5UDbkHehEa63tRCg2BJURuS2X3bcO-Cub9Hfteh-AVbZhFLWMASaP_ZX8fj50YEOqzJwU0_mFRTCo_qbc34trAj5NYO2KR92CbiYx9DtBIozhxGk5olkEZcZDtPPl93ObSm5QLK9fHtqo6cSQM4FSdU2zU6xz32IGzI_e8qxG","width":480}],"place_id":"ChIJpd-YW87P7kYROdB21ltExhI","plus_code":{"compound_code":"X448+HP Riga","global_code":"9G86X448+HP"},"price_level":2,"rating":4.5,"reference":"ChIJpd-YW87P7kYROdB21ltExhI","types":["restaurant","point_of_interest","food","establishment"],"user_ratings_total":45},{"business_status":"OPERATIONAL","formatted_address":"Krišjāņa Valdemāra iela 24, Centra rajons, Rīga, LV-1010","geometry":{"location":{"lat":56.95810660000001,"lng":24.1170081},"viewport":{"northeast":{"lat":56.95949947989272,"lng":24.11826817989272},"southwest":{"lat":56.95679982010728,"lng":24.11556852010728}}},"icon":"https://maps.gstatic.com/mapfiles/place_api/icons/v1/png_71/restaurant-71.png","icon_background_color":"#FF9E67","icon_mask_base_uri":"https://maps.gstatic.com/mapfiles/place_api/icons/v2/restaurant_pinlet","name":"Kebabcity and chicken bar","opening_hours":{"open_now":true},"photos":[{"height":768,"html_attributions":["<a href=\"https://maps.google.com/maps/contrib/116282274626939522123\">A Google User</a>"],"photo_reference":"AeJbb3eCjXmlkjipLiGbABYi10gc7QGL7H9z5BO7o9J3vGCwaAbs6ppvdAr0UaVIpu3j1pX_iO4WdafcsFh54gsykbQzLdp8hSXXXm5vejqEqScflFckqKqQPUfwVLV1lGFjEI-e0BJR08FsW-4sB434pq8ZizXq3QQoVuHyvYqKnBi37haD","width":1024}],"place_id":"ChIJARYyDZ3P7kYRYB4HCG_epu4","plus_code":{"compound_code":"X458+6R Riga","global_code":"9G86X458+6R"},"rating":4.5,"reference":"ChIJARYyDZ3P7kYRYB4HCG_epu4","types":["restaurant","point_of_interest","food","establishment"],"user_ratings_total":19},{"business_status":"OPERATIONAL","formatted_address":"Brīvības iela 218, Vidzemes priekšpilsēta, Rīga, LV-1039","geometry":{"location":{"lat":56.9718178,"lng":24.1626931},"viewport":{"northeast":{"lat":56.97323962989272,"lng":24.16396647989272},"southwest":{"lat":56.97053997010727,"lng":24.16126682010727}}},"icon":"https://maps.gstatic.com/mapfiles/place_api/icons/v1/png_71/restaurant-71.png","icon_background_color":"#FF9E67","icon_mask_base_uri":"https://maps.gstatic.com/mapfiles/place_api/icons/v2/restaurant_pinlet","name":"Kebabish LV","opening_hours":{"open_now":true},"photos":[{"height":1024,"html_attributions":["<a href=\"https://maps.google.com/maps/contrib/109844234015012225005\">A Google User</a>"],"photo_reference":"AeJbb3dNqKFvU_HEmggRBZXI-DvZpc2hCnFVOLOn7mOs8JMXMfUgANQfb3wI8rzMz7phTkauMQTYS0_o05LuuhXU1Uun6kx0wGxEVy4zsi1cTWzy4-0tLPIOHF50-8u8j4nlKhkgxUWg4jGXz1a8kinatICDLIUW26HqrUfgV1yORDfshOcj","width":768}],"place_id":"ChIJwTEoYt7P7kYRNWOe_YJss9g","plus_code":{"compound_code":"X5C7+P3 Riga","global_code":"9G86X5C7+P3"},"rating":4.5,"reference":"ChIJwTEoYt7P7kYRNWOe_YJss9g","types":["restaurant","point_of_interest","food","establishment"],"user_ratings_total":14},{"business_status":"OPERATIONAL","formatted_address":"Brīvības iela 290, Vidzemes priekšpilsēta, Rīga, LV-1006","geometry":{"location":{"lat":56.9773906,"lng":24.1812313},"viewport":{"northeast":{"lat":56.97885122989273,"lng":24.18247122989273},"southwest":{"lat":56.97615157010728,"lng":24.17977157010728}}},"icon":"https://maps.gstatic.com/mapfiles/place_api/icons/v1/png_71/restaurant-71.png","icon_background_color":"#FF9E67","icon_mask_base_uri":"https://maps.gstatic.com/mapfiles/place_api/icons/v2/restaurant_pinlet","name":"Kebab Factory","opening_hours":{"open_now":true},"photos":[{"height":6016,"html_attributions":["<a href=\"https://maps.google.com/maps/contrib/118237503863466352837\">Darius Patapas</a>"],"photo_reference":"AeJbb3c-0f4XC_I8T6b1WOPA2gsc210b60oe6FVZRt68H88KrDTRsxydcvgiBY4sqAkLT8Qg32pccs6GJ8LHAgZvzhgbsSQu1eag7b8dC_xb6DKDq0Uggzhi_h6Zp5Zxb4nUGWTOoS38PptJFm-2IbAXIRJDeyQ9PW0B7SUbYAxP0lIEbJDm","width":4512}],"place_id":"ChIJ8-J8EPbO7kYR1wxNI7lk5hQ","plus_code":{"compound_code":"X5GJ+XF Riga","global_code":"9G86X5GJ+XF"},"price_level":2,"rating":4.4,"reference":"ChIJ8-J8EPbO7kYR1wxNI7lk5hQ","types":["restaurant","food","point_of_interest","establishment"],"user_ratings_total":1619},{"business_status":"OPERATIONAL","formatted_address":"Vaidavas iela 12, Vidzemes priekšpilsēta, Rīga, LV-1084","geometry":{"location":{"lat":56.96083580000001,"lng":24.1750653},"viewport":{"northeast":{"lat":56.96215167989273,"lng":24.17670567989272},"southwest":{"lat":56.95945202010729,"lng":24.17400602010728}}},"icon":"https://maps.gstatic.com/mapfiles/place_api/icons/v1/png_71/restaurant-71.png","icon_background_color":"#FF9E67","icon_mask_base_uri":"https://maps.gstatic.com/mapfiles/place_api/icons/v2/restaurant_pinlet","name":"Kebab House","opening_hours":{"open_now":true},"photos":[{"height":3021,"html_attributions":["<a href=\"https://maps.google.com/maps/contrib/104504023812288065119\">A Google User</a>"],"photo_reference":"AeJbb3cfQeBGpQI7WmQbjqZK01Pb7Wxv2K4xJPKVxhD4QibD3Vc9YmRQzJSyUuqxUV06B2Ogvf5Yr7Cq8d5rf6S3BqODThU8DAP3Iwg3jXf8yEX4f3xld5su1-xSnRQaULjeHhZ5QYyOBV3XRizZzdPGtjnl-Ynp7QPdQYDvSiJP_sp6jK95","width":4032}],"place_id":"ChIJz-vey1rP7kYRzxRFdKgoW6k","plus_code":{"compound_code":"X56G+82 Riga","global_code":"9G86X56G+82"},"rating":4.4,"reference":"ChIJz-vey1rP7kYRzxRFdKgoW6k","types":["restaurant","point_of_interest","food","establishment"],"user_ratings_total":789},{"business_status":"OPERATIONAL","formatted_address":"Kurzemes prospekts 153a, Kurzemes rajons, Rīga, LV-1069","geometry":{"location":{"lat":56.957151,"lng":23.9967426},"viewport":{"northeast":{"lat":56.95850467989272,"lng":23.99845457989272},"southwest":{"lat":56.95580502010728,"lng":23.99575492010727}}},"icon":"https://maps.gstatic.com/mapfiles/place_api/icons/v1/png_71/restaurant-71.png","icon_background_color":"#FF9E67","icon_mask_base_uri":"https://maps.gstatic.com/mapfiles/place_api/icons/v2/restaurant_pinlet","name":"LATVIJAS KEBAB UN BISTRO","opening_hours":{"open_now":true},"photos":[{"height":2268,"html_attributions":["<a href=\"https://maps.google.com/maps/contrib/115489432232080624691\">A Google User</a>"],"photo_reference":"AeJbb3eiHUzh0NzqGJSFD3XheMmVk8lc8B0J07CJHI_7NL1KQePSSfgHJCZm9J6Ugc3tRxxWwy8LGBPjYBZz_NvQYNlaW3hqXbutRDwOLKQyjmTY4nBZY1zj2dIQI8Q-f60WZnyy3m757_cmwuWhRc9UkjF2JVSSOlShSWfnRkqVYYKAZbE8","width":4032}],"place_id":"ChIJKXlp4Ojb7kYRgnBNTqisVNc","plus_code":{"compound_code":"XX4W+VM Riga","global_code":"9G85XX4W+VM"},"rating":4.4,"reference":"ChIJKXlp4Ojb7kYRgnBNTqisVNc","types":["restaurant","point_of_interest","food","establishment"],"user_ratings_total":30},{"business_status":"OPERATIONAL","formatted_address":"Maskavas iela 250B, Latgales priekšpilsēta, Rīga, LV-1063","geometry":{"location":{"lat":56.9170177,"lng":24.1723142},"viewport":{"northeast":{"lat":56.91839977989272,"lng":24.17374132989272},"southwest":{"lat":56.91570012010727,"lng":24.17104167010728}}},"icon":"https://maps.gstatic.com/mapfiles/place_api/icons/v1/png_71/restaurant-71.png","icon_background_color":"#FF9E67","icon_mask_base_uri":"https://maps.gstatic.com/mapfiles/place_api/icons/v2/restaurant_pinlet","name":"The Hungry Kebab & Pizza","photos":[{"height":3024,"html_attributions":["<a href=\"https://maps.google.com/maps/contrib/102299102574163414805\">Martin Vainoras</a>"],"photo_reference":"AeJbb3cdQJrwIWwwTIcvZCIlS1AddwBeBj9VldrxkzshRwXahFqo2kETFqq2_oEdWz-8VQkckGHssg0qDUEgCVLZnmgvFInyv0fsGIWYtb3k7Hz28ykUbRdh9tgL6GclvlibO0rbAVxHv4-GIGq0NdweuwPlqluWBoHTkgtVauTx4-Cf_KNy","width":4032}],"place_id":"ChIJgRffE6DR7kYReUHqTWnfv6M","plus_code":{"compound_code":"W58C+RW Riga","global_code":"9G86W58C+RW"},"rating":4.4,"reference":"ChIJgRffE6DR7kYReUHqTWnfv6M","types":["restaurant","point_of_interest","food","establishment"],"user_ratings_total":21},{"business_status":"OPERATIONAL","formatted_address":"Stabu iela 8, Centra rajons, Rīga, LV-1010","geometry":{"location":{"lat":56.95901629999999,"lng":24.1225892},"viewport":{"northeast":{"lat":56.96038112989272,"lng":24.12396457989272},"southwest":{"lat":56.95768147010727,"lng":24.12126492010728}}},"icon":"https://maps.gstatic.com/mapfiles/place_api/icons/v1/png_71/restaurant-71.png","icon_background_color":"#FF9E67","icon_mask_base_uri":"https://maps.gstatic.com/mapfiles/place_api/icons/v2/restaurant_pinlet","name":"Önder","opening_hours":{"open_now":true},"photos":[{"height":2128,"html_attributions":["<a href=\"https://maps.google.com/maps/contrib/117957304827589461070\">Ksenija P</a>"],"photo_reference":"AeJbb3d0cLuQW0B2hTiWo9A5mjZEv7gMTeJja1j6g1AyMzSn5FlsoTBQNg_jAcy7BQnjb2JQG2f3dmV65Z7MDObkfkjYo2zFFyreEp7pfBDT96c6KqljuDxO5Y2dueAxpJUTzV7vhvmG4Vun1POBf79KRwEP_o5NmeM_Jrdygh5VKN_rTmTb","width":3365}],"place_id":"ChIJsxi1xxnP7kYRhmmoyhOduh4","plus_code":{"compound_code":"X45F+J2 Riga","global_code":"9G86X45F+J2"},"rating":4.4,"reference":"ChIJsxi1xxnP7kYRhmmoyhOduh4","types":["restaurant","point_of_interest","food","establishment"],"user_ratings_total":7},{"business_status":"OPERATIONAL","formatted_address":"Brīvības bulvāris 30, Centra rajons, Rīga, LV-1050","geometry":{"location":{"lat":56.951958,"lng":24.114819},"viewport":{"northeast":{"lat":56.95336577989273,"lng":24.11604317989272},"southwest":{"lat":56.95066612010728,"lng":24.11334352010727}}},"icon":"https://maps.gstatic.com/mapfiles/place_api/icons/v1/png_71/restaurant-71.png","icon_background_color":"#FF9E67","icon_mask_base_uri":"https://maps.gstatic.com/mapfiles/place_api/icons/v2/restaurant_pinlet","name":"Street Food Points","opening_hours":{"open_now":true},"photos":[{"height":1600,"html_attributions":["<a href=\"https://maps.google.com/maps/contrib/114456634739149831914\">Dzimtene , makšķernieku klubs</a>"],"photo_reference":"AeJbb3edCx8LinZ1xkzU994kPFYt5ipaS19EUqXOI-SQann3SGo8VshFAJnsCUMhpPO4wZR3417qY8p9xFg-fm6oxBSqiumoqz724QbmBZAKXwoYHQVrOmVSZc_AIS8WOjUVqiy904My3-OjTh24rB7InRK5VMvtAWtmB0wrpfy8TdoMPbHY","width":900}],"place_id":"ChIJAdIKhdHP7kYRzyYg4tUMdnM","plus_code":{"compound_code":"X427+QW Riga","global_code":"9G86X427+QW"},"price_level":1,"rating":4.3,"reference":"ChIJAdIKhdHP7kYRzyYg4tUMdnM","types":["meal_delivery","meal_takeaway","restaurant","food","point_of_interest","establishment"],"user_ratings_total":939},{"business_status":"OPERATIONAL","formatted_address":"Dzirnavu iela 125-119, Centra rajons, Rīga, LV-1050","geometry":{"location":{"lat":56.9486524,"lng":24.1252773},"viewport":{"northeast":{"lat":56.94998752989272,"lng":24.12647762989272},"southwest":{"lat":56.94728787010728,"lng":24.12377797010728}}},"icon":"https://maps.gstatic.com/mapfiles/place_api/icons/v1/png_71/restaurant-71.png","icon_background_color":"#FF9E67","icon_mask_base_uri":"https://maps.gstatic.com/mapfiles/place_api/icons/v2/restaurant_pinlet","name":"Hasana Kebabs","opening_hours":{"open_now":true},"photos":[{"height":758,"html_attributions":["<a href=\"https://maps.google.com/maps/contrib/106335839907445747147\">A Google User</a>"],"photo_reference":"AeJbb3dyxY8hhfL1RhnerAx0nR0CzuBku8HGAylaNGJTXrc0Ygtbmd9NjPGtgn1WRNZUmm8fKJaLOsqBD4zJzOe0dqTHoRCJSdW4gnhoW4ub7kK_ytZkV78afClepjdrVNt2AX2tYmy0OABUE18hZp3SM3GU_w2UDzTeaULTxY-zTaRe7FLc","width":1599}],"place_id":"ChIJH5R5XIbP7kYR7o1TTYxUDM8","plus_code":{"compound_code":"W4XG+F4 Riga","global_code":"9G86W4XG+F4"},"rating":4.3,"reference":"ChIJH5R5XIbP7kYR7o1TTYxUDM8","types":["restaurant","point_of_interest","food","establishment"],"user_ratings_total":558},{"business_status":"OPERATIONAL","formatted_address":"Krišjāņa Barona iela 17, Centra rajons, Rīga, LV-1011","geometry":{"location":{"lat":56.9523427,"lng":24.1232833},"viewport":{"northeast":{"lat":56.95365737989273,"lng":24.12468722989272},"southwest":{"lat":56.95095772010728,"lng":24.12198757010728}}},"icon":"https://maps.gstatic.com/mapfiles/place_api/icons/v1/png_71/restaurant-71.png","icon_background_color":"#FF9E67","icon_mask_base_uri":"https://maps.gstatic.com/mapfiles/place_api/icons/v2/restaurant_pinlet","name":"Hot kebabs","opening_hours":{"open_now":true},"photos":[{"height":3024,"html_attributions":["<a href=\"https://maps.google.com/maps/contrib/101664307269146661044\">Blaise Blaizo</a>"],"photo_reference":"AeJbb3cKkdBAdAAnnQT1B24EWvyPU7Zh6Wa0sZss8PzjSfA8fy9Ri4qBhoLXzUBg8_dVRFqrXlQSw4C1JDI7HfcvnoRZXh59HrZckSr8AvyGrFeANYeQRw5Ycij1pwIkauwuoatJCmiMgCLhbqWyeMOwMXXhGyOEOEmwIRrir7HiAgVQ7HRZ","width":4032}],"place_id":"ChIJ-eFLQXPP7kYRXQZhnvnikkk","plus_code":{"compound_code":"X42F+W8 Riga","global_code":"9G86X42F+W8"},"rating":4.3,"reference":"ChIJ-eFLQXPP7kYRXQZhnvnikkk","types":["restaurant","food","point_of_interest","establishment"],"user_ratings_total":138},{"business_status":"OPERATIONAL","formatted_address":"Dzelzavas iela 74, Vidzemes priekšpilsēta, Rīga, LV-1082","geometry":{"location":{"lat":56.95606189999999,"lng":24.1925275},"viewport":{"northeast":{"lat":56.95750062989272,"lng":24.19391812989272},"southwest":{"lat":56.95480097010728,"lng":24.19121847010728}}},"icon":"https://maps.gstatic.com/mapfiles/place_api/icons/v1/png_71/restaurant-71.png","icon_background_color":"#FF9E67","icon_mask_base_uri":"https://maps.gstatic.com/mapfiles/place_api/icons/v2/restaurant_pinlet","name":"Kebabs un Draugi","opening_hours":{"open_now":true},"photos":[{"height":3014,"html_attributions":["<a href=\"https://maps.google.com/maps/contrib/111508684783662874433\">A Google User</a>"],"photo_reference":"AeJbb3dHtGe_TPCadAvm9VU-o4kXTq-V2KftdPPmR2EAG4W5-vz8OtGQYNCPb96y85Ebw-TC2r3vZI9xumj21jAJJcbyEkivRavpascKYwksS_BHb7wZl44r8t9WPeeBr1RTdJo5aL_qyMdYgUlqAY5D3dWolKMFvwKpVFVNC69Yk5vW36QC","width":4018}],"place_id":"ChIJA5uwglzP7kYR8I5r74thcmM","plus_code":{"compound_code":"X54V+C2 Riga","global_code":"9G86X54V+C2"},"rating":4.3,"reference":"ChIJA5uwglzP7kYR8I5r74thcmM","types":["restaurant","point_of_interest","food","establishment"],"user_ratings_total":86},{"business_status":"OPERATIONAL","formatted_address":"Matīsa iela 18, Centra rajons, Rīga, LV-1001","geometry":{"location":{"lat":56.95750020000001,"lng":24.1320185},"viewport":{"northeast":{"lat":56.95890082989272,"lng":24.13343927989272},"southwest":{"lat":56.95620117010728,"lng":24.13073962010728}}},"icon":"https://maps.gstatic.com/mapfiles/place_api/icons/v1/png_71/restaurant-71.png","icon_background_color":"#FF9E67","icon_mask_base_uri":"https://maps.gstatic.com/mapfiles/place_api/icons/v2/restaurant_pinlet","name":"Kebabnica Nr. 81","opening_hours":{"open_now":true},"photos":[{"height":1080,"html_attributions":["<a href=\"https://maps.google.com/maps/contrib/118381130190231604109\">kaspars vilcāns</a>"],"photo_reference":"AeJbb3fkwbg7TR199XhMkq4DySeRFnQS_-UuRfQsDiUIAhalrONKOkjYQXqpioyAgYigaPuWRd6WcXUJtYspHOzvJWvUrC6xeg2zOIEb_N-F_gwQe_ZqAvJcXHNdKjHXBBaQSqAKiCh7z6CDhCCQzmtOybyIwpO12mHecOehnphzsO1v0MNG","width":1920}],"place_id":"ChIJ3UhY8xrP7kYReL7zDQxwbiY","plus_code":{"compound_code":"X44J+XQ Riga","global_code":"9G86X44J+XQ"},"rating":4.3,"reference":"ChIJ3UhY8xrP7kYReL7zDQxwbiY","types":["restaurant","point_of_interest","food","establishment"],"user_ratings_total":73},{"business_status":"OPERATIONAL","formatted_address":"Brīvības iela 432, Vidzemes priekšpilsēta, Rīga, LV-1024","geometry":{"location":{"lat":56.98921139999999,"lng":24.2417863},"viewport":{"northeast":{"lat":56.99074927989273,"lng":24.24303367989272},"southwest":{"lat":56.98804962010728,"lng":24.24033402010728}}},"icon":"https://maps.gstatic.com/mapfiles/place_api/icons/v1/png_71/restaurant-71.png","icon_background_color":"#FF9E67","icon_mask_base_uri":"https://maps.gstatic.com/mapfiles/place_api/icons/v2/restaurant_pinlet","name":"Simple kebabs & cafe","opening_hours":{"open_now":true},"photos":[{"height":2269,"html_attributions":["<a href=\"https://maps.google.com/maps/contrib/107139903574310028353\">A Google User</a>"],"photo_reference":"AeJbb3eKFkUFEcJyQ9PYALrNF4bQOEbsN1z_Dq-ltMTJIvA_HnI5LK7JHuFMyILrEi4yT78H10PnSnCymtDGNHZJhM-5anZC0TChOSyiseXfyNjYRpFrJa2A068XlvLPyVYuA44V0Y77gAIVRNWr8-I6nYy7aPG95-uDodGBEPwnhjQ19vNJ","width":4032}],"place_id":"ChIJgRAE8CLP7kYR6Giv5efWiy8","plus_code":{"compound_code":"X6QR+MP Riga","global_code":"9G86X6QR+MP"},"rating":4.2,"reference":"ChIJgRAE8CLP7kYR6Giv5efWiy8","types":["restaurant","point_of_interest","food","establishment"],"user_ratings_total":155},{"business_status":"OPERATIONAL","formatted_address":"Tērbatas iela 14, Centra rajons, Rīga, LV-1011","geometry":{"location":{"lat":56.9536579,"lng":24.121318},"viewport":{"northeast":{"lat":56.95503697989272,"lng":24.12262112989272},"southwest":{"lat":56.95233732010728,"lng":24.11992147010728}}},"icon":"https://maps.gstatic.com/mapfiles/place_api/icons/v1/png_71/restaurant-71.png","icon_background_color":"#FF9E67","icon_mask_base_uri":"https://maps.gstatic.com/mapfiles/place_api/icons/v2/restaurant_pinlet","name":"yalla lebanese cuisine","opening_hours":{"open_now":true},"photos":[{"height":4032,"html_attributions":["<a href=\"https://maps.google.com/maps/contrib/101870384609819734340\">Bridgid Seymour-East</a>"],"photo_reference":"AeJbb3eq1AQlLhMOUNzGwT70syaBBLr8p3osTdbKwMxbx_WRH4J12IfvfHo_2kFyK0LXfMbyA45GprX8gxSG6qyojE2GnZ3RG0wDo2AHj0xLiK24aEwqp9RFarEb1dIiAPnI6Zn7-ezywIgS3DZQ2r2xzTdz1Z70skAxbTR2-DfOSp4yCzj4","width":3024}],"place_id":"ChIJKz5iI7TP7kYR6mXIvVTG1Dg","plus_code":{"compound_code":"X43C+FG Riga","global_code":"9G86X43C+FG"},"rating":4.2,"reference":"ChIJKz5iI7TP7kYR6mXIvVTG1Dg","types":["restaurant","point_of_interest","food","establishment"],"user_ratings_total":131},{"business_status":"OPERATIONAL","formatted_address":"Augusta Deglava iela 52, Latgales priekšpilsēta, Rīga, LV-1035","geometry":{"location":{"lat":56.9509252,"lng":24.1712916},"viewport":{"northeast":{"lat":56.95234127989273,"lng":24.17267112989272},"southwest":{"lat":56.94964162010728,"lng":24.16997147010728}}},"icon":"https://maps.gstatic.com/mapfiles/place_api/icons/v1/png_71/restaurant-71.png","icon_background_color":"#FF9E67","icon_mask_base_uri":"https://maps.gstatic.com/mapfiles/place_api/icons/v2/restaurant_pinlet","name":"Hasana kebabs","opening_hours":{"open_now":true},"photos":[{"height":5120,"html_attributions":["<a href=\"https://maps.google.com/maps/contrib/109730865484304871542\">vita logina</a>"],"photo_reference":"AeJbb3e-xHsjt5lSttlKVyFZ6U_IMnlZKx-NhtJRQ_khCH3DcgAQ-wDRaMzOsW3Zw4dcNxzeqmcBmIJQp8QEgDgAfHxUAgaABjtSa-5rUnJ7AtGrqBCWpfjSPG-oaaXzQQm5lCpTAsWEYJ4iYlLdYQsg3Ybfsef2cL9L62Cg_txNHgqKZJJN","width":3840}],"place_id":"ChIJnwrTBT7P7kYRkk-tldh7Y3g","plus_code":{"compound_code":"X52C+9G Riga","global_code":"9G86X52C+9G"},"rating":4.2,"reference":"ChIJnwrTBT7P7kYRkk-tldh7Y3g","types":["restaurant","food","point_of_interest","establishment"],"user_ratings_total":43},{"business_status":"OPERATIONAL","formatted_address":"Kalpaka bulvāris 12A, Centra rajons, Rīga, LV-1010","geometry":{"location":{"lat":56.95833469999999,"lng":24.1054937},"viewport":{"northeast":{"lat":56.95971967989271,"lng":24.10694582989272},"southwest":{"lat":56.95702002010727,"lng":24.10424617010728}}},"icon":"https://maps.gstatic.com/mapfiles/place_api/icons/v1/png_71/restaurant-71.png","icon_background_color":"#FF9E67","icon_mask_base_uri":"https://maps.gstatic.com/mapfiles/place_api/icons/v2/restaurant_pinlet","name":"Doner King","opening_hours":{"open_now":true},"photos":[{"height":3024,"html_attributions":["<a href=\"https://maps.google.com/maps/contrib/111939889476063844492\">A Google User</a>"],"photo_reference":"AeJbb3c3VBjxeEOlvfabYDW2pzjLXH_tHcPJ448ePJFnnBw_NNDh2Xb1JRSECRRjxN8BpbTNe62RDkOFK-d35CrDXxUFNP7MLp5iIVdT-XgvP3ljfpah7pIBY3jsg10C7cX-xQ6bIzAy253QGj5HgVVZfs_n7PwcUnk4wWJ_WGW6YowpCHFu","width":3287}],"place_id":"ChIJabNUwxHP7kYR88kHsbjnaXE","plus_code":{"compound_code":"X454+85 Riga","global_code":"9G86X454+85"},"rating":4.1,"reference":"ChIJabNUwxHP7kYR88kHsbjnaXE","types":["restaurant","food","point_of_interest","establishment"],"user_ratings_total":181},{"business_status":"OPERATIONAL","formatted_address":"Kurzemes prospekts 133, Kurzemes rajons, Rīga, LV-1069","geometry":{"location":{"lat":56.96182469999999,"lng":23.9984484},"viewport":{"northeast":{"lat":56.96315227989272,"lng":23.99991502989272},"southwest":{"lat":56.96045262010728,"lng":23.99721537010728}}},"icon":"https://maps.gstatic.com/mapfiles/place_api/icons/v1/png_71/restaurant-71.png","icon_background_color":"#FF9E67","icon_mask_base_uri":"https://maps.gstatic.com/mapfiles/place_api/icons/v2/restaurant_pinlet","name":"Kebab King","opening_hours":{"open_now":true},"photos":[{"height":3456,"html_attributions":["<a href=\"https://maps.google.com/maps/contrib/116058800951429055061\">Igor&#39; raz</a>"],"photo_reference":"AeJbb3dYwzfjx01QD8kc-NgaFdm7sLPGuDMUsSpZcVXThy55XBBDrJgw7sCMPXgieXyCnuAHhwKAt94SGmKTt0Zxj8EzDcdg4f8jvbv8Gp_f_5s-gQeMy9YAD2h_j1ZgpG9FvhcSJUf_iG4dxxFIN3LZJnIIp-zHuOw9utTDhgUugcmigP37","width":4608}],"place_id":"ChIJtQ2EUj7b7kYRlWPC-LKn3gs","plus_code":{"compound_code":"XX6X+P9 Riga","global_code":"9G85XX6X+P9"},"rating":4.1,"reference":"ChIJtQ2EUj7b7kYRlWPC-LKn3gs","types":["restaurant","point_of_interest","food","establishment"],"user_ratings_total":101},{"business_status":"OPERATIONAL","formatted_address":"Sergeja Eizenšteina iela 29, Vidzemes priekšpilsēta, Rīga, LV-1079","geometry":{"location":{"lat":56.9693602,"lng":24.2318902},"viewport":{"northeast":{"lat":56.97074157989272,"lng":24.23317402989272},"southwest":{"lat":56.96804192010727,"lng":24.23047437010728}}},"icon":"https://maps.gstatic.com/mapfiles/place_api/icons/v1/png_71/restaurant-71.png","icon_background_color":"#FF9E67","icon_mask_base_uri":"https://maps.gstatic.com/mapfiles/place_api/icons/v2/restaurant_pinlet","name":"Has Kebabs (Mežciems)","opening_hours":{"open_now":true},"photos":[{"height":1703,"html_attributions":["<a href=\"https://maps.google.com/maps/contrib/105564496803222176818\">A Google User</a>"],"photo_reference":"AeJbb3exFXdLp8brc6sT5GbiaBEK7glfB90Riwf6Y_8EJDNC67PoWBliBcy_ysHhGk5OoHp8VbspnpS8AvZd2bTmutujQY8beHX5pT96Du0ONFM158l6Q3JRfnF68-dwS2Gmiemd6iOLYg7PJSqkfYlLaS8Jux9AVTe4juT0IL1DbMB2IOg9","width":2560}],"place_id":"ChIJ0YvEvKTN7kYR4ubEth0T2fI","plus_code":{"compound_code":"X69J+PQ Riga","global_code":"9G86X69J+PQ"},"rating":4.1,"reference":"ChIJ0YvEvKTN7kYR4ubEth0T2fI","types":["restaurant","food","point_of_interest","establishment"],"user_ratings_total":55},{"business_status":"OPERATIONAL","formatted_address":"Kuģu iela 11, Zemgales priekšpilsēta, Rīga, LV-1048","geometry":{"location":{"lat":56.9424332,"lng":24.0958719},"viewport":{"northeast":{"lat":56.94379272989271,"lng":24.09708012989272},"southwest":{"lat":56.94109307010727,"lng":24.09438047010728}}},"icon":"https://maps.gstatic.com/mapfiles/place_api/icons/v1/png_71/restaurant-71.png","icon_background_color":"#FF9E67","icon_mask_base_uri":"https://maps.gstatic.com/mapfiles/place_api/icons/v2/restaurant_pinlet","name":"Kebabu Studija","opening_hours":{"open_now":true},"photos":[{"height":4032,"html_attributions":["<a href=\"https://maps.google.com/maps/contrib/106187775363284103733\">Rain Ruus</a>"],"photo_reference":"AeJbb3dhMOlIu8kkef7Cpf9qY35obK3JJBdP-y_iVOKzvg4o3-7dvJr7G-O0QyjLkqM-whW5Ra1Z9MorSfi21H9yFbTK6d9NjDXe12sOlAYD4Yd8pQdO5heAX-UIVzxZrOvG4VtVI6c4WjEa4091X6kmPOETJ1cwEUMaR6D27o5IQS8kwkgT","width":3024}],"place_id":"ChIJ9cd6UxPR7kYRQFD0OtS1-rQ","plus_code":{"compound_code":"W3RW+X8 Riga","global_code":"9G86W3RW+X8"},"price_level":1,"rating":4,"reference":"ChIJ9cd6UxPR7kYRQFD0OtS1-rQ","types":["restaurant","food","point_of_interest","establishment"],"user_ratings_total":386},{"business_status":"OPERATIONAL","formatted_address":"Brīvības iela 90, Centra rajons, Rīga, LV-1001","geometry":{"location":{"lat":56.959525,"lng":24.1291204},"viewport":{"northeast":{"lat":56.96097427989272,"lng":24.13036802989272},"southwest":{"lat":56.95827462010728,"lng":24.12766837010728}}},"icon":"https://maps.gstatic.com/mapfiles/place_api/icons/v1/png_71/restaurant-71.png","icon_background_color":"#FF9E67","icon_mask_base_uri":"https://maps.gstatic.com/mapfiles/place_api/icons/v2/restaurant_pinlet","name":"Supreme Kebab","opening_hours":{"open_now":true},"photos":[{"height":3000,"html_attributions":["<a href=\"https://maps.google.com/maps/contrib/103548881718548726903\">A Google User</a>"],"photo_reference":"AeJbb3fEP0Yv4SFngNbh2JhmiOkBFAFmHIu7fPIB_zvftDFQIEFHH3vZx3uey9IdjL6FBOFwKG1_caa9N_V_q2U6f-81OfLzzYGTW-H-8RQnl2WKwfI8p9jMGa1P0j6btdtuL81FI75xfQMpTGgCJvbs26fvq5jVnpPDHf1YcTZAsvku2wtu","width":4000}],"place_id":"ChIJNc7HCMvP7kYR-cRut0tPh94","plus_code":{"compound_code":"X45H+RJ Riga","global_code":"9G86X45H+RJ"},"price_level":1,"rating":4,"reference":"ChIJNc7HCMvP7kYR-cRut0tPh94","types":["restaurant","food","point_of_interest","establishment"],"user_ratings_total":319},{"business_status":"OPERATIONAL","formatted_address":"Tilta iela 32, Ziemeļu rajons, Rīga, LV-1005","geometry":{"location":{"lat":56.9955487,"lng":24.1298847},"viewport":{"northeast":{"lat":56.99690472989271,"lng":24.13122912989272},"southwest":{"lat":56.99420507010727,"lng":24.12852947010727}}},"icon":"https://maps.gstatic.com/mapfiles/place_api/icons/v1/png_71/restaurant-71.png","icon_background_color":"#FF9E67","icon_mask_base_uri":"https://maps.gstatic.com/mapfiles/place_api/icons/v2/restaurant_pinlet","name":"Labs Kebabs Rīga - Sarkandaugava","opening_hours":{"open_now":true},"photos":[{"height":2445,"html_attributions":["<a href=\"https://maps.google.com/maps/contrib/105573298414112350204\">A Google User</a>"],"photo_reference":"AeJbb3eGv5M9nMfcmX_sPLxYVkLMseQPFH4UhR34eGL7ec9p87OgBKA-Gt8VqCNTnXS7E7k8KTmdo9BItTGRmuBjvoKM5pDdP9V58h4BPumwJTaZI-gy6ykxJQ_P1icxnoQvCHjrLsHiaRokV06pksoIV0jjslYUODz_EbPnFIwHzMtqo9hA","width":2457}],"place_id":"ChIJ3dkMr9rP7kYRglzRHvfQ_50","plus_code":{"compound_code":"X4WH+5X Riga","global_code":"9G86X4WH+5X"},"rating":4,"reference":"ChIJ3dkMr9rP7kYRglzRHvfQ_50","types":["restaurant","point_of_interest","food","establishment"],"user_ratings_total":189},{"business_status":"OPERATIONAL","formatted_address":"Dzirnavu iela 115, Latgales priekšpilsēta, Rīga, LV-1011","geometry":{"location":{"lat":56.9493009,"lng":24.1249738},"viewport":{"northeast":{"lat":56.95064322989273,"lng":24.12624807989272},"southwest":{"lat":56.94794357010728,"lng":24.12354842010728}}},"icon":"https://maps.gstatic.com/mapfiles/place_api/icons/v1/png_71/restaurant-71.png","icon_background_color":"#FF9E67","icon_mask_base_uri":"https://maps.gstatic.com/mapfiles/place_api/icons/v2/restaurant_pinlet","name":"KEBAB house","opening_hours":{"open_now":true},"photos":[{"height":3024,"html_attributions":["<a href=\"https://maps.google.com/maps/contrib/114095282294845439746\">Gunta Brencena</a>"],"photo_reference":"AeJbb3d9oEz_jLM2f2UdGNxyHGNitrEqFfDMaN0sPrICmLlCgF3yfOpTF2u6I3m006kIwlQVvCbk4kOY6D_PjKjQHeGXX5yJirrVJ6DVbDQfMp8KNRjcs7JAbHFOGDNzrxIbhmPBP8l98jSisQeNrsuQdv0nPmJ9FAyl_EO8fZe4PA_fwnd3","width":4032}],"place_id":"ChIJM0sLKC3O7kYRP8rXjcTqDZI","plus_code":{"compound_code":"W4XG+P2 Riga","global_code":"9G86W4XG+P2"},"price_level":1,"rating":3.9,"reference":"ChIJM0sLKC3O7kYRP8rXjcTqDZI","types":["restaurant","food","point_of_interest","establishment"],"user_ratings_total":544},{"business_status":"OPERATIONAL","formatted_address":"Grēcinieku iela 3, Centra rajons, Rīga, LV-1050","geometry":{"location":{"lat":56.94713789999999,"lng":24.1103167},"viewport":{"northeast":{"lat":56.94842942989272,"lng":24.11165297989272},"southwest":{"lat":56.94572977010728,"lng":24.10895332010728}}},"icon":"https://maps.gstatic.com/mapfiles/place_api/icons/v1/png_71/restaurant-71.png","icon_background_color":"#FF9E67","icon_mask_base_uri":"https://maps.gstatic.com/mapfiles/place_api/icons/v2/restaurant_pinlet","name":"Hide out kebab kafé","opening_hours":{"open_now":true},"photos":[{"height":3000,"html_attributions":["<a href=\"https://maps.google.com/maps/contrib/117409481556337067402\">lukass smelkovs</a>"],"photo_reference":"AeJbb3dW2RX7gpeei5wo6Z7Ihnh1M5CGjk_HDVYVZE2BSSi4RLbjiUwyrbyLD-7Cu-mi05zcI1bqsX8IDPec48ATlalpQzhf1qFzwReiOpBG_3B7NHoOLkFFJD55DLxUmeYp700Z_P4l20d0Nt368oxpmwDmVHFKh_hlYG9T8bZ-oEF9hyMl","width":4000}],"place_id":"ChIJP7sQawbP7kYRL2bHPc79X8A","plus_code":{"compound_code":"W4W6+V4 Riga","global_code":"9G86W4W6+V4"},"price_level":1,"rating":3.7,"reference":"ChIJP7sQawbP7kYRL2bHPc79X8A","types":["restaurant","food","point_of_interest","establishment"],"user_ratings_total":173},{"business_status":"OPERATIONAL","formatted_address":"Grēcinieku iela 3, Centra rajons, Rīga, LV-1050","geometry":{"location":{"lat":56.94710929999999,"lng":24.1103093},"viewport":{"northeast":{"lat":56.94842942989272,"lng":24.11165297989272},"southwest":{"lat":56.94572977010728,"lng":24.10895332010728}}},"icon":"https://maps.gstatic.com/mapfiles/place_api/icons/v1/png_71/restaurant-71.png","icon_background_color":"#FF9E67","icon_mask_base_uri":"https://maps.gstatic.com/mapfiles/place_api/icons/v2/restaurant_pinlet","name":"HideOut kebab cafe","opening_hours":{"open_now":true},"photos":[{"height":4032,"html_attributions":["<a href=\"https://maps.google.com/maps/contrib/113942957738281158638\">ziejar28</a>"],"photo_reference":"AeJbb3fkwM4wlCpzUEg0azO2ykoJh7TsK9CnygpOI3mVufhvm-eGJNurLcaZ7DtUTjvPlztb0X_3qDQopDuPF7gg_ESq9dMCbfjMLGV67QMaH5-0-FlfSt4La1AQZYPG1ZxUZcI4dyXt75lkuyoCMoYYbY_9qJEQNbnyuYXBFtFgAdDSxpYl","width":3024}],"place_id":"ChIJC6oksOjP7kYR4jDxhjrLEps","plus_code":{"compound_code":"W4W6+V4 Riga","global_code":"9G86W4W6+V4"},"rating":3.7,"reference":"ChIJC6oksOjP7kYR4jDxhjrLEps","types":["restaurant","food","point_of_interest","establishment"],"user_ratings_total":30},{"business_status":"OPERATIONAL","formatted_address":"Nīcgales iela 2A, Vidzemes priekšpilsēta, Rīga, LV-1035","geometry":{"location":{"lat":56.95903819999999,"lng":24.1757145},"viewport":{"northeast":{"lat":56.96020677989272,"lng":24.17698752989272},"southwest":{"lat":56.95750712010727,"lng":24.17428787010727}}},"icon":"https://maps.gstatic.com/mapfiles/place_api/icons/v1/png_71/restaurant-71.png","icon_background_color":"#FF9E67","icon_mask_base_uri":"https://maps.gstatic.com/mapfiles/place_api/icons/v2/restaurant_pinlet","name":"Kebab King","opening_hours":{"open_now":true},"photos":[{"height":3840,"html_attributions":["<a href=\"https://maps.google.com/maps/contrib/110521031458378773578\">A Google User</a>"],"photo_reference":"AeJbb3eb5idw0QN31SpozDeE2RNsHV6ihTO09QyIBC3KTnLeAfPW-q1M9LbZMDIt5h6CbaATUVgnbH_uN8j_3c44hMk3-QXJ7bZq25iAbYRMQKHXmjbHNpwMpEEfmUVxMwC2hpJc12amRVjqXC8eEv7K0806eyjC0g8VlLDqTQ1O8i9FFXUM","width":5120}],"place_id":"ChIJPRHWB2rO7kYR8TeJNnOypIM","plus_code":{"compound_code":"X55G+J7 Riga","global_code":"9G86X55G+J7"},"rating":3.7,"reference":"ChIJPRHWB2rO7kYR8TeJNnOypIM","types":["restaurant","point_of_interest","food","establishment"],"user_ratings_total":20},{"business_status":"OPERATIONAL","formatted_address":"Katlakalna iela 13, Latgales priekšpilsēta, Rīga, LV-1073","geometry":{"location":{"lat":56.9310798,"lng":24.2042516},"viewport":{"northeast":{"lat":56.93239212989272,"lng":24.20548947989272},"southwest":{"lat":56.92969247010727,"lng":24.20278982010728}}},"icon":"https://maps.gstatic.com/mapfiles/place_api/icons/v1/png_71/restaurant-71.png","icon_background_color":"#FF9E67","icon_mask_base_uri":"https://maps.gstatic.com/mapfiles/place_api/icons/v2/restaurant_pinlet","name":"«AYO» KEBABS","photos":[{"height":1744,"html_attributions":["<a href=\"https://maps.google.com/maps/contrib/105600667046111058731\">Eduard Wagner</a>"],"photo_reference":"AeJbb3eFY3lMhZI06A8rJ5LKLfrUhjAy1dWsmqbtxhlC60gT7RjODcu3dVBB90KUwC8T1TSAtUE7oaRc_N4tZSHUvPm6CjUAf8JCuonV7FrklH8UO6tPOMz8mK2UPeMJa7PFEqJZYKs1EFKUAnDiL6XACgYWZzXo-AHzL9LK1Y4sbOFnZTif","width":3648}],"place_id":"ChIJidtnc6PN7kYRA0yBR9IFxEQ","plus_code":{"compound_code":"W6J3+CM Riga","global_code":"9G86W6J3+CM"},"rating":3.7,"reference":"ChIJidtnc6PN7kYRA0yBR9IFxEQ","types":["meal_takeaway","restaurant","point_of_interest","food","establishment"],"user_ratings_total":6},{"business_status":"OPERATIONAL","formatted_address":"Ernesta Birznieka-Upīša iela 6-8, Centra rajons, Rīga, LV-1050","geometry":{"location":{"lat":56.9485776,"lng":24.1245205},"viewport":{"northeast":{"lat":56.94998042989273,"lng":24.12584482989273},"southwest":{"lat":56.94728077010728,"lng":24.12314517010728}}},"icon":"https://maps.gstatic.com/mapfiles/place_api/icons/v1/png_71/restaurant-71.png","icon_background_color":"#FF9E67","icon_mask_base_uri":"https://maps.gstatic.com/mapfiles/place_api/icons/v2/restaurant_pinlet","name":"HASANA KEBABS Upīša","opening_hours":{"open_now":true},"photos":[{"height":1103,"html_attributions":["<a href=\"https://maps.google.com/maps/contrib/105368254689471114128\">A Google User</a>"],"photo_reference":"AeJbb3eQwQ3G-NK2KJEEqLS6Qb0ZHNkbI0tbgZvOUdp5qOgMDK2kGlllJAy8xM-4xW0DDfxanauBSj1uuuyFTicNtWrKTkGXRKiohSeb4yHJE0nEVkLoCSsjnmzZWPPGB5fxaUBl0M_HtX5F9S3dxqxRfIDn_efHfSnCyXco5Ob3oguQortF","width":2048}],"place_id":"ChIJV9BE95_P7kYRzabgIMLcOt8","plus_code":{"compound_code":"W4XF+CR Riga","global_code":"9G86W4XF+CR"},"rating":3.6,"reference":"ChIJV9BE95_P7kYRzabgIMLcOt8","types":["liquor_store","cafe","store","restaurant","point_of_interest","food","establishment"],"user_ratings_total":31},{"business_status":"OPERATIONAL","formatted_address":"Ernesta Birznieka-Upīša iela 6-8, Centra rajons, Rīga, LV-1050","geometry":{"location":{"lat":56.9485776,"lng":24.1245205},"viewport":{"northeast":{"lat":56.94998042989273,"lng":24.12584482989273},"southwest":{"lat":56.94728077010728,"lng":24.12314517010728}}},"icon":"https://maps.gstatic.com/mapfiles/place_api/icons/v1/png_71/restaurant-71.png","icon_background_color":"#FF9E67","icon_mask_base_uri":"https://maps.gstatic.com/mapfiles/place_api/icons/v2/restaurant_pinlet","name":"Street Kebabs","opening_hours":{"open_now":true},"photos":[{"height":1103,"html_attributions":["<a href=\"https://maps.google.com/maps/contrib/109526227367195000516\">A Google User</a>"],"photo_reference":"AeJbb3dZQLRjNgis8Nwl918v9T5lWtAFgiYsvGwtCHu-MxhLqlij96Gtn2EnmDA0i0WwxzYbx68T7ifC8m_Hb8E_uX85RY3pYKcigj0n3fednE-6Te5mvPwA3-BSUHhnJC2-lBr1x0eiwS4wEt9uasYY-Jy66-xuU2809nAIo0Ar150k1qhi","width":2048}],"place_id":"ChIJbfVi4VDP7kYRdUcgR80Nbtc","plus_code":{"compound_code":"W4XF+CR Riga","global_code":"9G86W4XF+CR"},"rating":3.5,"reference":"ChIJbfVi4VDP7kYRdUcgR80Nbtc","types":["restaurant","point_of_interest","food","establishment"],"user_ratings_total":13},{"business_status":"OPERATIONAL","formatted_address":"Krišjāņa Barona iela 44, Centra rajons, Rīga, LV-1011","geometry":{"location":{"lat":56.9536721,"lng":24.1269106},"viewport":{"northeast":{"lat":56.95511542989272,"lng":24.12810142989272},"southwest":{"lat":56.95241577010728,"lng":24.12540177010728}}},"icon":"https://maps.gstatic.com/mapfiles/place_api/icons/v1/png_71/restaurant-71.png","icon_background_color":"#FF9E67","icon_mask_base_uri":"https://maps.gstatic.com/mapfiles/place_api/icons/v2/restaurant_pinlet","name":"ANTALYA KEBAB & GRILL","opening_hours":{"open_now":true},"photos":[{"height":722,"html_attributions":["<a href=\"https://maps.google.com/maps/contrib/105269263652669147025\">A Google User</a>"],"photo_reference":"AeJbb3fA5XsmgKuCVobjd1s6Z4jCDpZvC2w4lHSa8olY9fHSC3NsY6UvMreJw3ajThws9IQB7pYctch8RmgYyEqqIWwN2Dlp3KEY3q8ExipqB15Y_A6MTN-KR0CrJxE6Hd7YZAw_wYDSTjJEOtLwTkldWB76IWXGT_xz7RTwH3l82WeXaCvi","width":736}],"place_id":"ChIJv683meLP7kYRn_kHyIp0gY0","plus_code":{"compound_code":"X43G+FQ Riga","global_code":"9G86X43G+FQ"},"rating":3.3,"reference":"ChIJv683meLP7kYRn_kHyIp0gY0","types":["restaurant","point_of_interest","food","establishment"],"user_ratings_total":46},{"business_status":"OPERATIONAL","formatted_address":"Stacijas laukums 4, Centra rajons, Rīga, LV-1050","geometry":{"location":{"lat":56.9472172,"lng":24.1210417},"viewport":{"northeast":{"lat":56.94881927989272,"lng":24.12202717989272},"southwest":{"lat":56.94611962010728,"lng":24.11932752010728}}},"icon":"https://maps.gstatic.com/mapfiles/place_api/icons/v1/png_71/restaurant-71.png","icon_background_color":"#FF9E67","icon_mask_base_uri":"https://maps.gstatic.com/mapfiles/place_api/icons/v2/restaurant_pinlet","name":"Kebabs Fix","opening_hours":{"open_now":true},"photos":[{"height":2268,"html_attributions":["<a href=\"https://maps.google.com/maps/contrib/105093586124563087565\">Mārtiņš Mieriņš</a>"],"photo_reference":"AeJbb3dgh0VmGrWpzIGv7APIBeHBqGHH8LocVpiIjmdsrGqAlsQPa_F9hbsWuKnUVIBakXH9LiXSXloWoH-7qGS8PCtQQe_wifI9xqTebTNg1JSVGdNVRhYfTIXXlmIUamfe_Avt8gSNIJqJ1p-ahT76OExiJgtkhQxx0-MgWaUNfFZ_OVzN","width":4032}],"place_id":"ChIJ7-1_VtPP7kYRd7h_7OdprJ4","plus_code":{"compound_code":"W4WC+VC Riga","global_code":"9G86W4WC+VC"},"rating":2.6,"reference":"ChIJ7-1_VtPP7kYRd7h_7OdprJ4","types":["restaurant","point_of_interest","food","establishment"],"user_ratings_total":53},{"business_status":"OPERATIONAL","formatted_address":"Āzenes iela 5, Kurzemes rajons, Rīga, LV-1048","geometry":{"location":{"lat":56.95001389999999,"lng":24.0818271},"viewport":{"northeast":{"lat":56.95131717989273,"lng":24.08281327989272},"southwest":{"lat":56.94861752010728,"lng":24.08011362010728}}},"icon":"https://maps.gstatic.com/mapfiles/place_api/icons/v1/png_71/restaurant-71.png","icon_background_color":"#FF9E67","icon_mask_base_uri":"https://maps.gstatic.com/mapfiles/place_api/icons/v2/restaurant_pinlet","name":"Turkebab","opening_hours":{"open_now":true},"photos":[{"height":3024,"html_attributions":["<a href=\"https://maps.google.com/maps/contrib/118129162251669785245\">Аленка Мишкина</a>"],"photo_reference":"AeJbb3dulvSUeA2IVRJvunJsuIHXZD2tA8Wzl3i0LSI2hMAVi0ETy0CQiOG-FKi_dQ-qE5Fpcs9jzHMfM6UQA3t6XnNEsGp42fQ8eSkOlVjIQu_rT0rYFlVjv7cFIMZ6tWdItQ8Gkrm39Y3lKWl7cXSTEXWdeH8-DjERY0XIQrdMBNBfAGQ6","width":4032}],"place_id":"ChIJD3lUYmvP7kYRTTYXl3zGgAA","plus_code":{"compound_code":"X32J+2P Riga","global_code":"9G86X32J+2P"},"rating":2.6,"reference":"ChIJD3lUYmvP7kYRTTYXl3zGgAA","types":["restaurant","point_of_interest","food","establishment"],"user_ratings_total":41},{"business_status":"OPERATIONAL","formatted_address":"Tilta iela 30, Ziemeļu rajons, Rīga, LV-1005","geometry":{"location":{"lat":56.99518699999999,"lng":24.1295205},"viewport":{"northeast":{"lat":56.99668477989272,"lng":24.13072412989272},"southwest":{"lat":56.99398512010728,"lng":24.12802447010728}}},"icon":"https://maps.gstatic.com/mapfiles/place_api/icons/v1/png_71/restaurant-71.png","icon_background_color":"#FF9E67","icon_mask_base_uri":"https://maps.gstatic.com/mapfiles/place_api/icons/v2/restaurant_pinlet","name":"Kebab Express 5 STAR","place_id":"ChIJ_UTY0mDP7kYRdFNRl2uQZhY","plus_code":{"compound_code":"X4WH+3R Riga","global_code":"9G86X4WH+3R"},"rating":1,"reference":"ChIJ_UTY0mDP7kYRdFNRl2uQZhY","types":["restaurant","food","point_of_interest","establishment"],"user_ratings_total":1},{"business_status":"OPERATIONAL","formatted_address":"Ģertrūdes iela 43, Centra rajons, Rīga, LV-1011","geometry":{"location":{"lat":56.95378419999999,"lng":24.1294002},"viewport":{"northeast":{"lat":56.95509752989272,"lng":24.13068202989272},"southwest":{"lat":56.95239787010728,"lng":24.12798237010728}}},"icon":"https://maps.gstatic.com/mapfiles/place_api/icons/v1/png_71/restaurant-71.png","icon_background_color":"#FF9E67","icon_mask_base_uri":"https://maps.gstatic.com/mapfiles/place_api/icons/v2/restaurant_pinlet","name":"Stop","place_id":"ChIJY0Xnqt3P7kYRHjWB4WAlLH8","plus_code":{"compound_code":"X43H+GQ Riga","global_code":"9G86X43H+GQ"},"rating":0,"reference":"ChIJY0Xnqt3P7kYRHjWB4WAlLH8","types":["restaurant","food","point_of_interest","establishment"],"user_ratings_total":0}]