[{"business_status":"OPERATIONAL","formatted_address":"Krišjāņa Valdemāra iela 37, Centra rajons, Rīga, LV-1010","geometry":{"location":{"lat":56.9583749,"lng":24.1169192},"viewport":{"northeast":{"lat":56.95974237989272,"lng":24.11825407989273},"southwest":{"lat":56.95704272010728,"lng":24.11555442010728}}},"icon":"https://maps.gstatic.com/mapfiles/place_api/icons/v1/png_71/restaurant-71.png","icon_background_color":"#FF9E67","icon_mask_base_uri":"https://maps.gstatic.com/mapfiles/place_api/icons/v2/restaurant_pinlet","name":"Antalya kebab and grill valdemara","opening_hours":{"open_now":true},"photos":[{"height":4032,"html_attributions":["<a href=\"https://maps.google.com/maps/contrib/110041375316084344785\">A Google User</a>"],"photo_reference":"AeJbb3fbfQpPbQUkcQdcfHOvPRe9jPsDOgzsMkMTlzzidDHwvOol8ynx8BywKjzn-cKRFMARfPPNvajiOTaaZ40Qwjc744GzyiwtL90rKq_8HFG8-tOIAg00VnXYJDbwyXXBHHbnNZd9uhutcD8JpGmpFz5ztXTDzqYoNSnN-4Dw6FHmrFKC","width":3024}],"place_id":"ChIJOz7_lljP7kYRxo542Y8MuSQ","plus_code":{"compound_code":"X458+9P Riga","global_code":"9G86X458+9P"},"rating":5,"reference":"ChIJOz7_lljP7kYRxo542Y8MuSQ","types":["restaurant","food","point_of_interest","establishment"],"user_ratings_total":5},{"business_status":"OPERATIONAL","formatted_address":"Ģertrūdes iela 48a, Latgales priekšpilsēta, Rīga, LV-1011","geometry":{"location":{"lat":56.9527157,"lng":24.130825},"viewport":{"northeast":{"lat":56.95409657989273,"lng":24.13223337989272},"southwest":{"lat":56.95139692010728,"lng":24.12953372010728}}},"icon":"https://maps.gstatic.com/mapfiles/place_api/icons/v1/png_71/cafe-71.png","icon_background_color":"#FF9E67","icon_mask_base_uri":"https://maps.gstatic.com/mapfiles/place_api/icons/v2/cafe_pinlet","name":"Ģertrūdes Kebabs","opening_hours":{"open_now":true},"photos":[{"height":773,"html_attributions":["<a href=\"https://maps.google.com/maps/contrib/101862311131159061024\">A Google User</a>"],"photo_reference":"AeJbb3fVYhz49YD6lNlSpKNbjYd8njTpsXsVSi9VY8MSumvXGsja24QyrzYeftZ6KIOeFPs2Wm5nJyvgvCcV1W_NzznBy_1h3I4eim-C5H4HF60_GAJCUmTzlQiHzovVE7Cgftk5HtMIaGUppW2de_NBTzY3zv6923xhUBnkBTi0qeg-v3Pz","width":1436}],"place_id":"ChIJRTu39NHP7kYR57LqSUbIli4","plus_code":{"compound_code":"X43J+38 Riga","global_code":"9G86X43J+38"},"rating":5,"reference":"ChIJRTu39NHP7kYR57LqSUbIli4","types":["cafe","restaurant","food","point_of_interest","establishment"],"user_ratings_total":5},{"business_status":"OPERATIONAL","formatted_address":"Brīvības iela 90, Centra rajons, Rīga, LV-1001","geometry":{"location":{"lat":56.9597774,"lng":24.1297742},"viewport":{"northeast":{"lat":56.96106467989272,"lng":24.13119172989272},"southwest":{"lat":56.95836502010728,"lng":24.12849207010728}}},"icon":"https://maps.gstatic.com/mapfiles/place_api/icons/v1/png_71/restaurant-71.png","icon_background_color":"#FF9E67","icon_mask_base_uri":"https://maps.gstatic.com/mapfiles/place_api/icons/v2/restaurant_pinlet","name":"SANGAK LETTLANDONER","opening_hours":{"open_now":true},"place_id":"ChIJ71GVenvP7kYRJkoV52v1CWQ","plus_code":{"compound_code":"X45H+WW Riga","global_code":"9G86X45H+WW"},"rating":5,"reference":"ChIJ71GVenvP7kYRJkoV52v1CWQ","types":["restaurant","food","point_of_interest","establishment"],"user_ratings_total":3},{"business_status":"OPERATIONAL","formatted_address":"Tērbatas iela 71, Centra rajons, Rīga, LV-1001","geometry":{"location":{"lat":56.9588374,"lng":24.1326372},"viewport":{"northeast":{"lat":56.96015372989272,"lng":24.13403292989272},"southwest":{"lat":56.95745407010727,"lng":24.13133327010727}}},"icon":"https://maps.gstatic.com/mapfiles/place_api/icons/v1/png_71/restaurant-71.png","icon_background_color":"#FF9E67","icon_mask_base_uri":"https://maps.gstatic.com/mapfiles/place_api/icons/v2/restaurant_pinlet","name":"SANGAK LETTLANDONER","opening_hours":{"open_now":true},"photos":[{"height":2251,"html_attributions":["<a href=\"https://maps.google.com/maps/contrib/108091349664030725575\">A Google User</a>"],"photo_reference":"AeJbb3cwY0YiroOPfGw6Pbs62e5kQo9iK7cnf2vj-2cfC89MZOXqf7Nxr1rad1cEByi709WtUkRQPS_yo8Nul-FIbF-Mtfi8JCPwdwbNuwxngllsl-rbRdOkrAGcpdmR_1UyDVlDwZC4oBb8jYOLtVun3mP7MENrprUiLg_zAZjpBSkG5qtJ","width":2251}],"place_id":"ChIJOcBvHlbP7kYREYWOs9-XS4I","plus_code":{"compound_code":"X45M+G3 Riga","global_code":"9G86X45M+G3"},"rating":4.9,"reference":"ChIJOcBvHlbP7kYREYWOs9-XS4I","types":["restaurant","food","point_of_interest","establishment"],"user_ratings_total":91},{"business_status":"OPERATIONAL","formatted_address":"Ģertrūdes iela 48, Latgales priekšpilsēta, Rīga, LV-1011","geometry":{"location":{"lat":56.9526088,"lng":24.1310245},"viewport":{"northeast":{"lat":56.95398847989272,"lng":24.13243062989272},"southwest":{"lat":56.95128882010727,"lng":24.12973097010728}}},"icon":"https://maps.gstatic.com/mapfiles/place_api/icons/v1/png_71/restaurant-71.png","icon_background_color":"#FF9E67","icon_mask_base_uri":"https://maps.gstatic.com/mapfiles/place_api/icons/v2/restaurant_pinlet","name":"Marmaris restaurant","opening_hours":{"open_now":true},"photos":[{"height":1536,"html_attributions":["<a href=\"https://maps.google.com/maps/contrib/102145627680252452776\">A Google User</a>"],"photo_reference":"AeJbb3eZO0Kb36CR2ywv65vGDvciIMH5EZP1_o0hAeLhC0PXbLT3O_7sj6FlEjhtruGkrzpG2Mj_8FW3wxLIYCg9yO24nJ3fXPhB0nTj_2SmVVdm0pZ8iRztuVJHXKxIV41G8LrpJzVYMEQvrEobh1SG4nSEprK3eJZ6EhzMCPJ0RojGk4s","width":2048}],"place_id":"ChIJG3C-dqbP7kYREk00ib58acA","plus_code":{"compound_code":"X43J+2C Riga","global_code":"9G86X43J+2C"},"rating":4.8,"reference":"ChIJG3C-dqbP7kYREk00ib58acA","types":["cafe","restaurant","food","store","point_of_interest","establishment"],"user_ratings_total":118},{"business_status":"OPERATIONAL","formatted_address":"Bruņinieku iela 12, Centra rajons, Rīga, LV-1001","geometry":{"location":{"lat":56.9580565,"lng":24.12774},"viewport":{"northeast":{"lat":56.95945137989272,"lng":24.12917177989272},"southwest":{"lat":56.95675172010728,"lng":24.12647212010727}}},"icon":"https://maps.gstatic.com/mapfiles/place_api/icons/v1/png_71/restaurant-71.png","icon_background_color":"#FF9E67","icon_mask_base_uri":"https://maps.gstatic.com/mapfiles/place_api/icons/v2/restaurant_pinlet","name":"Ali Baba","opening_hours":{"open_now":true},"photos":[{"height":1200,"html_attributions":["<a href=\"https://maps.google.com/maps/contrib/102890979116463562053\">hadsa jabarkhail</a>"],"photo_reference":"AeJbb3cm5sUT8QVcLAkxKD-Aw6y9bM3CxNGYzQS3EvFc64MnPibtdGfnz0U09Y0gaz3lL-YF3OwK9YZfb4T3oKPqj259dwSY4k7XDy4aIQW6WDGC-4aVLVaeGG_yL-2Q9k5wv1N3re-KxcTLv9B9zMmZFsQNz3kOT4Zv72xjRdX9wvo4UTn5","width":1600}],"place_id":"ChIJvyt_gYbP7kYReL_8wFomxq8","plus_code":{"compound_code":"X45H+63 Riga","global_code":"9G86X45H+63"},"rating":4.7,"reference":"ChIJvyt_gYbP7kYReL_8wFomxq8","types":["restaurant","food","point_of_interest","establishment"],"user_ratings_total":207},{"business_status":"OPERATIONAL","formatted_address":"Skanstes iela 7/k-1, Vidzemes priekšpilsēta, Rīga, LV-1013","geometry":{"location":{"lat":56.9654547,"lng":24.1168962},"viewport":{"northeast":{"lat":56.96680422989272,"lng":24.11820517989272},"southwest":{"lat":56.96410457010727,"lng":24.11550552010728}}},"icon":"https://maps.gstatic.com/mapfiles/place_api/icons/v1/png_71/restaurant-71.png","icon_background_color":"#FF9E67","icon_mask_base_uri":"https://maps.gstatic.com/mapfiles/place_api/icons/v2/restaurant_pinlet","name":"Food Republic","opening_hours":{"open_now":false},"photos":[{"height":1333,"html_attributions":["<a href=\"https://maps.google.com/maps/contrib/117739270511260212567\">A Google User</a>"],"photo_reference":"AeJbb3cIQhfTaBRddV1BgY4oa9YauX33ZvrgynyopefO26O0ObT20w6Uid00U0g5LRM-dHIMT4YK_Buo7-W5S-QR-6qdCGjZe3b3tsOHr72cRh0fWdeWR-1WhwLespfotu0lAKDuaNFMR6E5qQIVXcJgS2oTIHa3TTozxNSM16sao0fgyG13","width":2000}],"place_id":"ChIJ4QOiALjP7kYRbe3gqzH4sAM","plus_code":{"compound_code":"X488+5Q Riga","global_code":"9G86X488+5Q"},"price_level":2,"rating":4.7,"reference":"ChIJ4QOiALjP7kYRbe3gqzH4sAM","types":["restaurant","food","point_of_interest","establishment"],"user_ratings_total":93},{"business_status":"OPERATIONAL","formatted_address":"Mārstaļu iela 12, Centra rajons, Rīga, LV-1050","geometry":{"location":{"lat":56.9463611,"lng":24.1101716},"viewport":{"northeast":{"lat":56.94774077989272,"lng":24.11145927989272},"southwest":{"lat":56.94504112010728,"lng":24.10875962010728}}},"icon":"https://maps.gstatic.com/mapfiles/place_api/icons/v1/png_71/restaurant-71.png","icon_background_color":"#FF9E67","icon_mask_base_uri":"https://maps.gstatic.com/mapfiles/place_api/icons/v2/restaurant_pinlet","name":"Urfa Turkish Cafe","opening_hours":{"open_now":true},"photos":[{"height":3931,"html_attributions":["<a href=\"https://maps.google.com/maps/contrib/106509465190898670079\">A Google User</a>"],"photo_reference":"AeJbb3e9lKUg7Pdxj2an494Gtm3kRyMsiuBPErq5QrV0jOvwhz8d5USRjRfuge5JAEa_i-t4gS1uNnjS1BWDsUUNISupyPjTVIs9z1PKEUqfsibbum-7xelcKtxJP0t2_t0pbfwOSUCf5nT4cJZPHGb_LeMFz1xdvehJ24hgFd8OHwTAgMh4","width":3024}],"place_id":"ChIJM8Q_wNTP7kYRs1ewaMKMYJg","plus_code":{"compound_code":"W4W6+G3 Riga","global_code":"9G86W4W6+G3"},"rating":4.7,"reference":"ChIJM8Q_wNTP7kYRs1ewaMKMYJg","types":["restaurant","food","point_of_interest","establishment"],"user_ratings_total":77},{"business_status":"OPERATIONAL","formatted_address":"Stūrmaņu iela 29, Kurzemes rajons, Rīga, LV-1016","geometry":{"location":{"lat":57.0326572,"lng":24.047937},"viewport":{"northeast":{"lat":57.03406412989272,"lng":24.04921992989272},"southwest":{"lat":57.03136447010727,"lng":24.04652027010728}}},"icon":"https://maps.gstatic.com/mapfiles/place_api/icons/v1/png_71/restaurant-71.png","icon_background_color":"#FF9E67","icon_mask_base_uri":"https://maps.gstatic.com/mapfiles/place_api/icons/v2/restaurant_pinlet","name":"GVATAR-AI","opening_hours":{"open_now":true},"photos":[{"height":3000,"html_attributions":["<a href=\"https://maps.google.com/maps/contrib/110852689071649495081\">Jānis Dreimanis</a>"],"photo_reference":"AeJbb3fZmncDo4Q9QNIg7Gax-qgmDxknFAS9pcIlL6Jr2so_b4xQn-0hVfCg3J9ZD5YDxk0nCTuEJghoq2HDorVcQim_p0YXvZ8dEFCouFH2-oGBo5Be4Y_iV_EUet-zwqHhcpCa6zEOeLWBe222JASvOKhxfU7Kpl1zkema1eHScR0rKJ6O","width":4000}],"place_id":"ChIJPUkcXMnF7kYRquX8OvGN2Vg","plus_code":{"compound_code":"22MX+35 Riga","global_code":"9G9622MX+35"},"price_level":1,"rating":4.6,"reference":"ChIJPUkcXMnF7kYRquX8OvGN2Vg","types":["restaurant","food","point_of_interest","establishment"],"user_ratings_total":1712},{"business_status":"OPERATIONAL","formatted_address":"Antonijas iela 6A, Centra rajons, Rīga, LV-1010","geometry":{"location":{"lat":56.9572738,"lng":24.1102441},"viewport":{"northeast":{"lat":56.95859392989272,"lng":24.11150812989272},"southwest":{"lat":56.95589427010727,"lng":24.10880847010727}}},"icon":"https://maps.gstatic.com/mapfiles/place_api/icons/v1/png_71/restaurant-71.png","icon_background_color":"#FF9E67","icon_mask_base_uri":"https://maps.gstatic.com/mapfiles/place_api/icons/v2/restaurant_pinlet","name":"Foodbox","opening_hours":{"open_now":true},"photos":[{"height":3000,"html_attributions":["<a href=\"https://maps.google.com/maps/contrib/112766219157532251885\">Stas Medvedev</a>"],"photo_reference":"AeJbb3fg-qahIZbp3Ztw_M1vRFcrFd0KdVdAL5jrsHfZ6GJCejLELsX0FID7jZp2hkFpnRpegs1Tq8V4RIOeR4FYflTmNYSCi3zOWsfgQWsCjDPP6UnmwMBeumrcODXq5fCT31uJGjpoZ5AlvY7I4t_L6IDsqTxbidRdbxruI99jqLQ9NLGh","width":3000}],"place_id":"ChIJ3V-ZP83P7kYRjA9DNZrPYo4","plus_code":{"compound_code":"X446+W4 Riga","global_code":"9G86X446+W4"},"rating":4.6,"reference":"ChIJ3V-ZP83P7kYRjA9DNZrPYo4","types":["restaurant","food","point_of_interest","establishment"],"user_ratings_total":797},{"business_status":"OPERATIONAL","formatted_address":"Krišjāņa Valdemāra iela 77, Centra rajons, Rīga, LV-1013","geometry":{"location":{"lat":56.9628817,"lng":24.12436},"viewport":{"northeast":{"lat":56.96418537989273,"lng":24.12580672989272},"southwest":{"lat":56.96148572010728,"lng":24.12310707010727}}},"icon":"https://maps.gstatic.com/mapfiles/place_api/icons/v1/png_71/restaurant-71.png","icon_background_color":"#FF9E67","icon_mask_base_uri":"https://maps.gstatic.com/mapfiles/place_api/icons/v2/restaurant_pinlet","name":"Rīgas kebabs Valdemārs","opening_hours":{"open_now":true},"photos":[{"height":3024,"html_attributions":["<a href=\"https://maps.google.com/maps/contrib/112839105952307637376\">VIP Kurjers</a>"],"photo_reference":"AeJbb3c1drSYapx4WARCxkGrqlZtJz0mvOr9n4NRcCKttTXOhAo8d6yGM5VnDhZZTdoz9UcojoFyWk8jIS_vHtGd0yRfqQLHP-IYA1YiOe9Fsjp0W65aKvzNHUfK2hNqRYl6HOjl7fFKJtIvCbnpYkrrQNSqBHPR7Nv_T3Y0-N1apknHQ7A-","width":4032}],"place_id":"ChIJ8wYRiWPP7kYRhe4W096iL9A","plus_code":{"compound_code":"X47F+5P Riga","global_code":"9G86X47F+5P"},"price_level":2,"rating":4.6,"reference":"ChIJ8wYRiWPP7kYRhe4W096iL9A","types":["restaurant","food","point_of_interest","establishment"],"user_ratings_total":226},{"business_status":"OPERATIONAL","formatted_address":"Ģertrūdes iela 43, Centra rajons, Rīga, LV-1011","geometry":{"location":{"lat":56.9537409,"lng":24.1294426},"viewport":{"northeast":{"lat":56.95506442989272,"lng":24.13074557989272},"southwest":{"lat":56.95236477010727,"lng":24.12804592010728}}},"icon":"https://maps.gstatic.com/mapfiles/place_api/icons/v1/png_71/restaurant-71.png","icon_background_color":"#FF9E67","icon_mask_base_uri":"https://maps.gstatic.com/mapfiles/place_api/icons/v2/restaurant_pinlet","name":"Stop. Ēd Turku Tantuni Kebabs","opening_hours":{"open_now":true},"photos":[{"height":3468,"html_attributions":["<a href=\"https://maps.google.com/maps/contrib/108623378659591746928\">Aivars</a>"],"photo_reference":"AeJbb3fIn0imoq7aUBDQQHdbs445k-DpGx9ExpbCPTS2qtSeTJjSBlrhl6zXssHqHikyRNZqEasrYP9EPausPfphEmjwxV6zrv_wh5OgZdyX2bha0iulAfIBE8Ow001lGaoBiULPwktdtPAnHxhc4RoWjCO4VubR0mIjKFkBOZWtKPsMkkKq","width":4624}],"place_id":"ChIJfxsaEJzP7kYRHLlzt4bH0IA","plus_code":{"compound_code":"X43H+GQ Riga","global_code":"9G86X43H+GQ"},"rating":4.6,"reference":"ChIJfxsaEJzP7kYRHLlzt4bH0IA","types":["restaurant","food","point_of_interest","establishment"],"user_ratings_total":201},{"business_status":"OPERATIONAL","formatted_address":"Avotu iela 30-1, Latgales priekšpilsēta, Rīga, LV-1009","geometry":{"location":{"lat":56.9507841,"lng":24.1337355},"viewport":{"northeast":{"lat":56.95217332989272,"lng":24.13505762989272},"southwest":{"lat":56.94947367010728,"lng":24.13235797010728}}},"icon":"https://maps.gstatic.com/mapfiles/place_api/icons/v1/png_71/restaurant-71.png","icon_background_color":"#FF9E67","icon_mask_base_uri":"https://maps.gstatic.com/mapfiles/place_api/icons/v2/restaurant_pinlet","name":"Rīgas Kebabs Avotu","opening_hours":{"open_now":true},"photos":[{"height":3000,"html_attributions":["<a href=\"https://maps.google.com/maps/contrib/102060160826681330760\">Andrejs L</a>"],"photo_reference":"AeJbb3eu0BooQxxPxHAnl4UviVMTxKrE9FWTCfVeyAdmo7fFxiJK5BPt2wBWo1g__QGoeL3HprxXoum7faxkb83NAK3oKixVFG9CEIyawyqvsDmYwg2DYw7dEcllcCFwTKaMERk1ojDhWYHa0wQqkCmBt62KerGoU_JTnumsFrKCl_szwAzF","width":4000}],"place_id":"ChIJ3asIDqLP7kYRePdCzvVfKlw","plus_code":{"compound_code":"X42M+8F Riga","global_code":"9G86X42M+8F"},"rating":4.6,"reference":"ChIJ3asIDqLP7kYRePdCzvVfKlw","types":["restaurant","food","point_of_interest","establishment"],"user_ratings_total":183},{"business_status":"OPERATIONAL","formatted_address":"Mazā Nometņu iela 36, Zemgales priekšpilsēta, Rīga, LV-1002","geometry":{"location":{"lat":56.93561529999999,"lng":24.0694233},"viewport":{"northeast":{"lat":56.93701707989271,"lng":24.07078292989272},"southwest":{"lat":56.93431742010726,"lng":24.06808327010727}}},"icon":"https://maps.gstatic.com/mapfiles/place_api/icons/v1/png_71/restaurant-71.png","icon_background_color":"#FF9E67","icon_mask_base_uri":"https://maps.gstatic.com/mapfiles/place_api/icons/v2/restaurant_pinlet","name":"SAHARA KEBABS","opening_hours":{"open_now":true},"photos":[{"height":4032,"html_attributions":["<a href=\"https://maps.google.com/maps/contrib/111448507999501455892\">A Google User</a>"],"photo_reference":"AeJbb3cWwokTVniO5WLJm63nMNpOO1_B19uh_VaO7DwzbFC1HjJuAPA0iCK4Ce6iSBf6U_xgwQxo2WHNd-3BF5Z3WDrYDo08NreuH9q11a2zAG9rkbiLm7aw_SWyLTsBk4e-nobsa37iQIZywlWryYRo-MCqYSDo0UjijJLjtCbsjpB6MQ0w","width":3024}],"place_id":"ChIJfyMEjD3Q7kYRLB3fRfm2BQ0","plus_code":{"compound_code":"W3P9+6Q Riga","global_code":"9G86W3P9+6Q"},"price_level":1,"rating":4.6,"reference":"ChIJfyMEjD3Q7kYRLB3fRfm2BQ0","types":["restaurant","food","point_of_interest","establishment"],"user_ratings_total":160},{"business_status":"OPERATIONAL","formatted_address":"Antonijas iela 8, Centra rajons, Rīga, LV-1010","geometry":{"location":{"lat":56.9581451,"lng":24.1113029},"viewport":{"northeast":{"lat":56.95953822989272,"lng":24.11257912989272},"southwest":{"lat":56.95683857010728,"lng":24.10987947010728}}},"icon":"https://maps.gstatic.com/mapfiles/place_api/icons/v1/png_71/restaurant-71.png","icon_background_color":"#FF9E67","icon_mask_base_uri":"https://maps.gstatic.com/mapfiles/place_api/icons/v2/restaurant_pinlet","name":"Space Falafel","opening_hours":{"open_now":true},"photos":[{"height":3024,"html_attributions":["<a href=\"https://maps.google.com/maps/contrib/110779081494695084014\">bartek</a>"],"photo_reference":"AeJbb3fmV1Hfj8AIKUkZYAO3IPqab2UOf5r1hoSAWnBBb1yhtDu0pGETtrT0p426fn7da982XovTC9GnGx1oubdBofKY4ZcMrGL9nd5hOYuj9bXP1dPgqq3LD-jUknmfq0VsJkZdTYct3LvljWnDs8TAPsgb8Q_1PyZe_MejXh6g87j0WC4O","width":4032}],"place_id":"ChIJ2X53HZnP7kYR0Az62Wnlmrc","plus_code":{"compound_code":"X456+7G Riga","global_code":"9G86X456+7G"},"price_level":2,"rating":4.5,"reference":"ChIJ2X53HZnP7kYR0Az62Wnlmrc","types":["restaurant","food","point_of_interest","establishment"],"user_ratings_total":306},{"business_status":"OPERATIONAL","formatted_address":"Lāčplēša iela 27, Centra rajons, Rīga, LV-1011","geometry":{"location":{"lat":56.9544516,"lng":24.1253355},"viewport":{"northeast":{"lat":56.95575232989272,"lng":24.12660287989273},"southwest":{"lat":56.95305267010728,"lng":24.12390322010728}}},"icon":"https://maps.gstatic.com/mapfiles/place_api/icons/v1/png_71/restaurant-71.png","icon_background_color":"#FF9E67","icon_mask_base_uri":"https://maps.gstatic.com/mapfiles/place_api/icons/v2/restaurant_pinlet","name":"Lazy cats kebab bar","opening_hours":{"open_now":true},"photos":[{"height":3024,"html_attributions":["<a href=\"https://maps.google.com/maps/contrib/118431330146313170254\">xkristina.p</a>"],"photo_reference":"AeJbb3f5ENuZRil35wFHtQZr3re4YGjiPlKSzCni4aP1UAld5N0kBxc_a1jX1D9hHldNuQv9cAI07cn41r5OR7UVEyOO-uBEDB2GqAPqf33p5hrHdh01qaXea-ZGxVtWOyo9YggNBlY-jHYskEUQ6eWN7MRxwyZw7kMgugtpCC81-4HiPO9I","width":4032}],"place_id":"ChIJIYiGeN3P7kYRGPCOAKtk0dg","plus_code":{"compound_code":"X43G+Q4 Riga","global_code":"9G86X43G+Q4"},"price_level":2,"rating":4.5,"reference":"ChIJIYiGeN3P7kYRGPCOAKtk0dg","types":["restaurant","food","point_of_interest","establishment"],"user_ratings_total":161},{"business_status":"OPERATIONAL","formatted_address":"Krišjāņa Valdemāra iela 24, Centra rajons, Rīga, LV-1010","geometry":{"location":{"lat":56.95810660000001,"lng":24.1170081},"viewport":{"northeast":{"lat":56.95949947989272,"lng":24.11826817989272},"southwest":{"lat":56.95679982010728,"lng":24.11556852010728}}},"icon":"https://maps.gstatic.com/mapfiles/place_api/icons/v1/png_71/restaurant-71.png","icon_background_color":"#FF9E67","icon_mask_base_uri":"https://maps.gstatic.com/mapfiles/place_api/icons/v2/restaurant_pinlet","name":"Kebabcity and chicken bar","opening_hours":{"open_now":true},"photos":[{"height":768,"html_attributions":["<a href=\"https://maps.google.com/maps/contrib/116282274626939522123\">A Google User</a>"],"photo_reference":"AeJbb3eK6sE7gtsgAikPerE6o2Zn2490uTrzjygvtxjziwPv0dSMMPo12AmuWH4dADfnbvQDbPRlHgX7UIk6TAS_1eIsbsukc9l7vX0-_ui9Jm-zwTpjl7EaBclvhRwrc3RSRvCJ-gCq2VLAc5xw93dJ9Pr9Y-yI7M-dB_RY0kOt25LGHtX4","width":1024}],"place_id":"ChIJARYyDZ3P7kYRYB4HCG_epu4","plus_code":{"compound_code":"X458+6R Riga","global_code":"9G86X458+6R"},"rating":4.5,"reference":"ChIJARYyDZ3P7kYRYB4HCG_epu4","types":["restaurant","food","point_of_interest","establishment"],"user_ratings_total":19},{"business_status":"OPERATIONAL","formatted_address":"Vidzeme Suburb, Riga, Riga, LV-1084","geometry":{"location":{"lat":56.957943,"lng":24.1913058},"viewport":{"northeast":{"lat":56.95929247989272,"lng":24.19265872989272},"southwest":{"lat":56.95659282010728,"lng":24.18995907010728}}},"icon":"https://maps.gstatic.com/mapfiles/place_api/icons/v1/png_71/restaurant-71.png","icon_background_color":"#FF9E67","icon_mask_base_uri":"https://maps.gstatic.com/mapfiles/place_api/icons/v2/restaurant_pinlet","name":"POOKA","opening_hours":{"open_now":true},"photos":[{"height":2736,"html_attributions":["<a href=\"https://maps.google.com/maps/contrib/100150739328094130430\">Rynalds Erzams</a>"],"photo_reference":"AeJbb3c3abXY0wb1I9GEUbm0CqM8k5JtIXepXliTFGh8jrId9W1LMb0DMUzfK5iIJzmBAMNE5bPqxCiD0N_1xBm-TxQWssO7wEjdmXAQbj6fzIBG9BTjv9QphmkNODwxWX5Wshmlq8VGwJxoc1e6Q3E_yAcKjMw48v2KzRu6ThM-iZb2raxJ","width":3648}],"place_id":"ChIJwXE2qvbP7kYRq4yUjLBNwFI","plus_code":{"compound_code":"X55R+5G Riga","global_code":"9G86X55R+5G"},"rating":4.5,"reference":"ChIJwXE2qvbP7kYRq4yUjLBNwFI","types":["restaurant","food","point_of_interest","establishment"],"user_ratings_total":2},{"business_status":"OPERATIONAL","formatted_address":"Kurzemes prospekts 3, Kurzemes rajons, Rīga, LV-1067","geometry":{"location":{"lat":56.9568373,"lng":24.0361821},"viewport":{"northeast":{"lat":56.95818752989272,"lng":24.03746092989272},"southwest":{"lat":56.95548787010728,"lng":24.03476127010727}}},"icon":"https://maps.gstatic.com/mapfiles/place_api/icons/v1/png_71/restaurant-71.png","icon_background_color":"#FF9E67","icon_mask_base_uri":"https://maps.gstatic.com/mapfiles/place_api/icons/v2/restaurant_pinlet","name":"LAMPA restorāns","opening_hours":{"open_now":true},"photos":[{"height":921,"html_attributions":["<a href=\"https://maps.google.com/maps/contrib/105124619006210552661\">A Google User</a>"],"photo_reference":"AeJbb3dpbmqQimgHQx0nPNdp1fUV9pbgMcQ0h4aClPsn15HzhgQP2eSwMoCHdo6WehBSXD_C1fmer6C9OHAARC0B1Bm7rtk3HauxMhhGJkKlgkkgO5qZ6ej2or3yYyB1B57y7BGL-H4yyGe2Kgi8EXL3_XmlLg3aNvKedbN-P8k828IFsGqT","width":2048}],"place_id":"ChIJU8uzVm7F7kYRUAbwFN_eQGM","plus_code":{"compound_code":"X24P+PF Riga","global_code":"9G86X24P+PF"},"rating":4.4,"reference":"ChIJU8uzVm7F7kYRUAbwFN_eQGM","types":["restaurant","food","point_of_interest","establishment"],"user_ratings_total":23},{"business_status":"OPERATIONAL","formatted_address":"Stabu iela 8, Centra rajons, Rīga, LV-1010","geometry":{"location":{"lat":56.95901629999999,"lng":24.1225892},"viewport":{"northeast":{"lat":56.96038112989272,"lng":24.12396457989272},"southwest":{"lat":56.95768147010727,"lng":24.12126492010728}}},"icon":"https://maps.gstatic.com/mapfiles/place_api/icons/v1/png_71/restaurant-71.png","icon_background_color":"#FF9E67","icon_mask_base_uri":"https://maps.gstatic.com/mapfiles/place_api/icons/v2/restaurant_pinlet","name":"Önder","opening_hours":{"open_now":true},"photos":[{"height":2128,"html_attributions":["<a href=\"https://maps.google.com/maps/contrib/117957304827589461070\">Ksenija P</a>"],"photo_reference":"AeJbb3d2W5e6BEBi3SPkzqE03jzi6_0SSNuU0kN61P-lAcNMfAAIiLpWsPCjQ2IOfSJPTEtvBPBItzWwgOxQrqFAqqfnve1eq2iILnqQLennntAkNjJu9xOQySc90p4Bj1ink8uiS_G_9vOT9-c_DM0YcfBUlGCzSVOoG802yMG7sQCjmcuz","width":3365}],"place_id":"ChIJsxi1xxnP7kYRhmmoyhOduh4","plus_code":{"compound_code":"X45F+J2 Riga","global_code":"9G86X45F+J2"},"rating":4.4,"reference":"ChIJsxi1xxnP7kYRhmmoyhOduh4","types":["restaurant","food","point_of_interest","establishment"],"user_ratings_total":7},{"business_status":"OPERATIONAL","formatted_address":"Brīvības bulvāris 30, Centra rajons, Rīga, LV-1050","geometry":{"location":{"lat":56.951958,"lng":24.114819},"viewport":{"northeast":{"lat":56.95336577989273,"lng":24.11604317989272},"southwest":{"lat":56.95066612010728,"lng":24.11334352010727}}},"icon":"https://maps.gstatic.com/mapfiles/place_api/icons/v1/png_71/restaurant-71.png","icon_background_color":"#FF9E67","icon_mask_base_uri":"https://maps.gstatic.com/mapfiles/place_api/icons/v2/restaurant_pinlet","name":"Street Food Points","opening_hours":{"open_now":true},"photos":[{"height":1600,"html_attributions":["<a href=\"https://maps.google.com/maps/contrib/114456634739149831914\">Dzimtene , makšķernieku klubs</a>"],"photo_reference":"AeJbb3ds6UQ9KbuSG0IwHMStSFQTOW2uDmCOlH7kprUHxFuAigPURBfZUkAogSVm7sd9APZuxEM7rgkDQAL9mQChdqe6HSXhNABuTjeEnaX54kcUo3TTc90etrdEhPLSxgXKiRe5EfPsgbJ1JL_uhHa4yl-PH8ENg_Xz0sioOt6XMM_oH_db","width":900}],"place_id":"ChIJAdIKhdHP7kYRzyYg4tUMdnM","plus_code":{"compound_code":"X427+QW Riga","global_code":"9G86X427+QW"},"price_level":1,"rating":4.3,"reference":"ChIJAdIKhdHP7kYRzyYg4tUMdnM","types":["meal_takeaway","meal_delivery","restaurant","food","point_of_interest","establishment"],"user_ratings_total":939},{"business_status":"OPERATIONAL","formatted_address":"Rīgas gatve 5a, Ādaži, Ādažu novads, LV-2164","geometry":{"location":{"lat":57.0706429,"lng":24.3207673},"viewport":{"northeast":{"lat":57.07200282989272,"lng":24.32220132989272},"southwest":{"lat":57.06930317010728,"lng":24.31950167010728}}},"icon":"https://maps.gstatic.com/mapfiles/place_api/icons/v1/png_71/restaurant-71.png","icon_background_color":"#FF9E67","icon_mask_base_uri":"https://maps.gstatic.com/mapfiles/place_api/icons/v2/restaurant_pinlet","name":"LUX KEBAB","opening_hours":{"open_now":true},"photos":[{"height":2725,"html_attributions":["<a href=\"https://maps.google.com/maps/contrib/112489399775061075384\">A Google User</a>"],"photo_reference":"AeJbb3dU8t7Sgh5LocL14buqgjMD61a2f2cz2SMknr09cpyMdnmWYruoqIG0ZjMAxDRZaZV4ZTioLCnekSkV_mvpbqB-23HIJDzVcMLSz0wb8yeezRGLIorN7Lh0zaCyeKwhgLYzxY2xCQzGWLwRn7QHo50fFmOzLXdxolBZryT6WrZ2YXx7","width":4096}],"place_id":"ChIJbUxXa8HJ7kYRUcQNR0VkLCY","plus_code":{"compound_code":"38CC+78 Ādaži, Ādažu novads","global_code":"9G9638CC+78"},"price_level":2,"rating":4.2,"reference":"ChIJbUxXa8HJ7kYRUcQNR0VkLCY","types":["restaurant","food","point_of_interest","establishment"],"user_ratings_total":599},{"business_status":"OPERATIONAL","formatted_address":"Sergeja Eizenšteina iela 29, Vidzemes priekšpilsēta, Rīga, LV-1079","geometry":{"location":{"lat":56.9693602,"lng":24.2318902},"viewport":{"northeast":{"lat":56.97074157989272,"lng":24.23317402989272},"southwest":{"lat":56.96804192010727,"lng":24.23047437010728}}},"icon":"https://maps.gstatic.com/mapfiles/place_api/icons/v1/png_71/restaurant-71.png","icon_background_color":"#FF9E67","icon_mask_base_uri":"https://maps.gstatic.com/mapfiles/place_api/icons/v2/restaurant_pinlet","name":"Has Kebabs (Mežciems)","opening_hours":{"open_now":true},"photos":[{"height":401,"html_attributions":["<a href=\"https://maps.google.com/maps/contrib/105564496803222176818\">A Google User</a>"],"photo_reference":"AeJbb3f4NegMgOeVX4c32bu0teAD_QXA3jwo-q7gPzx9sIccHvZwrr4A_JVhhvSnMNzpX94fh0zl_df0JbSstODA6CMziuG74E04Fgdk9dFrXJDHnbQGb09KaZVQAzS5A1R6o9X68zeTYzaqMVc55cyQdqrb8Qr3aT36WmDPfY4_hB54xEXt","width":711}],"place_id":"ChIJ0YvEvKTN7kYR4ubEth0T2fI","plus_code":{"compound_code":"X69J+PQ Riga","global_code":"9G86X69J+PQ"},"rating":4.1,"reference":"ChIJ0YvEvKTN7kYR4ubEth0T2fI","types":["restaurant","food","point_of_interest","establishment"],"user_ratings_total":55},{"business_status":"OPERATIONAL","formatted_address":"Kuģu iela 11, Zemgales priekšpilsēta, Rīga, LV-1048","geometry":{"location":{"lat":56.9424332,"lng":24.0958719},"viewport":{"northeast":{"lat":56.94379272989271,"lng":24.09708012989272},"southwest":{"lat":56.94109307010727,"lng":24.09438047010728}}},"icon":"https://maps.gstatic.com/mapfiles/place_api/icons/v1/png_71/restaurant-71.png","icon_background_color":"#FF9E67","icon_mask_base_uri":"https://maps.gstatic.com/mapfiles/place_api/icons/v2/restaurant_pinlet","name":"Kebabu Studija","opening_hours":{"open_now":true},"photos":[{"height":4032,"html_attributions":["<a href=\"https://maps.google.com/maps/contrib/106187775363284103733\">Rain Ruus</a>"],"photo_reference":"AeJbb3c4vq4ISgTMHtVx7tDr6nwXD0278rq6GwCRwV0nipjccxBACY9-D9m0Q0olWthbgCrT_6i9NGwECr7c_vXU58G5HhcOZXU-hBjnuOrnz-iwFQl2W_PEsIwJ8EuDvB4dC3JLgUuRZ8EDuBdZAWyYL5T-FIYVxpya7DSrti1xfvNYwU0o","width":3024}],"place_id":"ChIJ9cd6UxPR7kYRQFD0OtS1-rQ","plus_code":{"compound_code":"W3RW+X8 Riga","global_code":"9G86W3RW+X8"},"price_level":1,"rating":4,"reference":"ChIJ9cd6UxPR7kYRQFD0OtS1-rQ","types":["restaurant","food","point_of_interest","establishment"],"user_ratings_total":386},{"business_status":"OPERATIONAL","formatted_address":"Dzirnavu iela 115, Latgales priekšpilsēta, Rīga, LV-1011","geometry":{"location":{"lat":56.9493009,"lng":24.1249738},"viewport":{"northeast":{"lat":56.95064322989273,"lng":24.12624807989272},"southwest":{"lat":56.94794357010728,"lng":24.12354842010728}}},"icon":"https://maps.gstatic.com/mapfiles/place_api/icons/v1/png_71/restaurant-71.png","icon_background_color":"#FF9E67","icon_mask_base_uri":"https://maps.gstatic.com/mapfiles/place_api/icons/v2/restaurant_pinlet","name":"KEBAB house","opening_hours":{"open_now":true},"photos":[{"height":3024,"html_attributions":["<a href=\"https://maps.google.com/maps/contrib/114095282294845439746\">Gunta Brencena</a>"],"photo_reference":"AeJbb3ddXdtQo1icxkt4uhJuU7OVANFxkZnNxcEu_qhiMNdQPKJXFLYFIPLTgt-d6S4hplTOz5riStNy90j4nttJd5eAqbnHknxapdg_mqqac75GReYyA5qq5YjcjXm8JZ-s20kY4maKN6HsaeuowFHkszBbiIvTWf0nNUForo85URqHeL6u","width":4032}],"place_id":"ChIJM0sLKC3O7kYRP8rXjcTqDZI","plus_code":{"compound_code":"W4XG+P2 Riga","global_code":"9G86W4XG+P2"},"price_level":1,"rating":3.9,"reference":"ChIJM0sLKC3O7kYRP8rXjcTqDZI","types":["restaurant","food","point_of_interest","establishment"],"user_ratings_total":544},{"business_status":"OPERATIONAL","formatted_address":"Katlakalna iela 13, Latgales priekšpilsēta, Rīga, LV-1073","geometry":{"location":{"lat":56.9310798,"lng":24.2042516},"viewport":{"northeast":{"lat":56.93239212989272,"lng":24.20548947989272},"southwest":{"lat":56.92969247010727,"lng":24.20278982010728}}},"icon":"https://maps.gstatic.com/mapfiles/place_api/icons/v1/png_71/restaurant-71.png","icon_background_color":"#FF9E67","icon_mask_base_uri":"https://maps.gstatic.com/mapfiles/place_api/icons/v2/restaurant_pinlet","name":"«AYO» KEBABS","photos":[{"height":1744,"html_attributions":["<a href=\"https://maps.google.com/maps/contrib/105600667046111058731\">Eduard Wagner</a>"],"photo_reference":"AeJbb3eqaij2b2PgkpHKHcNZpPpV4wJKE1T-OSUtk15PoAHpzQTaYFxsmDiFHg2-PhS2F41PaDkViawl8SZWl0leZBxpmUiqG8_EmNopbnk08KB8GvxwaC0km-V2MdsYnUAmOkNCZxc54UGcZtzbXKrV7neTTFg-5Cu0uB2HkGV95wCShj58","width":3648}],"place_id":"ChIJidtnc6PN7kYRA0yBR9IFxEQ","plus_code":{"compound_code":"W6J3+CM Riga","global_code":"9G86W6J3+CM"},"rating":3.7,"reference":"ChIJidtnc6PN7kYRA0yBR9IFxEQ","types":["meal_takeaway","restaurant","food","point_of_interest","establishment"],"user_ratings_total":6},{"business_status":"OPERATIONAL","formatted_address":"Krišjāņa Barona iela 44, Centra rajons, Rīga, LV-1011","geometry":{"location":{"lat":56.9536721,"lng":24.1269106},"viewport":{"northeast":{"lat":56.95511542989272,"lng":24.12810142989272},"southwest":{"lat":56.95241577010728,"lng":24.12540177010728}}},"icon":"https://maps.gstatic.com/mapfiles/place_api/icons/v1/png_71/restaurant-71.png","icon_background_color":"#FF9E67","icon_mask_base_uri":"https://maps.gstatic.com/mapfiles/place_api/icons/v2/restaurant_pinlet","name":"ANTALYA KEBAB & GRILL","opening_hours":{"open_now":true},"photos":[{"height":722,"html_attributions":["<a href=\"https://maps.google.com/maps/contrib/105269263652669147025\">A Google User</a>"],"photo_reference":"AeJbb3dvidmTqILfXq3G5iz5EevNWmivviL-ywHBwbtWK_Tu97U4IuCeUT-X-cs7sLqjAflgngvVy96F13dE2a35fZz9uLRN4J0mzzUHo7K4K0i2vOd1tBy35eI1o2r9n_xEeDfLI_9OBXku1aBExJahWok_tQkanUzVHJHsE7zZSJLK4PO2","width":736}],"place_id":"ChIJv683meLP7kYRn_kHyIp0gY0","plus_code":{"compound_code":"X43G+FQ Riga","global_code":"9G86X43G+FQ"},"rating":3.3,"reference":"ChIJv683meLP7kYRn_kHyIp0gY0","types":["restaurant","food","point_of_interest","establishment"],"user_ratings_total":46},{"business_status":"OPERATIONAL","formatted_address":"Lubānas iela 78, Latgales priekšpilsēta, Rīga, LV-1073","geometry":{"location":{"lat":56.9312353,"lng":24.2040846},"viewport":{"northeast":{"lat":56.93256347989272,"lng":24.20534007989272},"southwest":{"lat":56.92986382010728,"lng":24.20264042010728}}},"icon":"https://maps.gstatic.com/mapfiles/place_api/icons/v1/png_71/restaurant-71.png","icon_background_color":"#FF9E67","icon_mask_base_uri":"https://maps.gstatic.com/mapfiles/place_api/icons/v2/restaurant_pinlet","name":"Befrites Kebabi","opening_hours":{"open_now":true},"photos":[{"height":4032,"html_attributions":["<a href=\"https://maps.google.com/maps/contrib/100498737328810765706\">сослан сосланов</a>"],"photo_reference":"AeJbb3cE4vbMV84ULabRr5inzJhp4JGRUDBs61BO7hsQiIRiyOenq5LtC9PGJTfmA35xP4HOFxAJrXPw86R2a5VfrZeDxeQBYZNMsAhNXmKWLRRKgVg9qAgR1Wml9-fJrJTrxgnJUknwoKRyezWAIDWmtJN8-ljANhP3ZtrIoV9B3OOXJA6X","width":3024}],"place_id":"ChIJCzVo0C7N7kYRIJYMidME7O8","plus_code":{"compound_code":"W6J3+FJ Riga","global_code":"9G86W6J3+FJ"},"rating":3.3,"reference":"ChIJCzVo0C7N7kYRIJYMidME7O8","types":["restaurant","food","point_of_interest","establishment"],"user_ratings_total":20},{"business_status":"OPERATIONAL","formatted_address":"Āzenes iela 5, Kurzemes rajons, Rīga, LV-1048","geometry":{"location":{"lat":56.95001389999999,"lng":24.0818271},"viewport":{"northeast":{"lat":56.95131717989273,"lng":24.08281327989272},"southwest":{"lat":56.94861752010728,"lng":24.08011362010728}}},"icon":"https://maps.gstatic.com/mapfiles/place_api/icons/v1/png_71/restaurant-71.png","icon_background_color":"#FF9E67","icon_mask_base_uri":"https://maps.gstatic.com/mapfiles/place_api/icons/v2/restaurant_pinlet","name":"Turkebab","opening_hours":{"open_now":true},"photos":[{"height":3024,"html_attributions":["<a href=\"https://maps.google.com/maps/contrib/118129162251669785245\">Аленка Мишкина</a>"],"photo_reference":"AeJbb3d8k7azFfjdPqfhGfB_0yaJgU9EfbhSRS7-QD5RVNJRWwyQWglWYGn6d9mD6KrVtQ4kDz4buZA5KHVUCTl7MgCg0Oo8OwliQLDNQGmKTuMpiqR84C3WZ-ZS3BkT08iXO9AJBqlMotFPbfVBRJbYxjyX3ggqTLA3O9bNtj9VwAxOBnGP","width":4032}],"place_id":"ChIJD3lUYmvP7kYRTTYXl3zGgAA","plus_code":{"compound_code":"X32J+2P Riga","global_code":"9G86X32J+2P"},"rating":2.6,"reference":"ChIJD3lUYmvP7kYRTTYXl3zGgAA","types":["restaurant","food","point_of_interest","establishment"],"user_ratings_total":41},{"business_status":"OPERATIONAL","formatted_address":"Ģertrūdes iela 43, Centra rajons, Rīga, LV-1011","geometry":{"location":{"lat":56.95378419999999,"lng":24.1294002},"viewport":{"northeast":{"lat":56.95509752989272,"lng":24.13068202989272},"southwest":{"lat":56.95239787010728,"lng":24.12798237010728}}},"icon":"https://maps.gstatic.com/mapfiles/place_api/icons/v1/png_71/restaurant-71.png","icon_background_color":"#FF9E67","icon_mask_base_uri":"https://maps.gstatic.com/mapfiles/place_api/icons/v2/restaurant_pinlet","name":"Stop","place_id":"ChIJY0Xnqt3P7kYRHjWB4WAlLH8","plus_code":{"compound_code":"X43H+GQ Riga","global_code":"9G86X43H+GQ"},"rating":0,"reference":"ChIJY0Xnqt3P7kYRHjWB4WAlLH8","types":["restaurant","food","point_of_interest","establishment"],"user_ratings_total":0}]