[{"business_status":"OPERATIONAL","formatted_address":"9 Fairview Strand, Dublin 3, D03 R242","geometry":{"location":{"lat":53.362837,"lng":-6.2373528},"viewport":{"northeast":{"lat":53.36413627989272,"lng":-6.235984770107279},"southwest":{"lat":53.36143662010728,"lng":-6.238684429892722}}},"icon":"https://maps.gstatic.com/mapfiles/place_api/icons/v1/png_71/restaurant-71.png","icon_background_color":"#FF9E67","icon_mask_base_uri":"https://maps.gstatic.com/mapfiles/place_api/icons/v2/restaurant_pinlet","name":"Tuk & Tuk YO","opening_hours":{"open_now":false},"photos":[{"height":4000,"html_attributions":["<a href=\"https://maps.google.com/maps/contrib/114728192886467036185\">Gisele Regina Oliveira</a>"],"photo_reference":"AeJbb3dO1Gv9phRluYEK6Dsa7LgzFhjmegr1Lbxr4I3GAUYmWXIL8E4Xfzgrxnyk0FZpl6VonYJnkVDrJx0kfWDp9ILJhB-GLYBc4HCdAIIrkhKUlggFSiwtr2EC6zdld743FYlVmDtD5v_pSMbo-fGMok0gkogy0ird5EmJ4S4umsRjbDAo","width":1844}],"place_id":"ChIJE4Rt4wMPZ0gRupejS_xOvIk","plus_code":{"compound_code":"9Q77+43 Dublin","global_code":"9C5M9Q77+43"},"rating":5,"reference":"ChIJE4Rt4wMPZ0gRupejS_xOvIk","types":["meal_takeaway","restaurant","food","point_of_interest","establishment"],"user_ratings_total":3},{"business_status":"OPERATIONAL","formatted_address":"36 Parliament St, Temple Bar, Dublin, D02 KR60","geometry":{"location":{"lat":53.34441349999999,"lng":-6.2674581},"viewport":{"northeast":{"lat":53.34577082989272,"lng":-6.266036970107278},"southwest":{"lat":53.34307117010727,"lng":-6.268736629892722}}},"icon":"https://maps.gstatic.com/mapfiles/place_api/icons/v1/png_71/restaurant-71.png","icon_background_color":"#FF9E67","icon_mask_base_uri":"https://maps.gstatic.com/mapfiles/place_api/icons/v2/restaurant_pinlet","name":"Sumaki - Sushi Burrito - Poké","opening_hours":{"open_now":true},"photos":[{"height":4096,"html_attributions":["<a href=\"https://maps.google.com/maps/contrib/104949730391663124245\">Giuseppe Talarico</a>"],"photo_reference":"AeJbb3fihhUqONCjeZGX0KsHLJ57U-7R8EIciu-cf1FRfbtYbWsmIIIqJ6zZxcFYkY3X5YtYMsxCwVOH3acBP34YSrZT8qCvUWWPM7dMttB4hCdCkyG7NG2azBVlK98ZfDNn4gpB0Tqse_7FBuUL4W4zyRc7OXVkMb6NMQ4eS271Ni2jnhWs","width":3072}],"place_id":"ChIJW0qfmWgPZ0gRbS2V0We8Hv8","plus_code":{"compound_code":"8PVM+Q2 Dublin","global_code":"9C5M8PVM+Q2"},"rating":4.9,"reference":"ChIJW0qfmWgPZ0gRbS2V0We8Hv8","types":["restaurant","food","point_of_interest","establishment"],"user_ratings_total":77},{"business_status":"OPERATIONAL","formatted_address":"59 George's Street Lower, Dún Laoghaire, Dublin, A96 EW71","geometry":{"location":{"lat":53.29277039999999,"lng":-6.1375869},"viewport":{"northeast":{"lat":53.29416982989272,"lng":-6.136176570107279},"southwest":{"lat":53.29147017010727,"lng":-6.138876229892722}}},"icon":"https://maps.gstatic.com/mapfiles/place_api/icons/v1/png_71/restaurant-71.png","icon_background_color":"#FF9E67","icon_mask_base_uri":"https://maps.gstatic.com/mapfiles/place_api/icons/v2/restaurant_pinlet","name":"Leesun","opening_hours":{"open_now":true},"photos":[{"height":3024,"html_attributions":["<a href=\"https://maps.google.com/maps/contrib/114465166596102874899\">A Google User</a>"],"photo_reference":"AeJbb3dRDQFZPlQd1i2b_1Oe9xX9lN2mtJl2S9XPhsXnWnOSYPViOjMzZu0qhUElzgAjE6AQCg_sh2yN5aPQopvN4f-xSm83Fsz3IIgjXOirM8AV8jftvbF5GHpuWgQkFo9RKkSFuMrMj9OzK-bOeAdRxCLRQxRtrKxJokooOc3_5_A90_6E","width":4032}],"place_id":"ChIJx1HGv8UHZ0gRKc6C5lvLaKQ","plus_code":{"compound_code":"7VV6+4X Dublin","global_code":"9C5M7VV6+4X"},"rating":4.9,"reference":"ChIJx1HGv8UHZ0gRKc6C5lvLaKQ","types":["restaurant","food","point_of_interest","establishment"],"user_ratings_total":55},{"business_status":"OPERATIONAL","formatted_address":"11 Capel St, North City, Dublin, D01 YX82","geometry":{"location":{"lat":53.3467672,"lng":-6.267956},"viewport":{"northeast":{"lat":53.34797192989272,"lng":-6.266665470107278},"southwest":{"lat":53.34527227010728,"lng":-6.269365129892722}}},"icon":"https://maps.gstatic.com/mapfiles/place_api/icons/v1/png_71/restaurant-71.png","icon_background_color":"#FF9E67","icon_mask_base_uri":"https://maps.gstatic.com/mapfiles/place_api/icons/v2/restaurant_pinlet","name":"Eatokyo Asian Restaurant And Sushi Bar","opening_hours":{"open_now":true},"photos":[{"height":3024,"html_attributions":["<a href=\"https://maps.google.com/maps/contrib/114708787121423011414\">chou Yu</a>"],"photo_reference":"AeJbb3dXFULAB0_hoG_WsCszHAAub__a7kQpNC78GqEJngkPgN0Cag6pUmCbbokCINR45G1ySW_OQtFjxt0iW2sXBcHRIOgPh-mdVI37k672r7K0MtqLONgqU2xFm36dj62rfrqd86SAgw0tXNp6GCYDIMuQnv2tw5mX7skes20Pc1euA-AK","width":4032}],"place_id":"ChIJM1CLiKYPZ0gR2o_dwzTHFRA","plus_code":{"compound_code":"8PWJ+PR Dublin","global_code":"9C5M8PWJ+PR"},"price_level":2,"rating":4.7,"reference":"ChIJM1CLiKYPZ0gR2o_dwzTHFRA","types":["restaurant","food","point_of_interest","establishment"],"user_ratings_total":259},{"business_status":"OPERATIONAL","formatted_address":"48 Capel St, North City, Dublin 1, D01 P7W9","geometry":{"location":{"lat":53.34893659999999,"lng":-6.268815999999999},"viewport":{"northeast":{"lat":53.35005152989272,"lng":-6.267485470107277},"southwest":{"lat":53.34735187010727,"lng":-6.270185129892721}}},"icon":"https://maps.gstatic.com/mapfiles/place_api/icons/v1/png_71/restaurant-71.png","icon_background_color":"#FF9E67","icon_mask_base_uri":"https://maps.gstatic.com/mapfiles/place_api/icons/v2/restaurant_pinlet","name":"Gushi Asian Bar & Restaurant","opening_hours":{"open_now":true},"photos":[{"height":12000,"html_attributions":["<a href=\"https://maps.google.com/maps/contrib/106481249379162925867\">victor henrique naves santos</a>"],"photo_reference":"AeJbb3fHwkwAAMc7yxwkQzAJnzVet5WMlHd_Z9aac2O1qcOLs16VJP5pm-tbkmDoAFNFN1Q4qTh6zxE7uZSP58XeOWBNFisUB54k_1cvO7zt0oJv_Skv0QhqAF_Kx-F32H0FH5nYCNyBij09wymndsELMcZzSyBo3Ogbj2geQ0nYF8h3j80F","width":9000}],"place_id":"ChIJT_NUq7cPZ0gRcz8KX1eZOk8","plus_code":{"compound_code":"8PXJ+HF Dublin 1","global_code":"9C5M8PXJ+HF"},"rating":4.7,"reference":"ChIJT_NUq7cPZ0gRcz8KX1eZOk8","types":["bar","restaurant","food","point_of_interest","establishment"],"user_ratings_total":166},{"business_status":"OPERATIONAL","formatted_address":"Red Torch Ginger Sandyford, The Chase, Carmanhall Rd, Sandyford, Dublin, D18 Y3X2","geometry":{"location":{"lat":53.27698729999999,"lng":-6.2108151},"viewport":{"northeast":{"lat":53.27830627989272,"lng":-6.209504320107278},"southwest":{"lat":53.27560662010728,"lng":-6.212203979892722}}},"icon":"https://maps.gstatic.com/mapfiles/place_api/icons/v1/png_71/restaurant-71.png","icon_background_color":"#FF9E67","icon_mask_base_uri":"https://maps.gstatic.com/mapfiles/place_api/icons/v2/restaurant_pinlet","name":"Red Torch Ginger Sandyford","opening_hours":{"open_now":true},"photos":[{"height":4000,"html_attributions":["<a href=\"https://maps.google.com/maps/contrib/118310165113650202878\">Kunal Kini</a>"],"photo_reference":"AeJbb3cr5i0_7Uo_0JzcF9CbGLn-7LxWUJq2ZtnVwz1q_tBrDtfbg0oXxzd9Ibt_OoGaEQ27r7KF0INzB_e1F7eM8hAIJKvfE5OSWlNaJvNGME6vXoTrXE8KMaSfGTg45drnzhxQwHNx4Nd2RNpTG6T25LeyUYJnhCFRSiRD-Ny5PKVcM5ou","width":3008}],"place_id":"ChIJ69tedxgJZ0gRVW6O9DAyVeA","plus_code":{"compound_code":"7QGQ+QM Dublin","global_code":"9C5M7QGQ+QM"},"rating":4.7,"reference":"ChIJ69tedxgJZ0gRVW6O9DAyVeA","types":["restaurant","food","point_of_interest","establishment"],"user_ratings_total":46},{"business_status":"OPERATIONAL","formatted_address":"15 Capel St, North City, Dublin 1, D01 E1C0","geometry":{"location":{"lat":53.3469491,"lng":-6.2680336},"viewport":{"northeast":{"lat":53.34847057989271,"lng":-6.266825570107278},"southwest":{"lat":53.34577092010727,"lng":-6.269525229892722}}},"icon":"https://maps.gstatic.com/mapfiles/place_api/icons/v1/png_71/restaurant-71.png","icon_background_color":"#FF9E67","icon_mask_base_uri":"https://maps.gstatic.com/mapfiles/place_api/icons/v2/restaurant_pinlet","name":"Musashi Noodle & Sushi Bar","opening_hours":{"open_now":true},"photos":[{"height":3024,"html_attributions":["<a href=\"https://maps.google.com/maps/contrib/106041737830899256601\">OZBEN KAYMAZ</a>"],"photo_reference":"AeJbb3dgji9WaMfNE4aaTzEMnXiia-7DLqlm5hX5WFN0W5yzpuK19EHKUAdxKg7mDhJ3HxT8mkS5y5xAw9lYmQKWEvX3xropzfZ5o3d1VaEFCcpFUxXpm2bdAbgaT72RELXGR65Rr0hXlI-8e2MLQt6A16pOVDXUsj4WFMGgejjY1XVUf8B1","width":4032}],"place_id":"ChIJf7cAm4IOZ0gRuS3jmXjiWz8","plus_code":{"compound_code":"8PWJ+QQ Dublin 1","global_code":"9C5M8PWJ+QQ"},"price_level":2,"rating":4.6,"reference":"ChIJf7cAm4IOZ0gRuS3jmXjiWz8","types":["restaurant","food","point_of_interest","establishment"],"user_ratings_total":2211},{"business_status":"OPERATIONAL","formatted_address":"46A Capel St, North City, Dublin 1, D01 P293","geometry":{"location":{"lat":53.3488281,"lng":-6.268751099999999},"viewport":{"northeast":{"lat":53.34999727989272,"lng":-6.267463070107278},"southwest":{"lat":53.34729762010728,"lng":-6.270162729892722}}},"icon":"https://maps.gstatic.com/mapfiles/place_api/icons/v1/png_71/restaurant-71.png","icon_background_color":"#FF9E67","icon_mask_base_uri":"https://maps.gstatic.com/mapfiles/place_api/icons/v2/restaurant_pinlet","name":"Aobaba","opening_hours":{"open_now":true},"photos":[{"height":3024,"html_attributions":["<a href=\"https://maps.google.com/maps/contrib/113617548809565265209\">Irina Alina Sandu</a>"],"photo_reference":"AeJbb3c-8KmVWiml_j8TcmhhO5FN1JEpP_JCU08_LwSY3ckKYeDGRAMA2xJgrCvjtR7jLZcAiuuDpbgyXhT7TDlabBMFVUi9IyXvj7ALh1y3OO-qR7GpqeCUxFF-kpP80oocjJDMGAG8akilIfWb7cEYGfYYLwVYVDm61GVgk2sz96Nhvc-Z","width":4032}],"place_id":"ChIJtaEWdIIOZ0gRCu9emGy2-_A","plus_code":{"compound_code":"8PXJ+GF Dublin 1","global_code":"9C5M8PXJ+GF"},"price_level":1,"rating":4.6,"reference":"ChIJtaEWdIIOZ0gRCu9emGy2-_A","types":["cafe","restaurant","food","point_of_interest","establishment"],"user_ratings_total":1230},{"business_status":"OPERATIONAL","formatted_address":"4 Talbot St, North City, Dublin, D01 X8F8","geometry":{"location":{"lat":53.3503527,"lng":-6.2574739},"viewport":{"northeast":{"lat":53.35166917989272,"lng":-6.256110670107278},"southwest":{"lat":53.34896952010727,"lng":-6.258810329892722}}},"icon":"https://maps.gstatic.com/mapfiles/place_api/icons/v1/png_71/restaurant-71.png","icon_background_color":"#FF9E67","icon_mask_base_uri":"https://maps.gstatic.com/mapfiles/place_api/icons/v2/restaurant_pinlet","name":"Eatokyo Asian Street Food","opening_hours":{"open_now":true},"photos":[{"height":3024,"html_attributions":["<a href=\"https://maps.google.com/maps/contrib/104342486968137570352\">Abhimanyu Gangwar</a>"],"photo_reference":"AeJbb3dcSyf64kAwZB263uLGw-MKRLZ6TkRZjp90muBIj1-3J6WWfgonKOSn6zd9FmhdqD_TJqcpBbHQ-QyGPIvUTbqbct78qjQSNFqtjHygxC_2jPGsDqEQky8QBFd0buweyTt5UxUMZjJWEm4YFx3CSm6IOvWbQqDUQJjHCt9ePUZV5AtV","width":4032}],"place_id":"ChIJgfCr9oUPZ0gRPDwbHZlDxJI","plus_code":{"compound_code":"9P2V+52 Dublin","global_code":"9C5M9P2V+52"},"price_level":2,"rating":4.6,"reference":"ChIJgfCr9oUPZ0gRPDwbHZlDxJI","types":["restaurant","food","point_of_interest","establishment"],"user_ratings_total":469},{"business_status":"OPERATIONAL","formatted_address":"2 Ongar Square, Ongar Village, Dublin, D15 RY97","geometry":{"location":{"lat":53.3950705,"lng":-6.439136599999999},"viewport":{"northeast":{"lat":53.39638317989272,"lng":-6.437715220107277},"southwest":{"lat":53.39368352010728,"lng":-6.440414879892721}}},"icon":"https://maps.gstatic.com/mapfiles/place_api/icons/v1/png_71/restaurant-71.png","icon_background_color":"#FF9E67","icon_mask_base_uri":"https://maps.gstatic.com/mapfiles/place_api/icons/v2/restaurant_pinlet","name":"Shangri-la Asian Cuisine Ongar","opening_hours":{"open_now":false},"photos":[{"height":609,"html_attributions":["<a href=\"https://maps.google.com/maps/contrib/103650685574494687454\">A Google User</a>"],"photo_reference":"AeJbb3dyEDFCYZtsWpEdi9v3kvy_-Ei44tneNHyeHne3z018KlbkAdaYQdlGpa_XIx82JBW3LTHnArHvWkt_tuGzwAKfB9xj8m-pvICculiejA0kEleHrWIaEpSRPZN_k44KaQGx7EWfszTMaDVNzXzaTfak47pNVni3GhHMrqzWx7XqRVrX","width":1080}],"place_id":"ChIJdQACVO5tZ0gRzTpFbJp08Wg","plus_code":{"compound_code":"9HW6+28 Dublin","global_code":"9C5M9HW6+28"},"rating":4.6,"reference":"ChIJdQACVO5tZ0gRzTpFbJp08Wg","types":["restaurant","food","point_of_interest","establishment"],"user_ratings_total":39},{"business_status":"OPERATIONAL","formatted_address":"38 Ormond Quay Lower, North City, Dublin 1, D01 A593","geometry":{"location":{"lat":53.3466143,"lng":-6.263825499999999},"viewport":{"northeast":{"lat":53.34790257989272,"lng":-6.262440120107278},"southwest":{"lat":53.34520292010728,"lng":-6.265139779892722}}},"icon":"https://maps.gstatic.com/mapfiles/place_api/icons/v1/png_71/restaurant-71.png","icon_background_color":"#FF9E67","icon_mask_base_uri":"https://maps.gstatic.com/mapfiles/place_api/icons/v2/restaurant_pinlet","name":"Yamamori North City","opening_hours":{"open_now":true},"photos":[{"height":675,"html_attributions":["<a href=\"https://maps.google.com/maps/contrib/112021719130315268928\">A Google User</a>"],"photo_reference":"AeJbb3fYXz-xBNwynp4A9cQQvn1izj9oW0UZodvonaTujMXrz99iFi_tvjVJZb2M6OF165IUIQiiBERZGFU1hvuPlUjv3ftDjTa5J8TIois2AhGO0lvks_kBuWDIZas_rkL59LS8p3ClGkeTcbGZIWWdpiqSf4vbWmqHNsAYjZZZryWhikNy","width":1200}],"place_id":"ChIJ5UnePYMOZ0gRITeMaR_sf2E","plus_code":{"compound_code":"8PWP+JF Dublin 1","global_code":"9C5M8PWP+JF"},"price_level":2,"rating":4.5,"reference":"ChIJ5UnePYMOZ0gRITeMaR_sf2E","types":["meal_takeaway","restaurant","food","point_of_interest","establishment"],"user_ratings_total":2236},{"business_status":"OPERATIONAL","formatted_address":"17 Camden Street Lower, Saint Kevin's, Dublin, D02 TX94","geometry":{"location":{"lat":53.3353791,"lng":-6.2649908},"viewport":{"northeast":{"lat":53.33672942989271,"lng":-6.263753770107278},"southwest":{"lat":53.33402977010727,"lng":-6.266453429892722}}},"icon":"https://maps.gstatic.com/mapfiles/place_api/icons/v1/png_71/restaurant-71.png","icon_background_color":"#FF9E67","icon_mask_base_uri":"https://maps.gstatic.com/mapfiles/place_api/icons/v2/restaurant_pinlet","name":"Neon Asian Street Food","opening_hours":{"open_now":true},"photos":[{"height":4032,"html_attributions":["<a href=\"https://maps.google.com/maps/contrib/114537565222772069906\">Pawel Klimaszewski</a>"],"photo_reference":"AeJbb3ed8V252NxkWSCbaxNBnJlE8g6vpKHowihOac4FtY91Vsp2KWdGvKvkI0ewuzf91jumnAP-tzG7Xqw0AkEXXvI1WkkhkU530pUqsfugIfM6N-s2YQ1QARE24q-ZGkW_T4vmjA8S-oNqRpRrb5kcm6HoLNDDoHtCbxipBHtXuBLcDqM","width":3024}],"place_id":"ChIJFZsm758OZ0gRcGdjXYpOBRs","plus_code":{"compound_code":"8PPP+52 Dublin","global_code":"9C5M8PPP+52"},"price_level":2,"rating":4.5,"reference":"ChIJFZsm758OZ0gRcGdjXYpOBRs","types":["meal_delivery","meal_takeaway","restaurant","food","point_of_interest","establishment"],"user_ratings_total":1435},{"business_status":"OPERATIONAL","formatted_address":"Custom House Square, Unit 2, Burton Hall, Mayor Street Lower, International Financial Services Centre, Dublin 1, D01 W6F2","geometry":{"location":{"lat":53.34962909999999,"lng":-6.2433618},"viewport":{"northeast":{"lat":53.35082177989272,"lng":-6.242039870107277},"southwest":{"lat":53.34812212010728,"lng":-6.244739529892721}}},"icon":"https://maps.gstatic.com/mapfiles/place_api/icons/v1/png_71/restaurant-71.png","icon_background_color":"#FF9E67","icon_mask_base_uri":"https://maps.gstatic.com/mapfiles/place_api/icons/v2/restaurant_pinlet","name":"Musashi IFSC Noodle & Sushi bar","opening_hours":{"open_now":true},"photos":[{"height":4160,"html_attributions":["<a href=\"https://maps.google.com/maps/contrib/107003495395308499841\">Fergus O&#39;Callaghan</a>"],"photo_reference":"AeJbb3cqwZqY5WAOvcXd4BnS1LSf9uF02aw9IbHYUHWn2MJdAyEgkFp8p4HQjjZaGKosxo6PsP1gD0Xbjo9EWnCnNnVI9pC0GEsYZwUDXiltIRxU8RNCzyw7undK77l2vKHHV9X5E2CV8Ax_DFu3DkFqqHzqwpLpxYW1N-SBNcaGEHPWfwU","width":3120}],"place_id":"ChIJFWWY5YwOZ0gR1R9uA9-D-oA","plus_code":{"compound_code":"8QX4+VM Dublin 1","global_code":"9C5M8QX4+VM"},"price_level":2,"rating":4.5,"reference":"ChIJFWWY5YwOZ0gR1R9uA9-D-oA","types":["meal_takeaway","restaurant","food","point_of_interest","establishment"],"user_ratings_total":1286},{"business_status":"OPERATIONAL","formatted_address":"14/15 St Andrew's St, Dublin, D02 HP58","geometry":{"location":{"lat":53.3434829,"lng":-6.2619883},"viewport":{"northeast":{"lat":53.34481932989272,"lng":-6.260560970107278},"southwest":{"lat":53.34211967010728,"lng":-6.263260629892722}}},"icon":"https://maps.gstatic.com/mapfiles/place_api/icons/v1/png_71/restaurant-71.png","icon_background_color":"#FF9E67","icon_mask_base_uri":"https://maps.gstatic.com/mapfiles/place_api/icons/v2/restaurant_pinlet","name":"Red Torch Ginger Dublin 2","opening_hours":{"open_now":false},"photos":[{"height":2818,"html_attributions":["<a href=\"https://maps.google.com/maps/contrib/102447746059810374016\">Red Torch Ginger</a>"],"photo_reference":"AeJbb3cJ_zcx71EiyumVq-ltve5JCg6QI2wHoKBXl3uv62_z3gKrcIQGi10M1WqnMw53W3fT_Z0QR51Ae5z4YjD6lvp7bv10MLXe5LZr6EP5iMyId2Pjnt0Fcfmlx1_0jZS4ffUJJ_2QGFhoHpjaFF-2vMm85MxtTTQlNe3XFEDo8SUpneoi","width":4235}],"place_id":"ChIJW8bMkZwOZ0gRLxYZYCCTis8","plus_code":{"compound_code":"8PVQ+96 Dublin","global_code":"9C5M8PVQ+96"},"price_level":2,"rating":4.5,"reference":"ChIJW8bMkZwOZ0gRLxYZYCCTis8","types":["restaurant","food","point_of_interest","establishment"],"user_ratings_total":1078},{"business_status":"OPERATIONAL","formatted_address":"100 Baggot Street Lower, Dublin, D02 X048","geometry":{"location":{"lat":53.3357481,"lng":-6.247739999999999},"viewport":{"northeast":{"lat":53.33712737989272,"lng":-6.246336920107278},"southwest":{"lat":53.33442772010728,"lng":-6.249036579892722}}},"icon":"https://maps.gstatic.com/mapfiles/place_api/icons/v1/png_71/restaurant-71.png","icon_background_color":"#FF9E67","icon_mask_base_uri":"https://maps.gstatic.com/mapfiles/place_api/icons/v2/restaurant_pinlet","name":"Chai-Yo","opening_hours":{"open_now":false},"photos":[{"height":2340,"html_attributions":["<a href=\"https://maps.google.com/maps/contrib/106354021508246496394\">achilleas floudas</a>"],"photo_reference":"AeJbb3evwOjU2u5WnskC0DwMVz0gw247h6ykK8Thlt5LFrzMWtYOI3DNCYxWbmReLZ2tibxWqIOl8r_fC6u9UJzGS04JPRjBvUv9XeRSodGPASmIyC76N7suUeY-galk9B2-VXAcmVG7NfEUVmq9ClVWe3EyiZmetU-BWfQrWGzrOhGN8V1f","width":4160}],"place_id":"ChIJvy09L5YOZ0gRY6UO1WVPulo","plus_code":{"compound_code":"8QP2+7V Dublin","global_code":"9C5M8QP2+7V"},"price_level":2,"rating":4.5,"reference":"ChIJvy09L5YOZ0gRY6UO1WVPulo","types":["meal_delivery","meal_takeaway","restaurant","food","point_of_interest","establishment"],"user_ratings_total":1066},{"business_status":"OPERATIONAL","formatted_address":"CityArk Aparthotel, Garter Ln, Saggart, Co. Dublin","geometry":{"location":{"lat":53.2860252,"lng":-6.4500283},"viewport":{"northeast":{"lat":53.28739597989272,"lng":-6.448635670107278},"southwest":{"lat":53.28469632010727,"lng":-6.451335329892722}}},"icon":"https://maps.gstatic.com/mapfiles/place_api/icons/v1/png_71/restaurant-71.png","icon_background_color":"#FF9E67","icon_mask_base_uri":"https://maps.gstatic.com/mapfiles/place_api/icons/v2/restaurant_pinlet","name":"Lemongrass Fusion Restaurant Saggart","opening_hours":{"open_now":true},"photos":[{"height":1080,"html_attributions":["<a href=\"https://maps.google.com/maps/contrib/105650372505786875774\">Christopher Karatzinis</a>"],"photo_reference":"AeJbb3cyUWbzQS3pR1f8Ha0CXPIrgJHKz_dbDyX0aU1x91RPQxsqnIy5XsKsv4vtmDrNSPOUKm9FA9TpPlJLGeqTvJz-0Dw-m67o4zGRSEcugSsAH08Qrd_U8s9ig00p-g62ggaL8DbKcTqoGO9NSVWEumW3jrQ8MJmgNQNYsaaaqS5RF9Ye","width":1920}],"place_id":"ChIJMdmpXGt0Z0gR8A3pjv-B4Yc","plus_code":{"compound_code":"7GPX+9X Saggart, County Dublin","global_code":"9C5M7GPX+9X"},"price_level":2,"rating":4.5,"reference":"ChIJMdmpXGt0Z0gR8A3pjv-B4Yc","types":["restaurant","food","point_of_interest","establishment"],"user_ratings_total":1017},{"business_status":"OPERATIONAL","formatted_address":"Apex Business Centre, Blackthorn Rd, Sandyford, Dublin 18, D18 Y6X5","geometry":{"location":{"lat":53.2769924,"lng":-6.218202400000001},"viewport":{"northeast":{"lat":53.27822152989272,"lng":-6.217021170107278},"southwest":{"lat":53.27552187010728,"lng":-6.219720829892722}}},"icon":"https://maps.gstatic.com/mapfiles/place_api/icons/v1/png_71/restaurant-71.png","icon_background_color":"#FF9E67","icon_mask_base_uri":"https://maps.gstatic.com/mapfiles/place_api/icons/v2/restaurant_pinlet","name":"Musashi Sandyford Noodles & Sushi Bar","opening_hours":{"open_now":true},"photos":[{"height":3024,"html_attributions":["<a href=\"https://maps.google.com/maps/contrib/107352339598496622866\">Maryanne Siu</a>"],"photo_reference":"AeJbb3fKHiCNDAhVi8VCTB9yxd9AlWqSQ__qIobu2XKiUk-2vD_IMzjytUoDSLsUj4lRkK6pNNQz-NxSexVSo074SGuUzqLKxhEOc64ycxm7tMQtTBRDgdTjeH-EQkj5cLzR0SvIuTx3vxcylDNMWlOUEGgm1h7IxMUi4K6wqPrh9QZLJ0E","width":4032}],"place_id":"ChIJeYF0-gsJZ0gRIISKhzboG1A","plus_code":{"compound_code":"7QGJ+QP Sandyford, Dublin","global_code":"9C5M7QGJ+QP"},"price_level":2,"rating":4.5,"reference":"ChIJeYF0-gsJZ0gRIISKhzboG1A","types":["restaurant","food","point_of_interest","establishment"],"user_ratings_total":743},{"business_status":"OPERATIONAL","formatted_address":"105 Parnell St, Rotunda, Dublin 1, D01 W448","geometry":{"location":{"lat":53.3536976,"lng":-6.2585362},"viewport":{"northeast":{"lat":53.35506847989272,"lng":-6.257213620107278},"southwest":{"lat":53.35236882010728,"lng":-6.259913279892722}}},"icon":"https://maps.gstatic.com/mapfiles/place_api/icons/v1/png_71/restaurant-71.png","icon_background_color":"#FF9E67","icon_mask_base_uri":"https://maps.gstatic.com/mapfiles/place_api/icons/v2/restaurant_pinlet","name":"Lee's Charming Noodles","opening_hours":{"open_now":true},"photos":[{"height":4032,"html_attributions":["<a href=\"https://maps.google.com/maps/contrib/112505441262388284098\">hdlcleticia</a>"],"photo_reference":"AeJbb3fkKFX4WI1FhEmXlMsv8bRD0NKP-chFFfr9rMO6IKFWU9sQlFhiYWl0YBquacGNOOeIAPJBGesILLOUX4iYCtaG-DkovSEZ3lVdTSsHvW1mAU9ZB6t2dNa4-evnNssqvl01tkh5ens5JMUtaAlVbBDvdDu5FSQ7OfpwR0a84GyA9nTO","width":3024}],"place_id":"ChIJ8WvRTIYOZ0gRhqE2e8sUlsg","plus_code":{"compound_code":"9P3R+FH Dublin 1","global_code":"9C5M9P3R+FH"},"price_level":1,"rating":4.5,"reference":"ChIJ8WvRTIYOZ0gRhqE2e8sUlsg","types":["restaurant","food","point_of_interest","establishment"],"user_ratings_total":547},{"business_status":"OPERATIONAL","formatted_address":"46 Harold's Cross Rd, Harold's Cross, Dublin, D6W NY01","geometry":{"location":{"lat":53.3275545,"lng":-6.2774414},"viewport":{"northeast":{"lat":53.32887422989272,"lng":-6.275993070107278},"southwest":{"lat":53.32617457010727,"lng":-6.278692729892722}}},"icon":"https://maps.gstatic.com/mapfiles/place_api/icons/v1/png_71/cafe-71.png","icon_background_color":"#FF9E67","icon_mask_base_uri":"https://maps.gstatic.com/mapfiles/place_api/icons/v2/cafe_pinlet","name":"HX46","opening_hours":{"open_now":true},"photos":[{"height":4032,"html_attributions":["<a href=\"https://maps.google.com/maps/contrib/106828082042634968406\">Andreína González</a>"],"photo_reference":"AeJbb3dPhDVFSKeEwpTv9zYa8O4AUE1TFg7slGDfB3BumnXii978wbnCO4GYhbUd5o4hypVDIpKEuUcSZgEz8FPQinT9cP4UdpJPqZsnFI8_FYJIiFVpNJUADRhZ4o4PPBFZ0HfcQ9kZ4Y1OBJExdeM3e-WzfbJXqwRMBTCL3dJEGUpW6Jtm","width":3024}],"place_id":"ChIJ-X_bDxoMZ0gRVOMUSMTiNwM","plus_code":{"compound_code":"8PHF+22 Dublin","global_code":"9C5M8PHF+22"},"price_level":1,"rating":4.5,"reference":"ChIJ-X_bDxoMZ0gRVOMUSMTiNwM","types":["cafe","restaurant","food","point_of_interest","establishment"],"user_ratings_total":456},{"business_status":"OPERATIONAL","formatted_address":"33 Charlemont St, Saint Kevin's, Dublin 2","geometry":{"location":{"lat":53.3310115,"lng":-6.261234},"viewport":{"northeast":{"lat":53.33240067989271,"lng":-6.259812620107278},"southwest":{"lat":53.32970102010727,"lng":-6.262512279892722}}},"icon":"https://maps.gstatic.com/mapfiles/place_api/icons/v1/png_71/restaurant-71.png","icon_background_color":"#FF9E67","icon_mask_base_uri":"https://maps.gstatic.com/mapfiles/place_api/icons/v2/restaurant_pinlet","name":"Asahi Asian Street Food","opening_hours":{"open_now":true},"photos":[{"height":3024,"html_attributions":["<a href=\"https://maps.google.com/maps/contrib/105947649555324469677\">Jordan Parker</a>"],"photo_reference":"AeJbb3fI-GvaZ9Wy_5Ib7FSpQ0qTB5oboRlOBiqMul7zaKLZMZNMo0Qypt3JwtdJQ3UuguB4qHr1Q6oQ_4UwSw1aI0Po_YOi-_-RCrSCZ5CstHME52zhU_QMqSoOXlgDXHegHMtZWmt-Gfr8D4yPgEVv1cp05DZtHMsBVKgd3A4VjgsKfbs1","width":4032}],"place_id":"ChIJ50xlHaEOZ0gR8RIzcNCz2Q8","plus_code":{"compound_code":"8PJQ+CG Dublin 2","global_code":"9C5M8PJQ+CG"},"price_level":1,"rating":4.5,"reference":"ChIJ50xlHaEOZ0gR8RIzcNCz2Q8","types":["restaurant","food","point_of_interest","establishment"],"user_ratings_total":447},{"business_status":"OPERATIONAL","formatted_address":"52 William St S, Dublin, D02 PX38","geometry":{"location":{"lat":53.34169319999999,"lng":-6.2627356},"viewport":{"northeast":{"lat":53.34306122989272,"lng":-6.261456820107277},"southwest":{"lat":53.34036157010728,"lng":-6.264156479892721}}},"icon":"https://maps.gstatic.com/mapfiles/place_api/icons/v1/png_71/restaurant-71.png","icon_background_color":"#FF9E67","icon_mask_base_uri":"https://maps.gstatic.com/mapfiles/place_api/icons/v2/restaurant_pinlet","name":"Juanitos","opening_hours":{"open_now":true},"photos":[{"height":3024,"html_attributions":["<a href=\"https://maps.google.com/maps/contrib/117210002501596160547\">Gustavo Bazan</a>"],"photo_reference":"AeJbb3cBa6ap_eVmWgySVkrBeV2jXGeWtUOgIOGMn881uvha3YkzD6eKKq59FQ59NiEATBRWYLduCsmfKj0hVCNQoVBpa44thjEllnneqwQCfRduG8v5DdNBEF7QivEIzjhApf6QQ1Tw_D4iQ4kcEgbm4WJZFbs1FNK1kSyzsWlTU0TEQVbl","width":4032}],"place_id":"ChIJ-bzmD1oPZ0gRx-NM5wUg75I","plus_code":{"compound_code":"8PRP+MV Dublin","global_code":"9C5M8PRP+MV"},"price_level":2,"rating":4.5,"reference":"ChIJ-bzmD1oPZ0gRx-NM5wUg75I","types":["restaurant","food","point_of_interest","establishment"],"user_ratings_total":398},{"business_status":"OPERATIONAL","formatted_address":"4 Willowfield Park, Friarland, Dublin, D14 EY93","geometry":{"location":{"lat":53.2973468,"lng":-6.2334},"viewport":{"northeast":{"lat":53.29861012989272,"lng":-6.232078820107277},"southwest":{"lat":53.29591047010727,"lng":-6.234778479892721}}},"icon":"https://maps.gstatic.com/mapfiles/place_api/icons/v1/png_71/restaurant-71.png","icon_background_color":"#FF9E67","icon_mask_base_uri":"https://maps.gstatic.com/mapfiles/place_api/icons/v2/restaurant_pinlet","name":"HX46 - Goatstown","opening_hours":{"open_now":true},"photos":[{"height":3024,"html_attributions":["<a href=\"https://maps.google.com/maps/contrib/106579515791426096496\">Alison Cruz</a>"],"photo_reference":"AeJbb3ega_NjLVf_-BOsFbyQgCQ88LQxPEXkiTPlsp6iyk3ZodUc38ul4kfmF4ekv3zneliHpLINFhZK2Oulz_dJu-mkWEwSve17F00F8A_sILCwKk2mwxAwidhWbiK0huAabHTKUoWCOen3GvuQLoD4YLoVQMnK-8MkLuARZ5Qbj9sr719U","width":4032}],"place_id":"ChIJbfupJUEJZ0gRIO1tkOh_fvE","plus_code":{"compound_code":"7QW8+WJ Dublin","global_code":"9C5M7QW8+WJ"},"price_level":1,"rating":4.5,"reference":"ChIJbfupJUEJZ0gRIO1tkOh_fvE","types":["cafe","restaurant","food","point_of_interest","establishment"],"user_ratings_total":285},{"business_status":"OPERATIONAL","formatted_address":"83 Sir John Rogerson's Quay, Dublin Docklands, Dublin, D02 E3W6","geometry":{"location":{"lat":53.345461,"lng":-6.231152199999999},"viewport":{"northeast":{"lat":53.34681082989272,"lng":-6.229802370107278},"southwest":{"lat":53.34411117010727,"lng":-6.232502029892721}}},"icon":"https://maps.gstatic.com/mapfiles/place_api/icons/v1/png_71/restaurant-71.png","icon_background_color":"#FF9E67","icon_mask_base_uri":"https://maps.gstatic.com/mapfiles/place_api/icons/v2/restaurant_pinlet","name":"Bites by kwanghi","opening_hours":{"open_now":true},"photos":[{"height":4032,"html_attributions":["<a href=\"https://maps.google.com/maps/contrib/111593001083839790720\">A Google User</a>"],"photo_reference":"AeJbb3dNXPtLAL_D-J5XpszPKc8Ej3zeDoYMSRtU34m1K3LG5a-wjR3CXIcwjerMIp5l66jVhYQJRgvzmrGIDc1OQNAizeYn8sy_sACCxNSCWu8QbOqbDIhm2pH33VeOPom_w1AT5u2sOaKzpCjXFkreHVujSzwyHh1_S9_7Fkh93yBM8Qzh","width":3024}],"place_id":"ChIJkWIuzEsPZ0gRfAiidHKU5Ho","plus_code":{"compound_code":"8QW9+5G Dublin","global_code":"9C5M8QW9+5G"},"rating":4.5,"reference":"ChIJkWIuzEsPZ0gRfAiidHKU5Ho","types":["restaurant","grocery_or_supermarket","bar","store","food","point_of_interest","establishment"],"user_ratings_total":39},{"business_status":"OPERATIONAL","formatted_address":"8 Grattan Cres, Inchicore, Dublin, D08 V670","geometry":{"location":{"lat":53.3395547,"lng":-6.3214342},"viewport":{"northeast":{"lat":53.34091717989271,"lng":-6.319884870107279},"southwest":{"lat":53.33821752010727,"lng":-6.322584529892723}}},"icon":"https://maps.gstatic.com/mapfiles/place_api/icons/v1/png_71/restaurant-71.png","icon_background_color":"#FF9E67","icon_mask_base_uri":"https://maps.gstatic.com/mapfiles/place_api/icons/v2/restaurant_pinlet","name":"Kisoro Sushi & Ramen","opening_hours":{"open_now":true},"photos":[{"height":2252,"html_attributions":["<a href=\"https://maps.google.com/maps/contrib/107720206604266916312\">A Google User</a>"],"photo_reference":"AeJbb3f3r9221h2OvpqaKv_BL-hrWJbPR037RcQqgwrQjR1rfGr9Vl0JnHj8Yy9nWL33BF9WCNAZlXMX9qxqbDnU0ktPwY7qlAWtYenU_5VWf113HMxXiM36QbhG3en3Eqqy5eWn2hji8r4EUDK8WMVWMnyfs-brHIaXxOhzhXdHstoMycY2","width":4000}],"place_id":"ChIJiVs4bRINZ0gRHzHoVCJnJas","plus_code":{"compound_code":"8MQH+RC Dublin","global_code":"9C5M8MQH+RC"},"rating":4.5,"reference":"ChIJiVs4bRINZ0gRHzHoVCJnJas","types":["restaurant","food","point_of_interest","establishment"],"user_ratings_total":24},{"business_status":"OPERATIONAL","formatted_address":"72 South Great George's Street, Dublin, D02 EC94","geometry":{"location":{"lat":53.3428365,"lng":-6.2646734},"viewport":{"northeast":{"lat":53.34418077989272,"lng":-6.263204470107278},"southwest":{"lat":53.34148112010728,"lng":-6.265904129892721}}},"icon":"https://maps.gstatic.com/mapfiles/place_api/icons/v1/png_71/restaurant-71.png","icon_background_color":"#FF9E67","icon_mask_base_uri":"https://maps.gstatic.com/mapfiles/place_api/icons/v2/restaurant_pinlet","name":"Yamamori South City","opening_hours":{"open_now":true},"photos":[{"height":3024,"html_attributions":["<a href=\"https://maps.google.com/maps/contrib/101960610139012878000\">A Google User</a>"],"photo_reference":"AeJbb3cYhO5SRihATeDZuls47o68puZ0UcVDr_jbLSwDZ8_XEq37C5pFIDDKRS_lYBa6wPTtwbzt2nprsDA5R86VtukxaZb-_xVcCgyyUSUnPvDVIpz8F4Qu9-9rLGEcwzdK3CgUWmKjOEcSqBZfPM2aCFybTQmQ1Up_A2T0zNLmBdma6Oui","width":4032}],"place_id":"ChIJb5lJAZ0OZ0gRfEeZUhIwc24","plus_code":{"compound_code":"8PVP+44 Dublin","global_code":"9C5M8PVP+44"},"price_level":2,"rating":4.4,"reference":"ChIJb5lJAZ0OZ0gRfEeZUhIwc24","types":["bar","restaurant","food","point_of_interest","establishment"],"user_ratings_total":2440},{"business_status":"OPERATIONAL","formatted_address":"6/7 Jervis St, Millennium Walkway, North City, Dublin 1","geometry":{"location":{"lat":53.34744629999999,"lng":-6.2655718},"viewport":{"northeast":{"lat":53.34870422989272,"lng":-6.264117420107278},"southwest":{"lat":53.34600457010728,"lng":-6.266817079892722}}},"icon":"https://maps.gstatic.com/mapfiles/place_api/icons/v1/png_71/restaurant-71.png","icon_background_color":"#FF9E67","icon_mask_base_uri":"https://maps.gstatic.com/mapfiles/place_api/icons/v2/restaurant_pinlet","name":"Koh Restaurant & Cocktail Lounge","opening_hours":{"open_now":true},"photos":[{"height":3024,"html_attributions":["<a href=\"https://maps.google.com/maps/contrib/101932095789631383978\">Ryan Motah</a>"],"photo_reference":"AeJbb3ezlGSMocdFMADCSQNbp8FX6NWo0_BaIMz_cS2Q-DLVsNPfEKonyDmJsasAmRpxsamt7bhvev0Jy0Ugz2fmnQMMQlxZxyH9IZUkQ7IHCTboGuqFQL6LWUSEJOU86U-yNlU4FVX5pLG-WvuJ50K560nDFaoSjjKyZP65ag9229nfpwqx","width":4032}],"place_id":"ChIJ-Tf6_IIOZ0gR4WvW49ZFp8I","plus_code":{"compound_code":"8PWM+XQ Dublin 1","global_code":"9C5M8PWM+XQ"},"price_level":2,"rating":4.4,"reference":"ChIJ-Tf6_IIOZ0gR4WvW49ZFp8I","types":["bar","restaurant","food","point_of_interest","establishment"],"user_ratings_total":805},{"business_status":"OPERATIONAL","formatted_address":"CSB 2.1, Dundrum Town Centre, Dublin 14","geometry":{"location":{"lat":53.2878833,"lng":-6.2433456},"viewport":{"northeast":{"lat":53.28913307989273,"lng":-6.242302820107278},"southwest":{"lat":53.28643342010729,"lng":-6.245002479892722}}},"icon":"https://maps.gstatic.com/mapfiles/place_api/icons/v1/png_71/restaurant-71.png","icon_background_color":"#FF9E67","icon_mask_base_uri":"https://maps.gstatic.com/mapfiles/place_api/icons/v2/restaurant_pinlet","name":"Siam Thai","opening_hours":{"open_now":true},"photos":[{"height":1080,"html_attributions":["<a href=\"https://maps.google.com/maps/contrib/113750008065677918825\">Tom O&#39;Brien</a>"],"photo_reference":"AeJbb3cAmH9DDQa9wjW_exJGgTsMKXTJ3xxNbTp-Hn3c6YCRHQ64JRB_5XJRjjS8EY2FRy_DxuaKHmI2rF902V1utH14q2DnGdgvGhKbPUMlP4bvmnKOKPb8wBnXyuACMCD-LlY9wvjm3J09_YnSfaEzi09OO0TW-AbNPoxcoKgxPj908ZQ","width":1920}],"place_id":"ChIJTTybaGYJZ0gRC4z8cSsU4f0","plus_code":{"compound_code":"7QQ4+5M Dublin","global_code":"9C5M7QQ4+5M"},"price_level":2,"rating":4.4,"reference":"ChIJTTybaGYJZ0gRC4z8cSsU4f0","types":["restaurant","food","point_of_interest","establishment"],"user_ratings_total":775},{"business_status":"OPERATIONAL","formatted_address":"22 Baggot Street Upper, Dublin 4, D04 W5R2","geometry":{"location":{"lat":53.3335946,"lng":-6.243739199999999},"viewport":{"northeast":{"lat":53.33483367989272,"lng":-6.242497920107277},"southwest":{"lat":53.33213402010728,"lng":-6.245197579892721}}},"icon":"https://maps.gstatic.com/mapfiles/place_api/icons/v1/png_71/restaurant-71.png","icon_background_color":"#FF9E67","icon_mask_base_uri":"https://maps.gstatic.com/mapfiles/place_api/icons/v2/restaurant_pinlet","name":"Saba","opening_hours":{"open_now":true},"photos":[{"height":3024,"html_attributions":["<a href=\"https://maps.google.com/maps/contrib/110987042903908227358\">heikola2000</a>"],"photo_reference":"AeJbb3eR3UO3pTEUTr-rtRLhEfcdnpzTUdMo3ajuMzlD5RTROovlDCVGp8j4HVK304YhGjqjezYyhOakVKnoiIjLLlq7-wT-6GlwHkHCSo_SLfe-a1XwZaV_nv-6FBAhygYxpsFBb-cCZf3RCBokt0s9Pfud-X2QprLglxkLPIwekwsQgfdU","width":4032}],"place_id":"ChIJuYYVcL4OZ0gRquFAyUVV94U","plus_code":{"compound_code":"8QM4+CF Dublin 4","global_code":"9C5M8QM4+CF"},"price_level":2,"rating":4.4,"reference":"ChIJuYYVcL4OZ0gRquFAyUVV94U","types":["meal_takeaway","bar","restaurant","food","point_of_interest","establishment"],"user_ratings_total":630},{"business_status":"OPERATIONAL","formatted_address":"74 Ashtown Rd, Ashtown, Dublin 15, D15 FYP5","geometry":{"location":{"lat":53.3759027,"lng":-6.3321282},"viewport":{"northeast":{"lat":53.37722042989272,"lng":-6.331140670107278},"southwest":{"lat":53.37452077010727,"lng":-6.333840329892721}}},"icon":"https://maps.gstatic.com/mapfiles/place_api/icons/v1/png_71/restaurant-71.png","icon_background_color":"#FF9E67","icon_mask_base_uri":"https://maps.gstatic.com/mapfiles/place_api/icons/v2/restaurant_pinlet","name":"Geisha Asian Restaurant","opening_hours":{"open_now":false},"photos":[{"height":3480,"html_attributions":["<a href=\"https://maps.google.com/maps/contrib/115763981590332257530\">Oksana Vinkarklina</a>"],"photo_reference":"AeJbb3e1HDslr38qcOf5wC99hKkoo8aI3_sGBjyMgkcz19efXHBFjvT-1w1hk8xLJHujGnmVoMwCHfmpt8J5FEAx6EnUIkJ3lc6_aLDnDYc6VsUIBOXpMeG5L0_DJSCd_C2BfhXsQRjtQ-2gbsDvw9h9n6KSx_Fk30XLL6cp8rINDsIuZNju","width":4640}],"place_id":"ChIJP0H7ZHUNZ0gRBJbGjxTnd80","plus_code":{"compound_code":"9MG9+94 Ashtown, Dublin","global_code":"9C5M9MG9+94"},"price_level":2,"rating":4.4,"reference":"ChIJP0H7ZHUNZ0gRBJbGjxTnd80","types":["restaurant","food","point_of_interest","establishment"],"user_ratings_total":319},{"business_status":"OPERATIONAL","formatted_address":"17 Ballsbridge Terrace, Dublin 4","geometry":{"location":{"lat":53.3291936,"lng":-6.2319949},"viewport":{"northeast":{"lat":53.33053972989272,"lng":-6.230565470107278},"southwest":{"lat":53.32784007010727,"lng":-6.233265129892722}}},"icon":"https://maps.gstatic.com/mapfiles/place_api/icons/v1/png_71/restaurant-71.png","icon_background_color":"#FF9E67","icon_mask_base_uri":"https://maps.gstatic.com/mapfiles/place_api/icons/v2/restaurant_pinlet","name":"Kites Chinese Restaurant","opening_hours":{"open_now":false},"photos":[{"height":3744,"html_attributions":["<a href=\"https://maps.google.com/maps/contrib/111994357090119641468\">Kites</a>"],"photo_reference":"AeJbb3eGUpE_JPf2SyvGLKCpGhETEu2aVyp6cCoQpSI3WS5-1839ZYR0cnUByk7wxhaYBav0Kq-J-8UIFPn8LBqXDRBV771L7KcXf9MELzFk7ixqwoGdZAuY8LSjuucuMSr40IU7RooRB9Bk5vbUVEuowlI5WZvjL3b6rPwNZgz3y3WtJCKl","width":5616}],"place_id":"ChIJR_ZbaTIJZ0gRwk7tqKidh-0","plus_code":{"compound_code":"8QH9+M6 Dublin 4","global_code":"9C5M8QH9+M6"},"price_level":2,"rating":4.4,"reference":"ChIJR_ZbaTIJZ0gRwk7tqKidh-0","types":["restaurant","food","point_of_interest","establishment"],"user_ratings_total":227},{"business_status":"OPERATIONAL","formatted_address":"14A Malahide Rd, Clontarf, Dublin, D03 PC97","geometry":{"location":{"lat":53.36541219999999,"lng":-6.228916799999999},"viewport":{"northeast":{"lat":53.36678102989273,"lng":-6.227674970107278},"southwest":{"lat":53.36408137010728,"lng":-6.230374629892722}}},"icon":"https://maps.gstatic.com/mapfiles/place_api/icons/v1/png_71/restaurant-71.png","icon_background_color":"#FF9E67","icon_mask_base_uri":"https://maps.gstatic.com/mapfiles/place_api/icons/v2/restaurant_pinlet","name":"Hasu Japanese & Thai","opening_hours":{"open_now":true},"photos":[{"height":1080,"html_attributions":["<a href=\"https://maps.google.com/maps/contrib/116486327427515846896\">Xiaoli Zeng</a>"],"photo_reference":"AeJbb3diOwLFKm786ddVOcdu9ZgqSyc3Cj26saSKKKG-AjftTPgUl8t-dBXkuJyvFJaln6EF9URheS1YGHS5swF2hcal5bLnYrzXZmZmp0waWLkkYbVVC2ZhpIDy1mN2AmpX-Jk9zXAzh8_HUKypBEOd0CRdRGcBzTSucnISppnzl_aFge1Q","width":1440}],"place_id":"ChIJTyyLUGgPZ0gRklwb1G2hID0","plus_code":{"compound_code":"9Q8C+5C Dublin","global_code":"9C5M9Q8C+5C"},"price_level":2,"rating":4.4,"reference":"ChIJTyyLUGgPZ0gRklwb1G2hID0","types":["meal_delivery","meal_takeaway","restaurant","food","point_of_interest","establishment"],"user_ratings_total":171},{"business_status":"OPERATIONAL","formatted_address":"23 Main St, Blackrock, Co. Dublin, A94 V4A6","geometry":{"location":{"lat":53.3012776,"lng":-6.177529},"viewport":{"northeast":{"lat":53.30265717989272,"lng":-6.176100520107278},"southwest":{"lat":53.29995752010727,"lng":-6.178800179892722}}},"icon":"https://maps.gstatic.com/mapfiles/place_api/icons/v1/png_71/restaurant-71.png","icon_background_color":"#FF9E67","icon_mask_base_uri":"https://maps.gstatic.com/mapfiles/place_api/icons/v2/restaurant_pinlet","name":"Kings Sushi & Asian Fusion","opening_hours":{"open_now":true},"photos":[{"height":3480,"html_attributions":["<a href=\"https://maps.google.com/maps/contrib/111730070249472938382\">oanh pham</a>"],"photo_reference":"AeJbb3f7HwDQK4oZhNBltpBLEen9zYTGVhWGy0ynNMKC-BZeNnUu-CLdkNOYGFuOEquG0nMlnOJzDHdo8E5uzQt6oy_nz-O8o2ZtAFf8wbXReRiZCIAeVi0hSXLWjy4_oIeJ2j3gsOMqmye2OErG9hKJx4fs8yQbbhA3ju9Hbh-m3IqUOzmD","width":4640}],"place_id":"ChIJG295KscIZ0gRE0hzwUBqd7E","plus_code":{"compound_code":"8R2C+GX Blackrock, County Dublin","global_code":"9C5M8R2C+GX"},"price_level":1,"rating":4.4,"reference":"ChIJG295KscIZ0gRE0hzwUBqd7E","types":["meal_takeaway","restaurant","food","point_of_interest","establishment"],"user_ratings_total":100},{"business_status":"OPERATIONAL","formatted_address":"14 Drumcondra Rd Upper, Drumcondra, Dublin, D09 K6C1","geometry":{"location":{"lat":53.3691958,"lng":-6.254282},"viewport":{"northeast":{"lat":53.37058267989273,"lng":-6.253092420107278},"southwest":{"lat":53.36788302010729,"lng":-6.255792079892722}}},"icon":"https://maps.gstatic.com/mapfiles/place_api/icons/v1/png_71/restaurant-71.png","icon_background_color":"#FF9E67","icon_mask_base_uri":"https://maps.gstatic.com/mapfiles/place_api/icons/v2/restaurant_pinlet","name":"Yummy Oriental","opening_hours":{"open_now":true},"photos":[{"height":2736,"html_attributions":["<a href=\"https://maps.google.com/maps/contrib/103743145522876559896\">Adam Bartoń</a>"],"photo_reference":"AeJbb3cfXz-2ZH5NA9FMFGKvErizifM6dnQjz7wlFXySEsI0Yh_AcPiB3lS3DVYGyzWie9iDQvi1MEXNr5Rrly-brJDPeU97SBNJU3qI78i3Q9QTTLbaFO-mjkv1YbXCvPazDy51Jdmz-egpQGjAXO3yw1oUm2muLKJVKibNr3HTVCacNyTy","width":3648}],"place_id":"ChIJQxSUOlkPZ0gRwSQ1Q0wpXu4","plus_code":{"compound_code":"9P9W+M7 Dublin","global_code":"9C5M9P9W+M7"},"rating":4.4,"reference":"ChIJQxSUOlkPZ0gRwSQ1Q0wpXu4","types":["restaurant","meal_takeaway","food","point_of_interest","establishment"],"user_ratings_total":76},{"business_status":"OPERATIONAL","formatted_address":"28 Anne St S, Dublin, D02 DX39","geometry":{"location":{"lat":53.34103349999999,"lng":-6.2597141},"viewport":{"northeast":{"lat":53.34243062989272,"lng":-6.258255620107279},"southwest":{"lat":53.33973097010728,"lng":-6.260955279892722}}},"icon":"https://maps.gstatic.com/mapfiles/place_api/icons/v1/png_71/restaurant-71.png","icon_background_color":"#FF9E67","icon_mask_base_uri":"https://maps.gstatic.com/mapfiles/place_api/icons/v2/restaurant_pinlet","name":"Xian Street Food Dublin","opening_hours":{"open_now":true},"photos":[{"height":4032,"html_attributions":["<a href=\"https://maps.google.com/maps/contrib/104177590327987857359\">Aliya Ali</a>"],"photo_reference":"AeJbb3eLCX2Ro0O8peOHaMpDshf-69ctMDzLXwfIeIhFWf0SMPnMTIJWyyifXwnc09byqxQj-yOcbsPwdC0KVb64ddgosD1HJNOXYrBsfDKHWqqQU-GZBj8mdpI23X3ksxIHIACNY3aAOOwvUcMTyF2Hiu4uVoYCXSS7rYkpscIK8lOSdbwC","width":3024}],"place_id":"ChIJcRZTRaMPZ0gReVX6xr51SQM","plus_code":{"compound_code":"8PRR+C4 Dublin","global_code":"9C5M8PRR+C4"},"price_level":2,"rating":4.3,"reference":"ChIJcRZTRaMPZ0gReVX6xr51SQM","types":["restaurant","food","point_of_interest","establishment"],"user_ratings_total":1119},{"business_status":"OPERATIONAL","formatted_address":"D01 K8K3, County Dublin, Dublin 1, Cathedral St, IE","geometry":{"location":{"lat":53.35062989999999,"lng":-6.2595284},"viewport":{"northeast":{"lat":53.35192172989272,"lng":-6.258324370107278},"southwest":{"lat":53.34922207010727,"lng":-6.261024029892722}}},"icon":"https://maps.gstatic.com/mapfiles/place_api/icons/v1/png_71/restaurant-71.png","icon_background_color":"#FF9E67","icon_mask_base_uri":"https://maps.gstatic.com/mapfiles/place_api/icons/v2/restaurant_pinlet","name":"M&L Szechuan Chinese","opening_hours":{"open_now":true},"photos":[{"height":1536,"html_attributions":["<a href=\"https://maps.google.com/maps/contrib/108776923045589751541\">angie Wang</a>"],"photo_reference":"AeJbb3fxyIvItRGT2PIGgQfV2BytVSA5N1Qx5HmR9Njv501Y2THAHLdDc6lRdan_kEN7Q6GjU3xnh7_k0kNoYQXQIDMakmXrv_AEoI4xXKiT2-faWG-mxqu6uS3Lse2IMa0WdL1MWZoEJuhwzLDvqOFCQfOnl02ePQhiH275Pn_Oao5w6fty","width":2048}],"place_id":"ChIJYXiyLoQOZ0gRWpbfNReD6K8","plus_code":{"compound_code":"9P2R+75 Dublin 1","global_code":"9C5M9P2R+75"},"price_level":1,"rating":4.3,"reference":"ChIJYXiyLoQOZ0gRWpbfNReD6K8","types":["restaurant","food","point_of_interest","establishment"],"user_ratings_total":966},{"business_status":"OPERATIONAL","formatted_address":"7 William St S, Dublin 2, D02 CV65","geometry":{"location":{"lat":53.34272470000001,"lng":-6.2622943},"viewport":{"northeast":{"lat":53.34405957989273,"lng":-6.260884420107278},"southwest":{"lat":53.34135992010728,"lng":-6.263584079892722}}},"icon":"https://maps.gstatic.com/mapfiles/place_api/icons/v1/png_71/restaurant-71.png","icon_background_color":"#FF9E67","icon_mask_base_uri":"https://maps.gstatic.com/mapfiles/place_api/icons/v2/restaurant_pinlet","name":"Saba Restaurant","opening_hours":{"open_now":true},"photos":[{"height":3024,"html_attributions":["<a href=\"https://maps.google.com/maps/contrib/114107276056571928352\">Srivatsa .M.V</a>"],"photo_reference":"AeJbb3fzPm2fyJpHY2LwNTQcaSs5BN4EcPtp6OqseerE638Zztp5WVtaAOT0PDDgKpYeEFNNKCaLJQmiApeb8qNSsnGmlPHZMA20V3kJoy00U7TaqdS1ivBAW9fIEcuI9SklIX0L7hrOn8LDrShbhMb27iFUuM17MbsZaq79M1DyITO6qsni","width":4032}],"place_id":"ChIJTUEea5wOZ0gRqQUO01ziNtE","plus_code":{"compound_code":"8PVQ+33 Dublin","global_code":"9C5M8PVQ+33"},"price_level":2,"rating":4.3,"reference":"ChIJTUEea5wOZ0gRqQUO01ziNtE","types":["meal_takeaway","bar","restaurant","food","point_of_interest","establishment"],"user_ratings_total":906},{"business_status":"OPERATIONAL","formatted_address":"1 N Lotts, North City, Dublin 1, D01 K8N3","geometry":{"location":{"lat":53.3474237,"lng":-6.2629624},"viewport":{"northeast":{"lat":53.34875347989271,"lng":-6.261600270107278},"southwest":{"lat":53.34605382010727,"lng":-6.264299929892722}}},"icon":"https://maps.gstatic.com/mapfiles/place_api/icons/v1/png_71/restaurant-71.png","icon_background_color":"#FF9E67","icon_mask_base_uri":"https://maps.gstatic.com/mapfiles/place_api/icons/v2/restaurant_pinlet","name":"Fusion Brazilian Grill","opening_hours":{"open_now":true},"photos":[{"height":3024,"html_attributions":["<a href=\"https://maps.google.com/maps/contrib/105322191479183021676\">Pitagorani</a>"],"photo_reference":"AeJbb3f0jlyK2c92LJEOMc6PYXSeDAjLx9INldYTfHOgs56sZuR3IT0QB9gpVYs_oKkWDIuL3ELoTwQuUZ8npyLrreTb-NsIv1332sWZyfd5az-YjqgICe_G9l_1m2aP1pGdktAv1Fe2AOVrr14ZtO_v6K8QgzOUjkJgRFYvxm8h9r_uq-U","width":4032}],"place_id":"ChIJubU1cIMOZ0gROQmA4OaLpYE","plus_code":{"compound_code":"8PWP+XR Dublin 1","global_code":"9C5M8PWP+XR"},"price_level":1,"rating":4.2,"reference":"ChIJubU1cIMOZ0gROQmA4OaLpYE","types":["restaurant","food","point_of_interest","establishment"],"user_ratings_total":867},{"business_status":"OPERATIONAL","formatted_address":"7-9 Exchequer St, Dublin 2, D02 P998","geometry":{"location":{"lat":53.3431096,"lng":-6.2636096},"viewport":{"northeast":{"lat":53.34450317989273,"lng":-6.262287920107279},"southwest":{"lat":53.34180352010728,"lng":-6.264987579892723}}},"icon":"https://maps.gstatic.com/mapfiles/place_api/icons/v1/png_71/restaurant-71.png","icon_background_color":"#FF9E67","icon_mask_base_uri":"https://maps.gstatic.com/mapfiles/place_api/icons/v2/restaurant_pinlet","name":"UKIYO Restaurant & Late Bar","opening_hours":{"open_now":true},"photos":[{"height":1728,"html_attributions":["<a href=\"https://maps.google.com/maps/contrib/108833800163994955901\">Ukiyo Bar</a>"],"photo_reference":"AeJbb3eDzxPZpTox4DmxsuOm1LhW2gduWgujkD-7UHKL69zCw32m3gn6DBPQtIc_c-Qp-zc7nZ2s6WuSXndRYD4ywLD4Q4R1ZKQKiSo6bY_9zWJzew8GgXdEOogrwmFXtnF77nsgAwRfwgnyPG8zisB5FRfaoRnS2Rvdf-uBjqgXoSM1lCSR","width":2592}],"place_id":"ChIJfddV-pwOZ0gRugRdkQte6Jk","plus_code":{"compound_code":"8PVP+6H Dublin","global_code":"9C5M8PVP+6H"},"price_level":2,"rating":4.2,"reference":"ChIJfddV-pwOZ0gRugRdkQte6Jk","types":["restaurant","food","point_of_interest","establishment"],"user_ratings_total":815},{"business_status":"OPERATIONAL","formatted_address":"G1, Pembroke District, Dundrum, Dublin 16","geometry":{"location":{"lat":53.2884258,"lng":-6.2439724},"viewport":{"northeast":{"lat":53.28977562989272,"lng":-6.242622570107279},"southwest":{"lat":53.28707597010728,"lng":-6.245322229892722}}},"icon":"https://maps.gstatic.com/mapfiles/place_api/icons/v1/png_71/restaurant-71.png","icon_background_color":"#FF9E67","icon_mask_base_uri":"https://maps.gstatic.com/mapfiles/place_api/icons/v2/restaurant_pinlet","name":"Wagamama","opening_hours":{"open_now":true},"photos":[{"height":2988,"html_attributions":["<a href=\"https://maps.google.com/maps/contrib/100790856670092634292\">Maurice Thomas</a>"],"photo_reference":"AeJbb3c3j4jvUgvUAnQTdN7yxnIg8QLP-95ZT4lsd2IOP_Q0kMXBpe5WLZ24qQUUQ3vXh9VHjeeInaxyf0fRNKqdmtDNXKhoRkZ-Od6G5aiyJ7gF_qGKNJoRBh_lCkFuz1IJrLzJq5B4ce86OkY1M93bNABbgB4ausIufFOzaA624TZsSIbQ","width":5312}],"place_id":"ChIJYRavmnMJZ0gRkvXcQeFKewc","plus_code":{"compound_code":"7QQ4+9C Dublin 16","global_code":"9C5M7QQ4+9C"},"price_level":2,"rating":4.2,"reference":"ChIJYRavmnMJZ0gRkvXcQeFKewc","types":["restaurant","food","point_of_interest","establishment"],"user_ratings_total":688},{"business_status":"OPERATIONAL","formatted_address":"65 Dame St, Temple Bar, Dublin, D02 H022","geometry":{"location":{"lat":53.3442807,"lng":-6.2654432},"viewport":{"northeast":{"lat":53.34558352989272,"lng":-6.264093120107278},"southwest":{"lat":53.34288387010728,"lng":-6.266792779892722}}},"icon":"https://maps.gstatic.com/mapfiles/place_api/icons/v1/png_71/restaurant-71.png","icon_background_color":"#FF9E67","icon_mask_base_uri":"https://maps.gstatic.com/mapfiles/place_api/icons/v2/restaurant_pinlet","name":"Ming Tang Korean Restaurant","opening_hours":{"open_now":true},"photos":[{"height":3024,"html_attributions":["<a href=\"https://maps.google.com/maps/contrib/100975011846510016102\">A Google User</a>"],"photo_reference":"AeJbb3fRQRaqd5c3mLHfRrJ_33E2efsEVe6ycJedomYSrDDpJIk53uTEwPMihK5xfumQaWtWqwV9aaLi4Jy2_YmhhwIdVHu82x19tnPACY7ugQBqf-4xebN5zjohNn-xXYb2UotdLehK83L98DD2htbxBPhbDzDPOCDxadjwsmkvKejX8p3Q","width":4032}],"place_id":"ChIJs8k1O50OZ0gRK-vwLjs_a6E","plus_code":{"compound_code":"8PVM+PR Dublin","global_code":"9C5M8PVM+PR"},"price_level":1,"rating":4.2,"reference":"ChIJs8k1O50OZ0gRK-vwLjs_a6E","types":["restaurant","food","point_of_interest","establishment"],"user_ratings_total":644},{"business_status":"OPERATIONAL","formatted_address":"12 Patrick St, Dún Laoghaire, Dublin, A96 RR80","geometry":{"location":{"lat":53.29181,"lng":-6.137072},"viewport":{"northeast":{"lat":53.29313462989272,"lng":-6.135660620107278},"southwest":{"lat":53.29043497010728,"lng":-6.138360279892722}}},"icon":"https://maps.gstatic.com/mapfiles/place_api/icons/v1/png_71/restaurant-71.png","icon_background_color":"#FF9E67","icon_mask_base_uri":"https://maps.gstatic.com/mapfiles/place_api/icons/v2/restaurant_pinlet","name":"Kyoto Asian Street Food","opening_hours":{"open_now":true},"photos":[{"height":3122,"html_attributions":["<a href=\"https://maps.google.com/maps/contrib/103135658412967688822\">Frank Burgess</a>"],"photo_reference":"AeJbb3dbPaxPTo8uvaUpygNGxMSB92b_WrlkZt2sUPlceBnBNjCcrC8-V4wLxawtqb4cmDd4BaOWyaW_k6eygBAqF8jPmG_DF1qm-0QNWuUJU7UTn1ZveK091R9L8L4KoKigpGQ215npEoySOWqrdtjApu9QztNAeeZrNnJPQRPjNeu-xmqX","width":4164}],"place_id":"ChIJiXZRqCYGZ0gRrO1sIOMJy9M","plus_code":{"compound_code":"7VR7+P5 Dublin","global_code":"9C5M7VR7+P5"},"price_level":1,"rating":4.2,"reference":"ChIJiXZRqCYGZ0gRrO1sIOMJy9M","types":["restaurant","food","point_of_interest","establishment"],"user_ratings_total":376},{"business_status":"OPERATIONAL","formatted_address":"Unit 5, Boroimhe Shopping Centre, Fosterstown North, Swords, Co. Dublin","geometry":{"location":{"lat":53.4465387,"lng":-6.237327199999999},"viewport":{"northeast":{"lat":53.44793007989272,"lng":-6.235891720107278},"southwest":{"lat":53.44523042010728,"lng":-6.238591379892722}}},"icon":"https://maps.gstatic.com/mapfiles/place_api/icons/v1/png_71/restaurant-71.png","icon_background_color":"#FF9E67","icon_mask_base_uri":"https://maps.gstatic.com/mapfiles/place_api/icons/v2/restaurant_pinlet","name":"Thaima Asian Cuisine","opening_hours":{"open_now":false},"photos":[{"height":1920,"html_attributions":["<a href=\"https://maps.google.com/maps/contrib/102345932718268348691\">silesilesile</a>"],"photo_reference":"AeJbb3dZJ_7b_IWyVEwFZSZbZsEfK3AaKjBDfN0HkrkiP2XJbqXLgM_jab3299qpD82oLCBF8MJ1Rx2-3jLlEMkjfFsNxGktvlHnuu368j1_oTiWIjsn_oZhh0vHMrMihEXnFpoFGdGwwfY8oi6KLX1Y_49QgL69CI6cjGhvU7fd0uDqL5xO","width":1080}],"place_id":"ChIJAQDcTgARZ0gRrqM135137-0","plus_code":{"compound_code":"CQW7+J3 Swords, County Dublin","global_code":"9C5MCQW7+J3"},"price_level":2,"rating":4.2,"reference":"ChIJAQDcTgARZ0gRrqM135137-0","types":["meal_takeaway","restaurant","food","point_of_interest","establishment"],"user_ratings_total":135},{"business_status":"OPERATIONAL","formatted_address":"6 Main St, Townparks, Swords, Co. Dublin, K67 P211","geometry":{"location":{"lat":53.4590019,"lng":-6.2204298},"viewport":{"northeast":{"lat":53.46031397989272,"lng":-6.218911120107278},"southwest":{"lat":53.45761432010728,"lng":-6.221610779892722}}},"icon":"https://maps.gstatic.com/mapfiles/place_api/icons/v1/png_71/restaurant-71.png","icon_background_color":"#FF9E67","icon_mask_base_uri":"https://maps.gstatic.com/mapfiles/place_api/icons/v2/restaurant_pinlet","name":"Tuk Tuk Asian Fusion","opening_hours":{"open_now":false},"photos":[{"height":3024,"html_attributions":["<a href=\"https://maps.google.com/maps/contrib/108160386284243964154\">Natthawut Khuhathong</a>"],"photo_reference":"AeJbb3fPCluH3vwaB3sQXXdQiHGkW-dTe8gE4bMDH9EFqXM_ofYE_exem958-pdPP5T0_AoDxWPkbm_Cutz3r8Bbnq7XtNQTDTbt8ChhS1yAItf9mXv7g0YaseLN5IFuoDTMe3ktA9uKt2WNZdA8f647ylpBCr1Itm3egvhQmw4ne4QbFO4","width":4032}],"place_id":"ChIJb9dCS_QRZ0gRNwqZDI1Lu6k","plus_code":{"compound_code":"FQ5H+JR Swords, County Dublin","global_code":"9C5MFQ5H+JR"},"rating":4.2,"reference":"ChIJb9dCS_QRZ0gRNwqZDI1Lu6k","types":["meal_takeaway","restaurant","food","point_of_interest","establishment"],"user_ratings_total":44},{"business_status":"OPERATIONAL","formatted_address":"Unit 4B, Stephen's Green Shopping Centre, King St S, Dublin 2","geometry":{"location":{"lat":53.3402875,"lng":-6.262452499999999},"viewport":{"northeast":{"lat":53.34178432989272,"lng":-6.261213470107278},"southwest":{"lat":53.33908467010728,"lng":-6.263913129892722}}},"icon":"https://maps.gstatic.com/mapfiles/place_api/icons/v1/png_71/restaurant-71.png","icon_background_color":"#FF9E67","icon_mask_base_uri":"https://maps.gstatic.com/mapfiles/place_api/icons/v2/restaurant_pinlet","name":"Wagamama","opening_hours":{"open_now":true},"photos":[{"height":2333,"html_attributions":["<a href=\"https://maps.google.com/maps/contrib/105631706675767639611\">Henry Daly</a>"],"photo_reference":"AeJbb3fx5rSbu4VkJbmRO5XzRgd4rbHzYBpYcXMUEr4jbgqMB90SXs92s37WeKuk7K940YdBUHVjniduRWL78eW8PF4hR6_ezkG3Z6H-H4uRb05E9Hce39g8cpmYoiMv_Ugd8tdSWJpBLlwcIM-R9daBSs0dr5PXZRXzw5niOPsqzt_JcU1R","width":3500}],"place_id":"ChIJnRXuLZwOZ0gRCWPNPPoOGzU","plus_code":{"compound_code":"8PRQ+42 Dublin 2","global_code":"9C5M8PRQ+42"},"price_level":2,"rating":4.1,"reference":"ChIJnRXuLZwOZ0gRCWPNPPoOGzU","types":["restaurant","food","point_of_interest","establishment"],"user_ratings_total":1314},{"business_status":"OPERATIONAL","formatted_address":"Excise Walk, International Financial Services Centre, Dublin 1, D01 X4C9","geometry":{"location":{"lat":53.3480107,"lng":-6.243399699999999},"viewport":{"northeast":{"lat":53.34926327989272,"lng":-6.242208570107278},"southwest":{"lat":53.34656362010728,"lng":-6.244908229892721}}},"icon":"https://maps.gstatic.com/mapfiles/place_api/icons/v1/png_71/restaurant-71.png","icon_background_color":"#FF9E67","icon_mask_base_uri":"https://maps.gstatic.com/mapfiles/place_api/icons/v2/restaurant_pinlet","name":"East Restaurant","opening_hours":{"open_now":true},"photos":[{"height":720,"html_attributions":["<a href=\"https://maps.google.com/maps/contrib/117734452518429092967\">East Restaurant</a>"],"photo_reference":"AeJbb3cL7qmUY5Sg_61LruTirbKJgQY92sM0VyjNLwdolBTa_99UGXcXSgob4DEeHRog_kbviYX-yc88_QRHNm-P1GnYvn4FvfISTiovn3-IpXwnKThLYz_zBICK8AP3m8lvn-gey9-UXkGOC0XlJh5mynjjiEoBgeE1VMza6rBr_d-DC24r","width":1280}],"place_id":"ChIJ3XA1DI0OZ0gRbJ4xKXmmRhU","plus_code":{"compound_code":"8QX4+6J Dublin 1","global_code":"9C5M8QX4+6J"},"rating":4.1,"reference":"ChIJ3XA1DI0OZ0gRbJ4xKXmmRhU","types":["restaurant","food","point_of_interest","establishment"],"user_ratings_total":137},{"business_status":"OPERATIONAL","formatted_address":"94 Terenure Rd E, Terenure, Dublin 6, D06 C434","geometry":{"location":{"lat":53.31009,"lng":-6.282986999999999},"viewport":{"northeast":{"lat":53.31140382989272,"lng":-6.281611220107277},"southwest":{"lat":53.30870417010728,"lng":-6.284310879892721}}},"icon":"https://maps.gstatic.com/mapfiles/place_api/icons/v1/png_71/restaurant-71.png","icon_background_color":"#FF9E67","icon_mask_base_uri":"https://maps.gstatic.com/mapfiles/place_api/icons/v2/restaurant_pinlet","name":"Sawadee Thai & Indian Eastern Fusion Restaurant","opening_hours":{"open_now":false},"photos":[{"height":3024,"html_attributions":["<a href=\"https://maps.google.com/maps/contrib/114764691583643853290\">Abdul Kibria</a>"],"photo_reference":"AeJbb3cCKFP2pXQ4S2BKY_snSYXidUvumk_nsWKEG9pjui2pcskFxN0gBaH6Mb0_5rJ2JLKJE4_piwInN-_CiqyBmQHW0k6vzxEpfe_JclvlmniMHSxRnEApMzbmt6-24XNIBcID5VkSBcI0yFxi2zut_42F3bxtXwahqtKy1-whuyxwo78m","width":4032}],"place_id":"ChIJfSdVx_ULZ0gRBERTtJg3sqo","plus_code":{"compound_code":"8P68+2R Dublin 6","global_code":"9C5M8P68+2R"},"price_level":2,"rating":4.1,"reference":"ChIJfSdVx_ULZ0gRBERTtJg3sqo","types":["restaurant","food","point_of_interest","establishment"],"user_ratings_total":137},{"business_status":"OPERATIONAL","formatted_address":"17 Main St, Townparks, Swords, Co. Dublin, K67 H3K4","geometry":{"location":{"lat":53.45840829999999,"lng":-6.2199224},"viewport":{"northeast":{"lat":53.45979192989271,"lng":-6.218786970107278},"southwest":{"lat":53.45709227010727,"lng":-6.221486629892722}}},"icon":"https://maps.gstatic.com/mapfiles/place_api/icons/v1/png_71/restaurant-71.png","icon_background_color":"#FF9E67","icon_mask_base_uri":"https://maps.gstatic.com/mapfiles/place_api/icons/v2/restaurant_pinlet","name":"Panda Asian Fusion & Panda Sushi Restaurant/Take away","opening_hours":{"open_now":false},"photos":[{"height":759,"html_attributions":["<a href=\"https://maps.google.com/maps/contrib/116486327427515846896\">Xiaoli Zeng</a>"],"photo_reference":"AeJbb3eE8RukY-UyHBRnKGL51q9ZRCBhxmImJUl-Jpgi4ibdszuTtuPW1J-m27mofab3FMlM1tCxyFYnFJrCgzIkv5Kg2sOy9i4K8tEZDusg5lhCl_zisAyfAG3y3_gzIhQTZLbjrjoSpTx7SHOEve1omt9gWlaYmnbk2f5KpKwvaRxocuVt","width":1049}],"place_id":"ChIJt_JTTW4RZ0gRK8tw_ZAiOuM","plus_code":{"compound_code":"FQ5J+92 Swords, County Dublin","global_code":"9C5MFQ5J+92"},"rating":4.1,"reference":"ChIJt_JTTW4RZ0gRK8tw_ZAiOuM","types":["restaurant","food","point_of_interest","establishment"],"user_ratings_total":103},{"business_status":"OPERATIONAL","formatted_address":"22 Fonthill Rd, Liffey Valley Park, Dublin 22, D22 WD58","geometry":{"location":{"lat":53.3532932,"lng":-6.391023100000001},"viewport":{"northeast":{"lat":53.35466382989271,"lng":-6.389766670107279},"southwest":{"lat":53.35196417010727,"lng":-6.392466329892723}}},"icon":"https://maps.gstatic.com/mapfiles/place_api/icons/v1/png_71/restaurant-71.png","icon_background_color":"#FF9E67","icon_mask_base_uri":"https://maps.gstatic.com/mapfiles/place_api/icons/v2/restaurant_pinlet","name":"Ginzeng","opening_hours":{"open_now":true},"photos":[{"height":4032,"html_attributions":["<a href=\"https://maps.google.com/maps/contrib/108103259319897506332\">Jason Balfe</a>"],"photo_reference":"AeJbb3d-Y8Vz8O2atb0Vw5G1z9w7yYcWN5V0x_LSXl6MZ3Oy72onCEL_qx1btxId8Mw8FfHcIq7hCHu_74bAOQI9K7Ow4z-UYLm1dtNYSC8VmHDOsBM-HAgZcLC_C1uEnau59dVqjmxxK3dRxRTJKDMamfYJVdtgUkmQ1vP5kyLgTH1HaL65","width":3024}],"place_id":"ChIJdY4nhdlyZ0gRUGgRxX20xpE","plus_code":{"compound_code":"9J35+8H Liffey Valley Park, Lucan, County Dublin","global_code":"9C5M9J35+8H"},"price_level":2,"rating":4,"reference":"ChIJdY4nhdlyZ0gRUGgRxX20xpE","types":["restaurant","food","point_of_interest","establishment"],"user_ratings_total":1736},{"business_status":"OPERATIONAL","formatted_address":"12A Wicklow St, Dublin 2, D02 ND37","geometry":{"location":{"lat":53.3430091,"lng":-6.2608286},"viewport":{"northeast":{"lat":53.34433162989272,"lng":-6.259505320107278},"southwest":{"lat":53.34163197010728,"lng":-6.262204979892722}}},"icon":"https://maps.gstatic.com/mapfiles/place_api/icons/v1/png_71/restaurant-71.png","icon_background_color":"#FF9E67","icon_mask_base_uri":"https://maps.gstatic.com/mapfiles/place_api/icons/v2/restaurant_pinlet","name":"Ka Shing Chinese Restaurant","opening_hours":{"open_now":true},"photos":[{"height":2988,"html_attributions":["<a href=\"https://maps.google.com/maps/contrib/101490805056086109014\">Erwin Bloemert</a>"],"photo_reference":"AeJbb3fzzpJWo7nvFoppCyZLMU1YzKFN-J0Sqdah9JIoDU2-c2EwMz9oolGiSPzyNN_TH94_9gYTYTk7Lb_GFY3OTmQfL7__16a8bmBd_xnP2oW3gVz5TZ3gG6O58WcO3MOyLDAmXYU0ecD-GZumYgi9cP__SUXviQrdmgVpSfFMWSsCGOeR","width":5312}],"place_id":"ChIJCTLqgZwOZ0gRW4HrHXuplIc","plus_code":{"compound_code":"8PVQ+6M Dublin 2","global_code":"9C5M8PVQ+6M"},"price_level":2,"rating":4,"reference":"ChIJCTLqgZwOZ0gRW4HrHXuplIc","types":["restaurant","food","point_of_interest","establishment"],"user_ratings_total":600},{"business_status":"OPERATIONAL","formatted_address":"Maher's Terrace, 2 Main St, Dundrum, Dublin, D14 YW65","geometry":{"location":{"lat":53.2892617,"lng":-6.2436997},"viewport":{"northeast":{"lat":53.29063782989272,"lng":-6.242258720107277},"southwest":{"lat":53.28793817010728,"lng":-6.244958379892721}}},"icon":"https://maps.gstatic.com/mapfiles/place_api/icons/v1/png_71/restaurant-71.png","icon_background_color":"#FF9E67","icon_mask_base_uri":"https://maps.gstatic.com/mapfiles/place_api/icons/v2/restaurant_pinlet","name":"Flaming Fish","opening_hours":{"open_now":false},"photos":[{"height":3036,"html_attributions":["<a href=\"https://maps.google.com/maps/contrib/110141236093048731081\">Maria Stroe</a>"],"photo_reference":"AeJbb3fvmGFPd5joFTtJ-AHvdiJjYcjhoPM6v5whL2lYRArL1O3Q8trJX6GQ41eOEc55rtQjnxT7mNe4Hrg5HmdLiP5e6NtO11dcsufNyoXi7V5r22ZB-l3CJkonjZ-GKcziQWPt_Of_-O1xItw2rumajUwELHG_AnO5BdS5gQdxtaslw3-9","width":4048}],"place_id":"ChIJx5dpTGYJZ0gRmlMJ2ZWaVuc","plus_code":{"compound_code":"7QQ4+PG Dublin","global_code":"9C5M7QQ4+PG"},"price_level":2,"rating":4,"reference":"ChIJx5dpTGYJZ0gRmlMJ2ZWaVuc","types":["restaurant","food","point_of_interest","establishment"],"user_ratings_total":183},{"business_status":"OPERATIONAL","formatted_address":"90 Terenure Rd E, Terenure, Dublin 6, D06 K767","geometry":{"location":{"lat":53.31015319999999,"lng":-6.2828409},"viewport":{"northeast":{"lat":53.31146407989272,"lng":-6.28142692010728},"southwest":{"lat":53.30876442010727,"lng":-6.284126579892724}}},"icon":"https://maps.gstatic.com/mapfiles/place_api/icons/v1/png_71/generic_business-71.png","icon_background_color":"#7B9EB0","icon_mask_base_uri":"https://maps.gstatic.com/mapfiles/place_api/icons/v2/generic_pinlet","name":"Q's Kitchen","opening_hours":{"open_now":false},"photos":[{"height":450,"html_attributions":["<a href=\"https://maps.google.com/maps/contrib/117714207613632210543\">Q&#39;s Creative Asian Dining</a>"],"photo_reference":"AeJbb3ftnZoCevCqVTj-hvNM-GLo6ovCyDEsofs6GfTBO26t_VUAtlneEaaer-zATNAWh70PnGPgnZA2ASIsLpBh3HMEIsDlUZhUgQfWbigaGXL12EpIxiOUhIeU29cma6kOYPwZ0NK5t_zGd8m-xyZaUj38UN0skHJTQZCiqiDtpDQQmbEN","width":800}],"place_id":"ChIJb0Y4wfULZ0gRSv3q2rCPlLc","plus_code":{"compound_code":"8P68+3V Dublin 6","global_code":"9C5M8P68+3V"},"rating":4,"reference":"ChIJb0Y4wfULZ0gRSv3q2rCPlLc","types":["meal_delivery","restaurant","food","point_of_interest","establishment"],"user_ratings_total":104},{"business_status":"OPERATIONAL","formatted_address":"1B St Agnes Rd, Crumlin, Dublin, D12 V8CR","geometry":{"location":{"lat":53.320819,"lng":-6.317083999999999},"viewport":{"northeast":{"lat":53.32221767989272,"lng":-6.315646570107277},"southwest":{"lat":53.31951802010727,"lng":-6.318346229892721}}},"icon":"https://maps.gstatic.com/mapfiles/place_api/icons/v1/png_71/restaurant-71.png","icon_background_color":"#FF9E67","icon_mask_base_uri":"https://maps.gstatic.com/mapfiles/place_api/icons/v2/restaurant_pinlet","name":"Fusion Asian Cuisine","opening_hours":{"open_now":false},"photos":[{"height":692,"html_attributions":["<a href=\"https://maps.google.com/maps/contrib/114763413179645985712\">A Google User</a>"],"photo_reference":"AeJbb3donySelIf9RDTNjBYb1dtDLAThH3OIwvNvRcWGKzAzBkOk_wf8q088lShEsiJAX5kVEh3RlYLcVWOkQ9G4nSNyqo11_ODZP0nCy__bJWlGFoyLK4UAQro7LQVuuDO3dUP3Hi4HfyBtZPbd6FkN1J0T-BnAqoTrfWoa-M3jS_mXEQTX","width":863}],"place_id":"ChIJ22RNNX0MZ0gR5qBocz7aWE4","plus_code":{"compound_code":"8MCM+85 Dublin","global_code":"9C5M8MCM+85"},"price_level":1,"rating":3.9,"reference":"ChIJ22RNNX0MZ0gR5qBocz7aWE4","types":["meal_delivery","meal_takeaway","restaurant","food","point_of_interest","establishment"],"user_ratings_total":43},{"business_status":"OPERATIONAL","formatted_address":"Apex Business Centre, Blackthorn Rd, Sandyford Business Park, Sandyford, Dublin 18","geometry":{"location":{"lat":53.2768926,"lng":-6.2180376},"viewport":{"northeast":{"lat":53.27823002989272,"lng":-6.216806070107278},"southwest":{"lat":53.27553037010728,"lng":-6.219505729892722}}},"icon":"https://maps.gstatic.com/mapfiles/place_api/icons/v1/png_71/restaurant-71.png","icon_background_color":"#FF9E67","icon_mask_base_uri":"https://maps.gstatic.com/mapfiles/place_api/icons/v2/restaurant_pinlet","name":"Sukhothai","opening_hours":{"open_now":true},"photos":[{"height":417,"html_attributions":["<a href=\"https://maps.google.com/maps/contrib/100598381931659980484\">A Google User</a>"],"photo_reference":"AeJbb3f6Of-7QjjM51iKlZDD_XNJIAs6kEnCV3r4n3Nh2FLd8MubtyzQfYW5_43llXOj0MTB4eA0rZrKYlo3KU8yft849fB-oKTPGgG0U0p_wFFo9AxiA3b8559WyrpBHw5qdj1j6H45kipnC3Wtj0D6R3_bQX3cAvpf-betz3kUWVeLCFMa","width":740}],"place_id":"ChIJ_XcNp2AJZ0gR6AtdmDOtov0","plus_code":{"compound_code":"7QGJ+QQ Sandyford Business Park, Dublin","global_code":"9C5M7QGJ+QQ"},"rating":3.9,"reference":"ChIJ_XcNp2AJZ0gR6AtdmDOtov0","types":["restaurant","food","point_of_interest","establishment"],"user_ratings_total":7},{"business_status":"OPERATIONAL","formatted_address":"Unit 5, Block D, Tyrrelstown Way, Dublin, D15 DY76","geometry":{"location":{"lat":53.4198522,"lng":-6.3824492},"viewport":{"northeast":{"lat":53.42127207989272,"lng":-6.381156220107278},"southwest":{"lat":53.41857242010727,"lng":-6.383855879892722}}},"icon":"https://maps.gstatic.com/mapfiles/place_api/icons/v1/png_71/restaurant-71.png","icon_background_color":"#FF9E67","icon_mask_base_uri":"https://maps.gstatic.com/mapfiles/place_api/icons/v2/restaurant_pinlet","name":"Tyrellstown Asian Restaurant & Takeaway","opening_hours":{"open_now":true},"photos":[{"height":1440,"html_attributions":["<a href=\"https://maps.google.com/maps/contrib/111071236324718978855\">Max Yeo</a>"],"photo_reference":"AeJbb3fvggYTPGPO1JH2InDXHGOyYlNwJ9Pkdc1Hv18g6d1AgYs6K9qMVecpqqRzM0qvE_veyGCTLo2K1-HiyGv3kjhx23zWjywSjNFresEgITBIEr65z6Env9soSK9ttgRt8yCODXFaya7Rj3HRjUwvXS56e5M8LyKuZBu9DT3nqQJIiioH","width":1080}],"place_id":"ChIJB3i3DMYSZ0gRJMKGldRdDx0","plus_code":{"compound_code":"CJ99+W2 Dublin","global_code":"9C5MCJ99+W2"},"price_level":2,"rating":3.8,"reference":"ChIJB3i3DMYSZ0gRJMKGldRdDx0","types":["meal_takeaway","restaurant","food","point_of_interest","establishment"],"user_ratings_total":128},{"business_status":"OPERATIONAL","formatted_address":"level1 unit123, IE County Dublin Dublin 24, The Square, Tallaght","geometry":{"location":{"lat":53.286512,"lng":-6.3706518},"viewport":{"northeast":{"lat":53.28799437989272,"lng":-6.369219720107277},"southwest":{"lat":53.28529472010728,"lng":-6.371919379892721}}},"icon":"https://maps.gstatic.com/mapfiles/place_api/icons/v1/png_71/restaurant-71.png","icon_background_color":"#FF9E67","icon_mask_base_uri":"https://maps.gstatic.com/mapfiles/place_api/icons/v2/restaurant_pinlet","name":"The One Asian Kitchen (Summer Inn)","opening_hours":{"open_now":true},"photos":[{"height":4032,"html_attributions":["<a href=\"https://maps.google.com/maps/contrib/111613807991701768553\">錢程</a>"],"photo_reference":"AeJbb3d4TvvqkXbgYFWQUhJLTNcGKWZQHPeWyL10Jn2a319TxS7lUWTW7V6Vu0Y9ujh8TIC53uAcJ_YxpTOO-9rPe8GAElBvFpE6HCSFYJOwd0yUbs9meGfQg8q-nPc6l8WtEebRyX4xiYVYPPWevY5dM7X3Kyny7rPzivsXXr2xHgUSbjBe","width":3024}],"place_id":"ChIJ5cDkdbV0Z0gRXKn9ne9JF2Q","plus_code":{"compound_code":"7JPH+JP Dublin","global_code":"9C5M7JPH+JP"},"rating":3.8,"reference":"ChIJ5cDkdbV0Z0gRXKn9ne9JF2Q","types":["restaurant","meal_takeaway","food","point_of_interest","establishment"],"user_ratings_total":110},{"business_status":"OPERATIONAL","formatted_address":"29 Westmoreland St, Dublin 2, D02 NH61","geometry":{"location":{"lat":53.34624059999999,"lng":-6.258890099999999},"viewport":{"northeast":{"lat":53.34759107989272,"lng":-6.257660420107277},"southwest":{"lat":53.34489142010728,"lng":-6.26036007989272}}},"icon":"https://maps.gstatic.com/mapfiles/place_api/icons/v1/png_71/restaurant-71.png","icon_background_color":"#FF9E67","icon_mask_base_uri":"https://maps.gstatic.com/mapfiles/place_api/icons/v2/restaurant_pinlet","name":"Charlies 3","opening_hours":{"open_now":true},"photos":[{"height":2160,"html_attributions":["<a href=\"https://maps.google.com/maps/contrib/109991902747940877682\">Shirline Juay</a>"],"photo_reference":"AeJbb3e2Odvbj3hOf3NfKmmXi5oV9w82bPDg2lETwzhc9mFU1ptI3NXIY6PS5eFhRfj3S7UdAb7jfSla3AAjJOhzNC6LZU02C7LAmdIbTcKKExaCZj2GDP_2FMDnvVj1Sr5eHYZWjz6HB0me_dH_tqO5yv07SW23P2-NBTFN64R4s6K4VGV6","width":3840}],"place_id":"ChIJ3f1_z4QOZ0gRHYSUg52nrGM","plus_code":{"compound_code":"8PWR+FF Dublin 2","global_code":"9C5M8PWR+FF"},"price_level":2,"rating":3.4,"reference":"ChIJ3f1_z4QOZ0gRHYSUg52nrGM","types":["restaurant","food","point_of_interest","establishment"],"user_ratings_total":538},{"business_status":"OPERATIONAL","formatted_address":"2-5 Wellington Quay, Temple Bar, Dublin 2, D02 PK72","geometry":{"location":{"lat":53.3453246,"lng":-6.2671475},"viewport":{"northeast":{"lat":53.34671947989273,"lng":-6.265781570107277},"southwest":{"lat":53.34401982010728,"lng":-6.268481229892721}}},"icon":"https://maps.gstatic.com/mapfiles/place_api/icons/v1/png_71/restaurant-71.png","icon_background_color":"#FF9E67","icon_mask_base_uri":"https://maps.gstatic.com/mapfiles/place_api/icons/v2/restaurant_pinlet","name":"Double 8 Temple Bar","opening_hours":{"open_now":true},"photos":[{"height":1365,"html_attributions":["<a href=\"https://maps.google.com/maps/contrib/104710464586321886998\">A Google User</a>"],"photo_reference":"AeJbb3e2HOwhRa4eD5OrzcBLzCmPiihRhnj3mRHGcwCavKKbVPvTGQPAhOF8EYEwqRZjvBF_9bHEVBC_LB6OfjlhRjU5gCBpU4Cd_zLstoVkqtypppB291oTPq9WRIttWcIcPNIIqOToW3yVj0eB9DZZWuU7pwwVe92CJGBEJc3bu3QY30_3","width":2048}],"place_id":"ChIJGeqixzgPZ0gR8xQ6OVmNyHg","plus_code":{"compound_code":"8PWM+44 Dublin 2","global_code":"9C5M8PWM+44"},"rating":0,"reference":"ChIJGeqixzgPZ0gR8xQ6OVmNyHg","types":["restaurant","food","point_of_interest","establishment"],"user_ratings_total":0}]