[{"business_status":"OPERATIONAL","formatted_address":"Bellealliancestraße 52, 20259 Hamburg","geometry":{"location":{"lat":53.56836999999999,"lng":9.96162},"viewport":{"northeast":{"lat":53.56977382989272,"lng":9.963048929892723},"southwest":{"lat":53.56707417010728,"lng":9.96034927010728}}},"icon":"https://maps.gstatic.com/mapfiles/place_api/icons/v1/png_71/restaurant-71.png","icon_background_color":"#FF9E67","icon_mask_base_uri":"https://maps.gstatic.com/mapfiles/place_api/icons/v2/restaurant_pinlet","name":"Wings Quality Fastfood","opening_hours":{"open_now":false},"photos":[{"height":1560,"html_attributions":["<a href=\"https://maps.google.com/maps/contrib/118358162462860729199\">Daniel John</a>"],"photo_reference":"AeJbb3flhCd5asSrC7TEIs-FN-kPcVSnzi8Z-pbrR2f1_994DrRWdh_ffXXMfCSvZGWXVypdbJMgH9iTqoE0yMbXHW3GFvHKQEMq7hIhSvtUDsDcE8bYJdVZKaJVDybCfL1Bx6uotZ5dR89Ilyls1Tfk2kc8uLGZxU8bBouZS6pGFj1aNU_J","width":1171}],"place_id":"ChIJ-xL3eOaPsUcR2j3MEzjzIeA","plus_code":{"compound_code":"HX96+8J Hamburg","global_code":"9F5FHX96+8J"},"rating":4.8,"reference":"ChIJ-xL3eOaPsUcR2j3MEzjzIeA","types":["restaurant","point_of_interest","food","establishment"],"user_ratings_total":86},{"business_status":"OPERATIONAL","formatted_address":"Wandsbeker Chaussee 325, 22089 Hamburg","geometry":{"location":{"lat":53.5705499,"lng":10.0599196},"viewport":{"northeast":{"lat":53.57183072989272,"lng":10.06131337989272},"southwest":{"lat":53.56913107010728,"lng":10.05861372010728}}},"icon":"https://maps.gstatic.com/mapfiles/place_api/icons/v1/png_71/restaurant-71.png","icon_background_color":"#FF9E67","icon_mask_base_uri":"https://maps.gstatic.com/mapfiles/place_api/icons/v2/restaurant_pinlet","name":"Safi Food","opening_hours":{"open_now":true},"photos":[{"height":1488,"html_attributions":["<a href=\"https://maps.google.com/maps/contrib/108738784061685140437\">Volha Semashko</a>"],"photo_reference":"AeJbb3f-9Gp_I2-NKe0vbEyXid0CRoUgn2_S3MM5mq6sD0bVgcgIj1HsMEsWbuetdMl0iH0mXiCa_LeYECThGZHJQG_5e-NszsvttxgcoWncnryg1PvwphZ5_fsaSdCow-AKwdATqcJUqe0zOsu2bNpdTYBECz8Cmuu0NVpObgKX3J5kjLsi","width":1984}],"place_id":"ChIJH54MdayOsUcRtDWPrlu_wK8","plus_code":{"compound_code":"H3C5+6X Hamburg","global_code":"9F5GH3C5+6X"},"price_level":1,"rating":4.7,"reference":"ChIJH54MdayOsUcRtDWPrlu_wK8","types":["restaurant","point_of_interest","food","establishment"],"user_ratings_total":349},{"business_status":"OPERATIONAL","formatted_address":"Große Bäckerstraße 8, 20095 Hamburg","geometry":{"location":{"lat":53.5488693,"lng":9.9931311},"viewport":{"northeast":{"lat":53.55027902989273,"lng":9.994491229892724},"southwest":{"lat":53.54757937010729,"lng":9.99179157010728}}},"icon":"https://maps.gstatic.com/mapfiles/place_api/icons/v1/png_71/restaurant-71.png","icon_background_color":"#FF9E67","icon_mask_base_uri":"https://maps.gstatic.com/mapfiles/place_api/icons/v2/restaurant_pinlet","name":"FrittenFreude","opening_hours":{"open_now":true},"photos":[{"height":2160,"html_attributions":["<a href=\"https://maps.google.com/maps/contrib/105117835374582624308\">A Google User</a>"],"photo_reference":"AeJbb3fgR47eTGkCYTcSf_JEAgrRM0EOSJeOk0_1R0y0jZIGA1T4030UbpRm3zt39C9hP4PbiDVvTKQRAxubB8ROIZyo4Fx882ZA2DcZ_cjXGfzNFN0fxr5YsV9QN0VTxoRG8AgQd1bAz6YQYxFWh8IWrUXBTbfzIJgdpauL7ezW1x05pqEH","width":3840}],"place_id":"ChIJJ-XHlRyPsUcRx3q5Ob40g-g","plus_code":{"compound_code":"GXXV+G7 Hamburg","global_code":"9F5FGXXV+G7"},"rating":4.7,"reference":"ChIJJ-XHlRyPsUcRx3q5Ob40g-g","types":["restaurant","point_of_interest","food","establishment"],"user_ratings_total":335},{"business_status":"OPERATIONAL","formatted_address":"Mozartstraße 23, 22083 Hamburg","geometry":{"location":{"lat":53.578029,"lng":10.021344},"viewport":{"northeast":{"lat":53.57931962989272,"lng":10.02270907989272},"southwest":{"lat":53.57661997010728,"lng":10.02000942010728}}},"icon":"https://maps.gstatic.com/mapfiles/place_api/icons/v1/png_71/restaurant-71.png","icon_background_color":"#FF9E67","icon_mask_base_uri":"https://maps.gstatic.com/mapfiles/place_api/icons/v2/restaurant_pinlet","name":"Curry-Pirates","opening_hours":{"open_now":false},"photos":[{"height":2976,"html_attributions":["<a href=\"https://maps.google.com/maps/contrib/108075578107319344685\">Michael Ortmann</a>"],"photo_reference":"AeJbb3eEggTAkA5tplEKibQTdeTiaMIdL5mqTbhGw79ZsycIvitu3UMtwgv03mDjyONlrPvJ5qGf6XSKtCj-ZWCNTkaJcQzn7zC278IX32tdDKMjo-8DI4PpkYtzr9vwDsTVtv1lr5ys1Rae6WsPqYeWUrWYwqkCn3ISWKrUWbZFFh5smZMm","width":3968}],"place_id":"ChIJH3BxKi2JsUcRLygtVP5pC2A","plus_code":{"compound_code":"H2HC+6G Hamburg","global_code":"9F5GH2HC+6G"},"price_level":2,"rating":4.7,"reference":"ChIJH3BxKi2JsUcRLygtVP5pC2A","types":["restaurant","food","point_of_interest","establishment"],"user_ratings_total":299},{"business_status":"OPERATIONAL","formatted_address":"Reeperbahn 122, 20359 Hamburg","geometry":{"location":{"lat":53.5497007,"lng":9.9598371},"viewport":{"northeast":{"lat":53.55097272989272,"lng":9.961269379892723},"southwest":{"lat":53.54827307010727,"lng":9.95856972010728}}},"icon":"https://maps.gstatic.com/mapfiles/place_api/icons/v1/png_71/restaurant-71.png","icon_background_color":"#FF9E67","icon_mask_base_uri":"https://maps.gstatic.com/mapfiles/place_api/icons/v2/restaurant_pinlet","name":"Danmark-Snack","opening_hours":{"open_now":false},"photos":[{"height":2633,"html_attributions":["<a href=\"https://maps.google.com/maps/contrib/103672553456934363843\">Florian Lust</a>"],"photo_reference":"AeJbb3csZK53cHtaSWf-RoqAxILcXAQuLXo9zh5Qh3kremiCO_ZiTVbvQXqaekEWkBywGX1OZlutYlyxyU2tJ5iLVQanttjgHN0LX_FW3iUa_RIHbEE8oHZzQ4RobK277_DblX9AqVeokyEaQk3ZVbWeFpylT05wIXxr-OR9lzBS4ZLHubpb","width":3024}],"place_id":"ChIJUdrt3XGPsUcRb2uYL4uZVPg","plus_code":{"compound_code":"GXX5+VW Hamburg","global_code":"9F5FGXX5+VW"},"price_level":1,"rating":4.7,"reference":"ChIJUdrt3XGPsUcRb2uYL4uZVPg","types":["restaurant","food","point_of_interest","establishment"],"user_ratings_total":150},{"business_status":"OPERATIONAL","formatted_address":"Seeveplatz 1, 21073 Hamburg","geometry":{"location":{"lat":53.4572842,"lng":9.9878698},"viewport":{"northeast":{"lat":53.45858352989271,"lng":9.989255629892723},"southwest":{"lat":53.45588387010727,"lng":9.986555970107279}}},"icon":"https://maps.gstatic.com/mapfiles/place_api/icons/v1/png_71/restaurant-71.png","icon_background_color":"#FF9E67","icon_mask_base_uri":"https://maps.gstatic.com/mapfiles/place_api/icons/v2/restaurant_pinlet","name":"Weza Chicken","opening_hours":{"open_now":true},"photos":[{"height":2460,"html_attributions":["<a href=\"https://maps.google.com/maps/contrib/116267076475193163052\">A Google User</a>"],"photo_reference":"AeJbb3cDNiOFsx554Ij0JytTvbUUWjX4IVIsRXy5cGF-dddGqPkghPLoj9p1IbXMISCzo4Ln5quP2zWKK9bHpBIL49ICLQqYkD1SX5ELsDcejiLdYSv3_yUV5DuORhBUbjrW7CKWORCpywQqFg1utjOCXL9WnE7QEQR3YtipF5243IB9kMkf","width":3950}],"place_id":"ChIJg_DnlfuRsUcRaTBa_m-XIMs","plus_code":{"compound_code":"FX4Q+W4 Hamburg","global_code":"9F5FFX4Q+W4"},"rating":4.7,"reference":"ChIJg_DnlfuRsUcRaTBa_m-XIMs","types":["meal_takeaway","restaurant","food","point_of_interest","establishment"],"user_ratings_total":53},{"business_status":"OPERATIONAL","formatted_address":"Alte Holstenstraße 24, 21031 Hamburg","geometry":{"location":{"lat":53.4928818,"lng":10.2069682},"viewport":{"northeast":{"lat":53.49376847989272,"lng":10.20868327989272},"southwest":{"lat":53.49106882010727,"lng":10.20598362010728}}},"icon":"https://maps.gstatic.com/mapfiles/place_api/icons/v1/png_71/restaurant-71.png","icon_background_color":"#FF9E67","icon_mask_base_uri":"https://maps.gstatic.com/mapfiles/place_api/icons/v2/restaurant_pinlet","name":"Sub Fresh Bergedorf","opening_hours":{"open_now":true},"photos":[{"height":2448,"html_attributions":["<a href=\"https://maps.google.com/maps/contrib/102334991778893865007\">A Google User</a>"],"photo_reference":"AeJbb3f0LO-xXiRcza_dtqt0Exv6fG3nMb-6JR6H-LGBxsNJla1o6aApC6bXat2ftQD4vVFTNMWGJQ1N5bZDzx0ETGMNFDB5Q95UiXXmprrWx-3t0NiuQ1G8ZINIDmHzGngYN69JGon90jDCnSbD44wWxtHK1j_iJdslZ_FXvRExNtmQc8lh","width":3264}],"place_id":"ChIJJyqJ8ATzsUcRdY2iVUOTC_o","plus_code":{"compound_code":"F6V4+5Q Hamburg","global_code":"9F5GF6V4+5Q"},"rating":4.7,"reference":"ChIJJyqJ8ATzsUcRdY2iVUOTC_o","types":["restaurant","food","point_of_interest","establishment"],"user_ratings_total":35},{"business_status":"OPERATIONAL","formatted_address":"Karolinenstraße 2, 20357 Hamburg","geometry":{"location":{"lat":53.5570144,"lng":9.975190399999999},"viewport":{"northeast":{"lat":53.55829837989273,"lng":9.97672232989272},"southwest":{"lat":53.55559872010728,"lng":9.974022670107276}}},"icon":"https://maps.gstatic.com/mapfiles/place_api/icons/v1/png_71/restaurant-71.png","icon_background_color":"#FF9E67","icon_mask_base_uri":"https://maps.gstatic.com/mapfiles/place_api/icons/v2/restaurant_pinlet","name":"Dulf's Burger","opening_hours":{"open_now":true},"photos":[{"height":3796,"html_attributions":["<a href=\"https://maps.google.com/maps/contrib/114008663331484045565\">Dulf&#39;s Burger</a>"],"photo_reference":"AeJbb3emHQqNThvN28qrVjvT_PAcZg3YJhZdGGrekTzH7Tea-zVkd-uaNx9rNkt9YGP8tQMf49TDXRRYZBJggjwcXAwi-sEB-R75QVv_u4EBmvI0O929QwPPu0Wd1KPS9EJrJnsgme_SU4PEMEb4FHPldRXAvAcDuDNIsvpStJwGK0QLCubN","width":5573}],"place_id":"ChIJlQOfgcOIsUcR3yVKZl2dMkA","plus_code":{"compound_code":"HX4G+R3 Hamburg","global_code":"9F5FHX4G+R3"},"price_level":2,"rating":4.5,"reference":"ChIJlQOfgcOIsUcR3yVKZl2dMkA","types":["restaurant","point_of_interest","food","establishment"],"user_ratings_total":5649},{"business_status":"OPERATIONAL","formatted_address":"Wohlwillstraße 37, 20359 Hamburg","geometry":{"location":{"lat":53.554844,"lng":9.9623446},"viewport":{"northeast":{"lat":53.55624047989271,"lng":9.963727829892722},"southwest":{"lat":53.55354082010727,"lng":9.961028170107278}}},"icon":"https://maps.gstatic.com/mapfiles/place_api/icons/v1/png_71/restaurant-71.png","icon_background_color":"#FF9E67","icon_mask_base_uri":"https://maps.gstatic.com/mapfiles/place_api/icons/v2/restaurant_pinlet","name":"Kleine Pause","opening_hours":{"open_now":true},"photos":[{"height":3024,"html_attributions":["<a href=\"https://maps.google.com/maps/contrib/109377168879995857370\">Fotobox Vermietung Hamburg</a>"],"photo_reference":"AeJbb3di6EF6DbvDR16HEExmwgmzTgZKimRAxuHw-8FoBXL0IUwDLOeYeKdG2iULVgkcL6aD8uY6wN9P7YUfcih0dymR3xfMmlXWilyMN3kpKf-PDUXSaxqfSMo-D9Hj-DUlEHPPyZehgZA_1VOgckYKN58-cAP13dDU1u1yVN0Hi1TQI2MJ","width":4032}],"place_id":"ChIJXxhct26PsUcRpWklxJwS1ok","plus_code":{"compound_code":"HX36+WW Hamburg","global_code":"9F5FHX36+WW"},"price_level":1,"rating":4.5,"reference":"ChIJXxhct26PsUcRpWklxJwS1ok","types":["cafe","bar","meal_takeaway","restaurant","food","point_of_interest","establishment"],"user_ratings_total":2010},{"business_status":"OPERATIONAL","formatted_address":"Bugenhagenstraße 23, 20095 Hamburg","geometry":{"location":{"lat":53.5505851,"lng":10.0020217},"viewport":{"northeast":{"lat":53.55196537989272,"lng":10.00323307989272},"southwest":{"lat":53.54926572010728,"lng":10.00053342010728}}},"icon":"https://maps.gstatic.com/mapfiles/place_api/icons/v1/png_71/restaurant-71.png","icon_background_color":"#FF9E67","icon_mask_base_uri":"https://maps.gstatic.com/mapfiles/place_api/icons/v2/restaurant_pinlet","name":"Shiso Burger Hamburg","opening_hours":{"open_now":false},"photos":[{"height":3000,"html_attributions":["<a href=\"https://maps.google.com/maps/contrib/110528380573531386623\">Martin Voegeli</a>"],"photo_reference":"AeJbb3f8LDMxOsv9b1wIA1yO_sUaN5q59I1trNUnPAmQj7pBrKHLiQmfw4-keI6paCsjIpmnabDP-fJa1Ix-u7qDE5AKcqKSnzNXXNwsD_VYMu6uqCSqDQqRbFn9qkaQ9vWBm0iw6lFVCTSCq4qt58eMRnLANfU4j-s94VfGYAdlbsJOYF1w","width":4000}],"place_id":"ChIJaSP6QOKOsUcRUaaBW3YLEFs","plus_code":{"compound_code":"H222+6R Hamburg","global_code":"9F5GH222+6R"},"price_level":2,"rating":4.5,"reference":"ChIJaSP6QOKOsUcRUaaBW3YLEFs","types":["store","restaurant","food","point_of_interest","establishment"],"user_ratings_total":1506},{"business_status":"OPERATIONAL","formatted_address":"Eppendorfer Weg 172, 20253 Hamburg","geometry":{"location":{"lat":53.5801238,"lng":9.968265599999999},"viewport":{"northeast":{"lat":53.58152772989272,"lng":9.96954982989272},"southwest":{"lat":53.57882807010728,"lng":9.966850170107277}}},"icon":"https://maps.gstatic.com/mapfiles/place_api/icons/v1/png_71/restaurant-71.png","icon_background_color":"#FF9E67","icon_mask_base_uri":"https://maps.gstatic.com/mapfiles/place_api/icons/v2/restaurant_pinlet","name":"Eppendorfer Grill-Station","opening_hours":{"open_now":true},"photos":[{"height":3024,"html_attributions":["<a href=\"https://maps.google.com/maps/contrib/102697745939004448703\">Sebastian Hinterding</a>"],"photo_reference":"AeJbb3c2JfsnvD3vtYDAUKNleyj6vEZwFvOzgk6nlijJcgI4MDKh4GsBVxfWF1MLPBZ4SCxsKfiv0Kt0xUubltLVvJzscs4TfMLMqWBT7OF-NsJmZQu_C5OczrI3oNHYoaAoad7ergwG-RQ_B6BNfE1vLnrENmphTVxsMTdgGWc6dsYhNuHK","width":4032}],"place_id":"ChIJVcqGD02PsUcR7MtzpkoTsWs","plus_code":{"compound_code":"HXJ9+28 Hamburg","global_code":"9F5FHXJ9+28"},"price_level":1,"rating":4.5,"reference":"ChIJVcqGD02PsUcR7MtzpkoTsWs","types":["restaurant","food","point_of_interest","establishment"],"user_ratings_total":615},{"business_status":"OPERATIONAL","formatted_address":"Stellinger Weg 28, 20255 Hamburg","geometry":{"location":{"lat":53.5794234,"lng":9.9494176},"viewport":{"northeast":{"lat":53.58078402989271,"lng":9.950655129892722},"southwest":{"lat":53.57808437010727,"lng":9.947955470107278}}},"icon":"https://maps.gstatic.com/mapfiles/place_api/icons/v1/png_71/restaurant-71.png","icon_background_color":"#FF9E67","icon_mask_base_uri":"https://maps.gstatic.com/mapfiles/place_api/icons/v2/restaurant_pinlet","name":"HANSE BOWL","opening_hours":{"open_now":true},"photos":[{"height":3024,"html_attributions":["<a href=\"https://maps.google.com/maps/contrib/118168938884878596472\">A Google User</a>"],"photo_reference":"AeJbb3coAcNMXm4Bth7GGtxQk5XauTK9WLQ5AOJeWslvX1kmRIWQdXF4hOvA5ycioaxiJvtm7jPpxfVgczVFwgMOhbutF4IjyiZ6C83XTALHDUfucKOMM1boZSLENGp7PHUK7YlYqZZU2zH74ZbPga19MIMQLTYjErwP4yJlr8lmW0BT3yvR","width":3025}],"place_id":"ChIJp9VJ9PaPsUcR3HcVGBy0MVY","plus_code":{"compound_code":"HWHX+QQ Hamburg","global_code":"9F5FHWHX+QQ"},"rating":4.5,"reference":"ChIJp9VJ9PaPsUcR3HcVGBy0MVY","types":["night_club","bar","restaurant","food","point_of_interest","establishment"],"user_ratings_total":131},{"business_status":"OPERATIONAL","formatted_address":"Grindelhof 1, 20146 Hamburg","geometry":{"location":{"lat":53.5675527,"lng":9.981230199999999},"viewport":{"northeast":{"lat":53.56885947989272,"lng":9.982660429892722},"southwest":{"lat":53.56615982010727,"lng":9.979960770107278}}},"icon":"https://maps.gstatic.com/mapfiles/place_api/icons/v1/png_71/restaurant-71.png","icon_background_color":"#FF9E67","icon_mask_base_uri":"https://maps.gstatic.com/mapfiles/place_api/icons/v2/restaurant_pinlet","name":"Cup n' Go","opening_hours":{"open_now":true},"photos":[{"height":3024,"html_attributions":["<a href=\"https://maps.google.com/maps/contrib/110200804750131231750\">Stefan</a>"],"photo_reference":"AeJbb3fG8QDhjvA-9-DbiS3tOgla-DRmcrwkxKloTT5zE-hOBIiyd9Ol4RFAXfMtN38Uj614BvkYehWwtr8nIZUTvTN95A2lqVcyNdknXsuax45ZBE0VxuG1yzKUV52ydw7Z5h5rLFFWxJK5ajsLOL9QlnuqBqSKecu5BWKkV3NcCro4cC7q","width":4032}],"place_id":"ChIJ_5CPoDmPsUcRBltQyGFyp6g","plus_code":{"compound_code":"HX9J+2F Hamburg","global_code":"9F5FHX9J+2F"},"rating":4.5,"reference":"ChIJ_5CPoDmPsUcRBltQyGFyp6g","types":["restaurant","point_of_interest","food","establishment"],"user_ratings_total":99},{"business_status":"OPERATIONAL","formatted_address":"Hamburger Str. 27, 22083 Hamburg","geometry":{"location":{"lat":53.5737095,"lng":10.0326792},"viewport":{"northeast":{"lat":53.57499227989273,"lng":10.03397042989272},"southwest":{"lat":53.57229262010728,"lng":10.03127077010728}}},"icon":"https://maps.gstatic.com/mapfiles/place_api/icons/v1/png_71/restaurant-71.png","icon_background_color":"#FF9E67","icon_mask_base_uri":"https://maps.gstatic.com/mapfiles/place_api/icons/v2/restaurant_pinlet","name":"KISS","opening_hours":{"open_now":true},"photos":[{"height":4032,"html_attributions":["<a href=\"https://maps.google.com/maps/contrib/116554467694037620700\">Tobias Beck</a>"],"photo_reference":"AeJbb3cNgW_vj5oY9fujBJlqXClIPl5e14OgqlIKhwhcsiI4Kbc6V3Tugiqp27VNFii5l-PefAvy4KZTGIpBq-dmcqYE31x8ENzdHL7DocxRydc0_TlycolXCawk1dkyQ8wZGMOn2mS0n4CuXIfOgXXIwKhy6vfu3h1h8k7FtOkvwmrCXolg","width":3024}],"place_id":"ChIJp4JPnsuOsUcRX6NjbD356rY","plus_code":{"compound_code":"H2FM+F3 Hamburg","global_code":"9F5GH2FM+F3"},"rating":4.5,"reference":"ChIJp4JPnsuOsUcRX6NjbD356rY","types":["restaurant","point_of_interest","food","establishment"],"user_ratings_total":24},{"business_status":"OPERATIONAL","formatted_address":"Speersort 1, 20095 Hamburg","geometry":{"location":{"lat":53.5496054,"lng":9.998626699999999},"viewport":{"northeast":{"lat":53.55108887989272,"lng":9.999943979892722},"southwest":{"lat":53.54838922010727,"lng":9.997244320107278}}},"icon":"https://maps.gstatic.com/mapfiles/place_api/icons/v1/png_71/restaurant-71.png","icon_background_color":"#FF9E67","icon_mask_base_uri":"https://maps.gstatic.com/mapfiles/place_api/icons/v2/restaurant_pinlet","name":"Burgerlich","opening_hours":{"open_now":true},"photos":[{"height":662,"html_attributions":["<a href=\"https://maps.google.com/maps/contrib/111729674624194859105\">Burgerlich GmbH</a>"],"photo_reference":"AeJbb3fmv-XRpwVnDIJh7aLEtoY_ld3Yf9uYy61TtOnHfw17NaEz9pWqv6t62HqYq7DPlZOon16EWPGf96qSyyOoW6QIZ50FtxnFI4Keblfwdu5j3xsljNeRMtIXxfxOZv0P0IezrCHhiGdkBj7vtkqkY0yCglAGjdvapB3qlLfMaBTIjPVC","width":992}],"place_id":"ChIJ66MoeB2PsUcRdXBSgKqEUyc","plus_code":{"compound_code":"GXXX+RF Hamburg","global_code":"9F5FGXXX+RF"},"price_level":2,"rating":4.4,"reference":"ChIJ66MoeB2PsUcRdXBSgKqEUyc","types":["restaurant","food","point_of_interest","establishment"],"user_ratings_total":5358},{"business_status":"OPERATIONAL","formatted_address":"Große Bleichen 68, 20354 Hamburg","geometry":{"location":{"lat":53.5522595,"lng":9.986328199999999},"viewport":{"northeast":{"lat":53.55355667989272,"lng":9.987625329892722},"southwest":{"lat":53.55085702010727,"lng":9.984925670107279}}},"icon":"https://maps.gstatic.com/mapfiles/place_api/icons/v1/png_71/restaurant-71.png","icon_background_color":"#FF9E67","icon_mask_base_uri":"https://maps.gstatic.com/mapfiles/place_api/icons/v2/restaurant_pinlet","name":"Edelcurry","opening_hours":{"open_now":true},"photos":[{"height":3888,"html_attributions":["<a href=\"https://maps.google.com/maps/contrib/107602913062114427676\">Enrico Righetti</a>"],"photo_reference":"AeJbb3ct1yN4dOiPOwsH-H1SlFXDWUmYCm3WEpmgsNo0Zbw2h6Rvbd-UOjEgpLAap6jqEJcRaydjIAy5kRwUgMDvNNgpvMygNsjh6GW-WQP_8SD42k0fUHypWHWXTsSzIdnQOroNuj8OH41M-NiiwkYHhMhjnk-9b6HgNsxklhi5r5KV5tg","width":5184}],"place_id":"ChIJ5WaHDBqPsUcRjkYgHS9LAnM","plus_code":{"compound_code":"HX2P+WG Hamburg","global_code":"9F5FHX2P+WG"},"price_level":2,"rating":4.4,"reference":"ChIJ5WaHDBqPsUcRjkYgHS9LAnM","types":["meal_takeaway","restaurant","point_of_interest","food","establishment"],"user_ratings_total":1062},{"business_status":"OPERATIONAL","formatted_address":"Heidi-Kabel-Platz, 20099 Hamburg","geometry":{"location":{"lat":53.553719,"lng":10.0078683},"viewport":{"northeast":{"lat":53.55505202989272,"lng":10.00931207989272},"southwest":{"lat":53.55235237010728,"lng":10.00661242010728}}},"icon":"https://maps.gstatic.com/mapfiles/place_api/icons/v1/png_71/restaurant-71.png","icon_background_color":"#FF9E67","icon_mask_base_uri":"https://maps.gstatic.com/mapfiles/place_api/icons/v2/restaurant_pinlet","name":"CKTs Hamburg Hauptbahnhof","opening_hours":{"open_now":true},"photos":[{"height":1335,"html_attributions":["<a href=\"https://maps.google.com/maps/contrib/115625056886314082092\">Glyn Lowe Photoworks</a>"],"photo_reference":"AeJbb3cIHLYib4-Kw-VG7RFer08hrmOWjnPCuuMAcTtTYL4PFL2mrkUmT0-jXM3GDDR1ikR9DNULjZiGW5flhV0aoJ5ZgdyGiSMwsISym9GDyAvp-TI_gLpP0n_HzkPe14U_xyQGQUM-XfQv5H_DeZJJajzpOAEO8KHWEZXt-nJumiTcEf1V","width":2000}],"place_id":"ChIJn2sdLuGOsUcRV7roBbUokXA","plus_code":{"compound_code":"H235+F4 Hamburg","global_code":"9F5GH235+F4"},"rating":4.4,"reference":"ChIJn2sdLuGOsUcRV7roBbUokXA","types":["meal_takeaway","restaurant","point_of_interest","food","establishment"],"user_ratings_total":89},{"business_status":"OPERATIONAL","formatted_address":"Jungfernstieg 1-3, 20095 Hamburg","geometry":{"location":{"lat":53.5516391,"lng":9.994234299999999},"viewport":{"northeast":{"lat":53.55299402989272,"lng":9.99576322989272},"southwest":{"lat":53.55029437010728,"lng":9.993063570107276}}},"icon":"https://maps.gstatic.com/mapfiles/place_api/icons/v1/png_71/restaurant-71.png","icon_background_color":"#FF9E67","icon_mask_base_uri":"https://maps.gstatic.com/mapfiles/place_api/icons/v2/restaurant_pinlet","name":"Jim Block Jungfernstieg","opening_hours":{"open_now":true},"photos":[{"height":3024,"html_attributions":["<a href=\"https://maps.google.com/maps/contrib/116111558994993172154\">Michael Krag</a>"],"photo_reference":"AeJbb3eSabIDTH7TTx7hkUwhIXg1P3zPhpzxm16rmDv-ye6tTrepnm8xBvD7TowANk432iMJJGFEolVL3b0qXoJZQemgaeEGSEeTHFtPI9tCigpDUvv59iRoupLtSXINcb75iP_cJnnGfZhYaRIjiAlQTCZMJ36PLK8KaQDDA_sY36_FQQMJ","width":4032}],"place_id":"ChIJMzNpFByPsUcRFV3bm-fNa84","plus_code":{"compound_code":"HX2V+MM Hamburg","global_code":"9F5FHX2V+MM"},"price_level":2,"rating":4.3,"reference":"ChIJMzNpFByPsUcRFV3bm-fNa84","types":["restaurant","food","point_of_interest","establishment"],"user_ratings_total":4372},{"business_status":"OPERATIONAL","formatted_address":"Bergstraße 17, 20095 Hamburg","geometry":{"location":{"lat":53.551398,"lng":9.994533599999999},"viewport":{"northeast":{"lat":53.55272962989272,"lng":9.995982779892723},"southwest":{"lat":53.55002997010727,"lng":9.993283120107279}}},"icon":"https://maps.gstatic.com/mapfiles/place_api/icons/v1/png_71/restaurant-71.png","icon_background_color":"#FF9E67","icon_mask_base_uri":"https://maps.gstatic.com/mapfiles/place_api/icons/v2/restaurant_pinlet","name":"Frittenwerk Hamburg","opening_hours":{"open_now":true},"photos":[{"height":3024,"html_attributions":["<a href=\"https://maps.google.com/maps/contrib/103123409218877623620\">A Google User</a>"],"photo_reference":"AeJbb3dujAeNaRhuaLN7hafOxSWd02Bgta34NZhtm3gQFRzb3UkLRuZj2oorbFS-tyO8f-iqiyj8VNaonxq0gDgbBvaljBBstq88O9u_k_29wMiOU9y20gMv_JShn8Xz9uwXPPjzTU6-BZ-C1AzQwCQ-FFMR5ewNCmInWy5gZ8M2xmS3z384","width":4032}],"place_id":"ChIJq7BwLMyPsUcRQwqHxbIsqLo","plus_code":{"compound_code":"HX2V+HR Hamburg","global_code":"9F5FHX2V+HR"},"price_level":2,"rating":4.3,"reference":"ChIJq7BwLMyPsUcRQwqHxbIsqLo","types":["restaurant","meal_takeaway","food","point_of_interest","establishment"],"user_ratings_total":976},{"business_status":"OPERATIONAL","formatted_address":"Clemens-Schultz-Straße 79, 20359 Hamburg","geometry":{"location":{"lat":53.5525887,"lng":9.9624975},"viewport":{"northeast":{"lat":53.55387342989272,"lng":9.96388092989272},"southwest":{"lat":53.55117377010728,"lng":9.961181270107277}}},"icon":"https://maps.gstatic.com/mapfiles/place_api/icons/v1/png_71/restaurant-71.png","icon_background_color":"#FF9E67","icon_mask_base_uri":"https://maps.gstatic.com/mapfiles/place_api/icons/v2/restaurant_pinlet","name":"Imbiß Mini-Grill","opening_hours":{"open_now":true},"photos":[{"height":4008,"html_attributions":["<a href=\"https://maps.google.com/maps/contrib/109841905560839428055\">Glenn Langhorst</a>"],"photo_reference":"AeJbb3e068jDnwUFitRqrM9OmTn9BSoinYpfqZZRuVnU0cPcALcr9-d0mBBQhGrfj_YcvXmKeHnwVBsWJZ_CGQqiqfwFEYFTG7WM42dlvyXPrq7mBMUMuFzwnSML-j898fbCVmcwFwAAkIUhyfEamD3f9jPEXgCIoyfbmxmXizPZ5xNSwBAz","width":5344}],"place_id":"ChIJxUWgf26PsUcRto0yv7h0qPM","plus_code":{"compound_code":"HX36+2X Hamburg","global_code":"9F5FHX36+2X"},"price_level":1,"rating":4.3,"reference":"ChIJxUWgf26PsUcRto0yv7h0qPM","types":["restaurant","food","point_of_interest","establishment"],"user_ratings_total":217},{"business_status":"OPERATIONAL","formatted_address":"Kieler Str. 685, 22527 Hamburg","geometry":{"location":{"lat":53.6056508,"lng":9.9086043},"viewport":{"northeast":{"lat":53.60704967989273,"lng":9.910051479892724},"southwest":{"lat":53.60435002010728,"lng":9.90735182010728}}},"icon":"https://maps.gstatic.com/mapfiles/place_api/icons/v1/png_71/restaurant-71.png","icon_background_color":"#FF9E67","icon_mask_base_uri":"https://maps.gstatic.com/mapfiles/place_api/icons/v2/restaurant_pinlet","name":"Champ Pizza & Burger","opening_hours":{"open_now":false},"photos":[{"height":1536,"html_attributions":["<a href=\"https://maps.google.com/maps/contrib/102219556517973193916\">A Google User</a>"],"photo_reference":"AeJbb3d8OtdY1bfX_N6e6muHEY1hDfIve_Qj_WC0YV4rLOjWEkUUI7UL8Kz20rfMjuvvIXMLS7dB0ePImVkMNb0NNYDJ1rjflGk427ZebefOEkeNCogWloqalIgb_3J3Z2RhIVZ4frdFHn4bsbCAG3QN9H5Zx1yS91BF3ejcHgUoasAEnMJb","width":2048}],"place_id":"ChIJC0Uuw2aGsUcR0qi6ZG5LH6E","plus_code":{"compound_code":"JW45+7C Hamburg","global_code":"9F5FJW45+7C"},"rating":4.3,"reference":"ChIJC0Uuw2aGsUcR0qi6ZG5LH6E","types":["meal_delivery","restaurant","food","point_of_interest","establishment"],"user_ratings_total":114},{"business_status":"OPERATIONAL","formatted_address":"Wendenstraße 8-12, 20097 Hamburg","geometry":{"location":{"lat":53.5468971,"lng":10.0258291},"viewport":{"northeast":{"lat":53.54830922989272,"lng":10.02713002989272},"southwest":{"lat":53.54560957010727,"lng":10.02443037010728}}},"icon":"https://maps.gstatic.com/mapfiles/place_api/icons/v1/png_71/restaurant-71.png","icon_background_color":"#FF9E67","icon_mask_base_uri":"https://maps.gstatic.com/mapfiles/place_api/icons/v2/restaurant_pinlet","name":"Fresh Food Factory","opening_hours":{"open_now":true},"photos":[{"height":2268,"html_attributions":["<a href=\"https://maps.google.com/maps/contrib/105042569812809731633\">Andreas.Stys</a>"],"photo_reference":"AeJbb3cz7FI4lUH2FseD8Zzr6l7gWbsRU3gkcnxsjwJTZ9IbCY7od5EqRNv83IT9alA9zy5f0ksp0UXy5ooqRJ6LLqDr_AIrtK7bIpOVKrTHWv-YG7EHa0vsQjAPlbE9jZ59gzPhKM3oSDeRQrzL4i7B_VV3mDgE86fZ2XaEQpdHTtRNhQTw","width":4032}],"place_id":"ChIJt0DsBO2OsUcRMT7-N1RWxOs","plus_code":{"compound_code":"G2WG+Q8 Hamburg","global_code":"9F5GG2WG+Q8"},"price_level":2,"rating":4.3,"reference":"ChIJt0DsBO2OsUcRMT7-N1RWxOs","types":["restaurant","point_of_interest","food","establishment"],"user_ratings_total":69},{"business_status":"OPERATIONAL","formatted_address":"Dammtorstraße 29-32, 20354 Hamburg","geometry":{"location":{"lat":53.556237,"lng":9.988603},"viewport":{"northeast":{"lat":53.55771507989272,"lng":9.989681879892721},"southwest":{"lat":53.55501542010727,"lng":9.986982220107278}}},"icon":"https://maps.gstatic.com/mapfiles/place_api/icons/v1/png_71/restaurant-71.png","icon_background_color":"#FF9E67","icon_mask_base_uri":"https://maps.gstatic.com/mapfiles/place_api/icons/v2/restaurant_pinlet","name":"Jim Block Dammtor","opening_hours":{"open_now":true},"photos":[{"height":3024,"html_attributions":["<a href=\"https://maps.google.com/maps/contrib/101374949893719923810\">TaeGeun Seong</a>"],"photo_reference":"AeJbb3c7Dz7OxitTI3IGyggZVekbvVF60J8fqxTthqCAWYKEW1DbbUXUVZrLPabiddsow3aBL1wgDjrNSOQna9ksMAJAY-BYDlxn91J_BplveuNJ6CMSfg-5NemRAw99O5BSYq4AC-RhGDHhTne3KcwZcyN2vtolCNYMag12aJ4M4dFSgmBc","width":4032}],"place_id":"ChIJMzNpFByPsUcRoFv6FwNkVGg","plus_code":{"compound_code":"HX4Q+FC Hamburg","global_code":"9F5FHX4Q+FC"},"price_level":2,"rating":4.2,"reference":"ChIJMzNpFByPsUcRoFv6FwNkVGg","types":["restaurant","food","point_of_interest","establishment"],"user_ratings_total":2357},{"business_status":"OPERATIONAL","formatted_address":"Kirchenallee 37, 20099 Hamburg","geometry":{"location":{"lat":53.5546884,"lng":10.008423},"viewport":{"northeast":{"lat":53.55601657989272,"lng":10.00965597989272},"southwest":{"lat":53.55331692010727,"lng":10.00695632010728}}},"icon":"https://maps.gstatic.com/mapfiles/place_api/icons/v1/png_71/restaurant-71.png","icon_background_color":"#FF9E67","icon_mask_base_uri":"https://maps.gstatic.com/mapfiles/place_api/icons/v2/restaurant_pinlet","name":"Jim Block Kirchenallee","opening_hours":{"open_now":true},"photos":[{"height":1166,"html_attributions":["<a href=\"https://maps.google.com/maps/contrib/101045475451277755462\">Jim Block Restaurantbetriebe GmbH</a>"],"photo_reference":"AeJbb3fIZV7FLyqTmrXaiZrCf7XlpwQ15BqU2UlxaK82KjglKQA0Na1dOPzeU98gUbj9z4_RJkdnJZH4TmFgpVqUbnlnLLxdBNGrvVHov1Sx-Qz4DFZ4ETE206cFtDIpbILoo6mWmhPjmvVC3cyu5eV4GAp0bxGqU_HxMbi4TK6OnCxlhjVS","width":1742}],"place_id":"ChIJ83sI1OCOsUcRc3ihKJSgfgI","plus_code":{"compound_code":"H235+V9 Hamburg","global_code":"9F5GH235+V9"},"price_level":2,"rating":4.2,"reference":"ChIJ83sI1OCOsUcRc3ihKJSgfgI","types":["restaurant","food","point_of_interest","establishment"],"user_ratings_total":1471},{"business_status":"OPERATIONAL","formatted_address":"Winsener Str. 229, 21077 Hamburg","geometry":{"location":{"lat":53.4218633,"lng":9.9818301},"viewport":{"northeast":{"lat":53.42328007989272,"lng":9.982791779892723},"southwest":{"lat":53.42058042010728,"lng":9.98009212010728}}},"icon":"https://maps.gstatic.com/mapfiles/place_api/icons/v1/png_71/restaurant-71.png","icon_background_color":"#FF9E67","icon_mask_base_uri":"https://maps.gstatic.com/mapfiles/place_api/icons/v2/restaurant_pinlet","name":"Virginia Burger","opening_hours":{"open_now":true},"photos":[{"height":2322,"html_attributions":["<a href=\"https://maps.google.com/maps/contrib/112302229263082452967\">Daniel-Hauke Adam</a>"],"photo_reference":"AeJbb3cTi-4waxx4AQ5fBUXtinfNjNfL1msQXx2UEFy1NZIW3exAX1q7qxK84rxYBPUogBc_Caj4BrWvoW5k-gF0VwGx3JAbNjFzkAy9EhXlgc9pSCsXtA1NnKdBjYpFej1fUTCAHChsD4xFEHGQ8dUOCqQBOueUBsJi6FeKOaiovdm-kOG8","width":4128}],"place_id":"ChIJP4LopDiRsUcRoLV7qDoGMR4","plus_code":{"compound_code":"CXCJ+PP Hamburg","global_code":"9F5FCXCJ+PP"},"price_level":2,"rating":4.2,"reference":"ChIJP4LopDiRsUcRoLV7qDoGMR4","types":["restaurant","food","point_of_interest","establishment"],"user_ratings_total":639},{"business_status":"OPERATIONAL","formatted_address":"Gänsemarkt 36, 20354 Hamburg","geometry":{"location":{"lat":53.5552017,"lng":9.9877991},"viewport":{"northeast":{"lat":53.55657207989272,"lng":9.989258179892722},"southwest":{"lat":53.55387242010728,"lng":9.986558520107279}}},"icon":"https://maps.gstatic.com/mapfiles/place_api/icons/v1/png_71/restaurant-71.png","icon_background_color":"#FF9E67","icon_mask_base_uri":"https://maps.gstatic.com/mapfiles/place_api/icons/v2/restaurant_pinlet","name":"Subway","opening_hours":{"open_now":true},"photos":[{"height":3072,"html_attributions":["<a href=\"https://maps.google.com/maps/contrib/106048252159271746773\">Philipp Klöckner</a>"],"photo_reference":"AeJbb3d38oOYQLxkXzAGZJYJubwkS7myiDkDQWhTsfF0H3pdjto8wO7OCNGKTp14JQUIYQ1WfnguFUu1sQ4w7T9ixxS6RNT4w2B-gvZBqgAtf1YaNihQDNIH5r9z1Y8XTTvfEoR_y49Vk4f0tGFfGnx9dAJ1RKqiKTza1UaMBu87GYFYsb7z","width":4080}],"place_id":"ChIJfcmXxRmPsUcRif6tRPMjvNA","plus_code":{"compound_code":"HX4Q+34 Hamburg","global_code":"9F5FHX4Q+34"},"price_level":2,"rating":4.2,"reference":"ChIJfcmXxRmPsUcRif6tRPMjvNA","types":["meal_takeaway","restaurant","food","point_of_interest","establishment"],"user_ratings_total":499},{"business_status":"OPERATIONAL","formatted_address":"Hammerbrookstraße 92-94, 20097 Hamburg","geometry":{"location":{"lat":53.5440589,"lng":10.0253842},"viewport":{"northeast":{"lat":53.54548662989272,"lng":10.02688957989272},"southwest":{"lat":53.54278697010728,"lng":10.02418992010728}}},"icon":"https://maps.gstatic.com/mapfiles/place_api/icons/v1/png_71/restaurant-71.png","icon_background_color":"#FF9E67","icon_mask_base_uri":"https://maps.gstatic.com/mapfiles/place_api/icons/v2/restaurant_pinlet","name":"Subway","opening_hours":{"open_now":true},"photos":[{"height":4032,"html_attributions":["<a href=\"https://maps.google.com/maps/contrib/104119811319363934557\">Robin Singh</a>"],"photo_reference":"AeJbb3eGJEGBQHiAJ2hCrmsQZBxUgRiwuHzbhYJtDgumC2oMKKwmd-ksPfU4dwLDHy1dV0OfwuCgr5eDTbMrYn7_iAfz7_cFXvQwSJWuhUqb_mSBocOk0JBEEY2faLAhec5I6SkrnMNXSlLfToINbMYME7CCZF5K42zEUktwyygFgDv1xfLk","width":3024}],"place_id":"ChIJA8psnPKOsUcReP4MnGPx89c","plus_code":{"compound_code":"G2VG+J5 Hamburg","global_code":"9F5GG2VG+J5"},"price_level":2,"rating":4.2,"reference":"ChIJA8psnPKOsUcReP4MnGPx89c","types":["meal_takeaway","restaurant","point_of_interest","food","establishment"],"user_ratings_total":289},{"business_status":"OPERATIONAL","formatted_address":"Phoenix Center, Hannoversche Str. 86, 21079 Hamburg","geometry":{"location":{"lat":53.45626,"lng":9.98639},"viewport":{"northeast":{"lat":53.45756247989272,"lng":9.987649879892722},"southwest":{"lat":53.45486282010727,"lng":9.984950220107278}}},"icon":"https://maps.gstatic.com/mapfiles/place_api/icons/v1/png_71/restaurant-71.png","icon_background_color":"#FF9E67","icon_mask_base_uri":"https://maps.gstatic.com/mapfiles/place_api/icons/v2/restaurant_pinlet","name":"Subway","opening_hours":{"open_now":true},"photos":[{"height":1440,"html_attributions":["<a href=\"https://maps.google.com/maps/contrib/110250918622453483247\">Sebastian Giertz</a>"],"photo_reference":"AeJbb3co-LVyuHuZihBFhq8kF05fNzZpPi9R0tfdwS-mPd4Sye0cO5q-Jxrb2UIMPXaGT0OOeGdVC5skXe7OLrpquowrFdCCWlKLIJ9NIpPvveQzwbNHYOm0qk3J5g6r8JVmauTEH9lLAmbCxGNGb0feGPtWK4zza-2fxdqd7_iQSK7tMfdi","width":2560}],"place_id":"ChIJadKvE6SRsUcRqfHYBXntwas","plus_code":{"compound_code":"FX4P+GH Hamburg","global_code":"9F5FFX4P+GH"},"price_level":2,"rating":4.2,"reference":"ChIJadKvE6SRsUcRqfHYBXntwas","types":["meal_takeaway","restaurant","food","point_of_interest","establishment"],"user_ratings_total":288},{"business_status":"OPERATIONAL","formatted_address":"Fuhlsbüttler Str. 104, 22305 Hamburg","geometry":{"location":{"lat":53.58817029999999,"lng":10.046522},"viewport":{"northeast":{"lat":53.58953342989272,"lng":10.04758767989272},"southwest":{"lat":53.58683377010728,"lng":10.04488802010728}}},"icon":"https://maps.gstatic.com/mapfiles/place_api/icons/v1/png_71/restaurant-71.png","icon_background_color":"#FF9E67","icon_mask_base_uri":"https://maps.gstatic.com/mapfiles/place_api/icons/v2/restaurant_pinlet","name":"Croque Star","opening_hours":{"open_now":true},"photos":[{"height":1440,"html_attributions":["<a href=\"https://maps.google.com/maps/contrib/107950133443883931641\">julia O</a>"],"photo_reference":"AeJbb3f277Yx1FTW9SzGa8mQGsTU3-n42PKWQskBcfcIH_yFFl8mQg420yliIWDhd5nsq3SeG9WPHLB3I7cAR901-vJuce_Ee8foCTN_PYI8ZEi9EzmuSKHjwFF7PS-Wuhb2rUVOf5kx_5RHu12KA9sL4gJvMvtc3t5pCqnW9EowWjmqbnI4","width":1440}],"place_id":"ChIJQQOvuUeJsUcRdwmQ23iVgkM","plus_code":{"compound_code":"H2QW+7J Hamburg","global_code":"9F5GH2QW+7J"},"rating":4.1,"reference":"ChIJQQOvuUeJsUcRdwmQ23iVgkM","types":["restaurant","food","point_of_interest","establishment"],"user_ratings_total":294},{"business_status":"OPERATIONAL","formatted_address":"Reeperbahn 29, 20359 Hamburg","geometry":{"location":{"lat":53.5500854,"lng":9.9657474},"viewport":{"northeast":{"lat":53.55133912989272,"lng":9.96712502989272},"southwest":{"lat":53.54863947010728,"lng":9.964425370107277}}},"icon":"https://maps.gstatic.com/mapfiles/place_api/icons/v1/png_71/restaurant-71.png","icon_background_color":"#FF9E67","icon_mask_base_uri":"https://maps.gstatic.com/mapfiles/place_api/icons/v2/restaurant_pinlet","name":"Hesburger","opening_hours":{"open_now":false},"photos":[{"height":960,"html_attributions":["<a href=\"https://maps.google.com/maps/contrib/103707564137435321492\">Nico Bärenfänger</a>"],"photo_reference":"AeJbb3dwZgukWB44iyVtzhS1CfBc4wOyay3_pyO7YO8LdXqaaDvEMhOPO6THCsCy10EIZQgqkVqRAt8wIsOmOPm9ZW0r_zbq9UnSirPRp4pKEwihBJhfRkinkpfPfiTutx2RHjJ4RCFNInlqsm0PgBTh9PF7eH5PIYplJEmLkXwjKZ8-0ck7","width":1280}],"place_id":"ChIJ5Q75LnCPsUcRPhZPvQeFamE","plus_code":{"compound_code":"HX28+27 Hamburg","global_code":"9F5FHX28+27"},"price_level":1,"rating":4.1,"reference":"ChIJ5Q75LnCPsUcRPhZPvQeFamE","types":["restaurant","point_of_interest","food","establishment"],"user_ratings_total":154},{"business_status":"OPERATIONAL","formatted_address":"Billstedter Hauptstraße 51, 22111 Hamburg","geometry":{"location":{"lat":53.5400886,"lng":10.1025783},"viewport":{"northeast":{"lat":53.54137992989272,"lng":10.10387542989272},"southwest":{"lat":53.53868027010728,"lng":10.10117577010728}}},"icon":"https://maps.gstatic.com/mapfiles/place_api/icons/v1/png_71/restaurant-71.png","icon_background_color":"#FF9E67","icon_mask_base_uri":"https://maps.gstatic.com/mapfiles/place_api/icons/v2/restaurant_pinlet","name":"CHICKEN ZONE & KEBAB ZONE","opening_hours":{"open_now":true},"photos":[{"height":3024,"html_attributions":["<a href=\"https://maps.google.com/maps/contrib/101939159074631969450\">Radwan Darwish</a>"],"photo_reference":"AeJbb3emLqU3iiCrvckpDWZU_qCIggy72vOO_0NdfrbkWyfyNNIGgexnNkhGTBfVDCM1yZuLg2Rfmqujw0zsKjzB11tGany_tbGq6nCPDEUZDj86gYqTB6K62-Hs8U_XIjV0Rb31d8HBOd6k7LGMPVXxlAZAM6V7deM9OgbW2C5zy0ANYk00","width":4032}],"place_id":"ChIJR-gVIwSNsUcRFxR5QNCcW1k","plus_code":{"compound_code":"G4R3+22 Hamburg","global_code":"9F5GG4R3+22"},"rating":4,"reference":"ChIJR-gVIwSNsUcRFxR5QNCcW1k","types":["meal_takeaway","restaurant","point_of_interest","food","establishment"],"user_ratings_total":832},{"business_status":"OPERATIONAL","formatted_address":"Lübecker Str. 25A, 22087 Hamburg","geometry":{"location":{"lat":53.56046749999999,"lng":10.028854},"viewport":{"northeast":{"lat":53.56169807989273,"lng":10.03032082989272},"southwest":{"lat":53.55899842010728,"lng":10.02762117010728}}},"icon":"https://maps.gstatic.com/mapfiles/place_api/icons/v1/png_71/restaurant-71.png","icon_background_color":"#FF9E67","icon_mask_base_uri":"https://maps.gstatic.com/mapfiles/place_api/icons/v2/restaurant_pinlet","name":"Burger Lounge Wandsbek","opening_hours":{"open_now":true},"photos":[{"height":2988,"html_attributions":["<a href=\"https://maps.google.com/maps/contrib/112045805907991161805\">Harald Kerscher</a>"],"photo_reference":"AeJbb3e-Rq-RouUETqaz0lYD8o8pqURsVYlo7uX80_OYcj59VKzZ6XObtRh_wgD9iRondhEUDM2PBnGx6lfx_tLbPuFobxj5J4qoqvyJAY9oybl2m-eea2zQrE0xbRTPqAP94UCuo43s1K8G0-n5UW-LOnnP_2I01YV9tUaHu-n8utkcV1Fx","width":5312}],"place_id":"ChIJf6CuK8GOsUcRenUqKA9syRo","plus_code":{"compound_code":"H26H+5G Hamburg","global_code":"9F5GH26H+5G"},"price_level":2,"rating":4,"reference":"ChIJf6CuK8GOsUcRenUqKA9syRo","types":["restaurant","food","point_of_interest","establishment"],"user_ratings_total":736},{"business_status":"OPERATIONAL","formatted_address":"Barnerstraße 42, 22765 Hamburg","geometry":{"location":{"lat":53.5561649,"lng":9.927987199999999},"viewport":{"northeast":{"lat":53.55746812989272,"lng":9.92939992989272},"southwest":{"lat":53.55476847010727,"lng":9.926700270107276}}},"icon":"https://maps.gstatic.com/mapfiles/place_api/icons/v1/png_71/restaurant-71.png","icon_background_color":"#FF9E67","icon_mask_base_uri":"https://maps.gstatic.com/mapfiles/place_api/icons/v2/restaurant_pinlet","name":"Babylon","opening_hours":{"open_now":true},"photos":[{"height":2976,"html_attributions":["<a href=\"https://maps.google.com/maps/contrib/111783590916716019250\">Fabian S.</a>"],"photo_reference":"AeJbb3fov6WKVeLr5lkT9fKO_KgU3ABIclCnJcr48UgZSvv3govWeX-CmAMXrxWm1yXXP6E-0lewnPqTm6DiOkyC8-ms2Q4l1w6aM735omzjudNQjTe1u40PGjndbWil-34dj9hDhxMk8owjEALHgEaz61gO_fhxuDgT4YVMR0X0RgHluLUZ","width":3968}],"place_id":"ChIJ90oWN46FsUcRzN0XkSn-RGE","plus_code":{"compound_code":"HW4H+F5 Hamburg","global_code":"9F5FHW4H+F5"},"rating":4,"reference":"ChIJ90oWN46FsUcRzN0XkSn-RGE","types":["restaurant","food","point_of_interest","establishment"],"user_ratings_total":56},{"business_status":"OPERATIONAL","formatted_address":"Amandus-Stubbe-Straße 8, 22113 Hamburg","geometry":{"location":{"lat":53.50463939999999,"lng":10.0897704},"viewport":{"northeast":{"lat":53.50616432989272,"lng":10.09128027989272},"southwest":{"lat":53.50346467010728,"lng":10.08858062010728}}},"icon":"https://maps.gstatic.com/mapfiles/place_api/icons/v1/png_71/restaurant-71.png","icon_background_color":"#FF9E67","icon_mask_base_uri":"https://maps.gstatic.com/mapfiles/place_api/icons/v2/restaurant_pinlet","name":"McDonald's","opening_hours":{"open_now":true},"photos":[{"height":3024,"html_attributions":["<a href=\"https://maps.google.com/maps/contrib/100385846040050050068\">A Google User</a>"],"photo_reference":"AeJbb3fcnv3I7o8kaz5K7wZ7fEDlcgLIcKvUZhPbBccNFkYeur7ootf3TAa11uiUSvvVek_PwaTWHDthkpqUiRkQ7ofCi3XtpPV48ec8xLYLkk21yGY2x-2nFpm7h_PlJjB0lp8cfsykHX7BbfuHC40lUiBicx1qEdiv4fl_CmG_52gGqk3a","width":4032}],"place_id":"ChIJc2uPU72NsUcRqjjAKkzOi2A","plus_code":{"compound_code":"G33Q+VW Hamburg","global_code":"9F5GG33Q+VW"},"price_level":2,"rating":3.9,"reference":"ChIJc2uPU72NsUcRqjjAKkzOi2A","types":["restaurant","food","point_of_interest","establishment"],"user_ratings_total":1458},{"business_status":"OPERATIONAL","formatted_address":"Hoheluftchaussee 28, 20253 Hamburg","geometry":{"location":{"lat":53.579937,"lng":9.9747142},"viewport":{"northeast":{"lat":53.58124797989272,"lng":9.975933529892723},"southwest":{"lat":53.57854832010728,"lng":9.97323387010728}}},"icon":"https://maps.gstatic.com/mapfiles/place_api/icons/v1/png_71/restaurant-71.png","icon_background_color":"#FF9E67","icon_mask_base_uri":"https://maps.gstatic.com/mapfiles/place_api/icons/v2/restaurant_pinlet","name":"Subway","opening_hours":{"open_now":true},"photos":[{"height":4048,"html_attributions":["<a href=\"https://maps.google.com/maps/contrib/106764496988134949940\">Alex K</a>"],"photo_reference":"AeJbb3czntKKjs4UBx-0k37NtoMHkBg189R_ch7sZzStEGHXNWkbi2CxRGcKOmWm0WSPGbKEbsOvmof5X1RMPjR0uO-QHOOuRqfnLGjtpRTSLa9bySJGMD11kljo5jQlYiIyy6wtBBgg8lEqbpJ2oIkptLp4uyvpwd-UwYpMZIM4wRfMaiOS","width":3036}],"place_id":"ChIJ-47MbEuPsUcRQvISbj8nhyU","plus_code":{"compound_code":"HXHF+XV Hamburg","global_code":"9F5FHXHF+XV"},"price_level":2,"rating":3.9,"reference":"ChIJ-47MbEuPsUcRQvISbj8nhyU","types":["meal_takeaway","restaurant","food","point_of_interest","establishment"],"user_ratings_total":454},{"business_status":"OPERATIONAL","formatted_address":"Fuhlsbüttler Str. 166, 22305 Hamburg","geometry":{"location":{"lat":53.5920849,"lng":10.0444761},"viewport":{"northeast":{"lat":53.59320112989271,"lng":10.04572437989272},"southwest":{"lat":53.59050147010727,"lng":10.04302472010728}}},"icon":"https://maps.gstatic.com/mapfiles/place_api/icons/v1/png_71/restaurant-71.png","icon_background_color":"#FF9E67","icon_mask_base_uri":"https://maps.gstatic.com/mapfiles/place_api/icons/v2/restaurant_pinlet","name":"Chicken Spot GmbH","opening_hours":{"open_now":false},"photos":[{"height":2268,"html_attributions":["<a href=\"https://maps.google.com/maps/contrib/114042512631562572588\">master Hamburg</a>"],"photo_reference":"AeJbb3dRzKxVd4ExIqtxO0vWLy1nGfRB3LKhQfIdaLwsKZIeMq4YqL109xe4XHJWFCxlbzoCrM1ozT7X8EcuJhZuY2FqSMLu37_GSEZcQO9PSTNfrdS79P6GXUEXS3sO8dpWGJwMapnJ3WP5RN0Qi_9HRmkMfrvPg9pgRAqD_dqrkpQUSrs","width":4032}],"place_id":"ChIJKwAnsDiJsUcRhozQg0GK7r8","plus_code":{"compound_code":"H2RV+RQ Hamburg","global_code":"9F5GH2RV+RQ"},"rating":3.9,"reference":"ChIJKwAnsDiJsUcRhozQg0GK7r8","types":["restaurant","point_of_interest","food","establishment"],"user_ratings_total":419},{"business_status":"OPERATIONAL","formatted_address":"Schulterblatt 70, 20357 Hamburg","geometry":{"location":{"lat":53.5617598,"lng":9.9623488},"viewport":{"northeast":{"lat":53.56308867989272,"lng":9.96365347989272},"southwest":{"lat":53.56038902010727,"lng":9.960953820107276}}},"icon":"https://maps.gstatic.com/mapfiles/place_api/icons/v1/png_71/restaurant-71.png","icon_background_color":"#FF9E67","icon_mask_base_uri":"https://maps.gstatic.com/mapfiles/place_api/icons/v2/restaurant_pinlet","name":"Schmitt Foxy Food","opening_hours":{"open_now":true},"photos":[{"height":9000,"html_attributions":["<a href=\"https://maps.google.com/maps/contrib/108088082721475743444\">martin. weber</a>"],"photo_reference":"AeJbb3ehMnScz8MVvqXIyfmr83RPbp6dzOH3jDxWphVDyMCkOrWtLUv71-umGXkKyaiM8vn-LKCfGuFJzi_sEvP3HhT5Am0ktyWidqBMl_GSZsL8S4915zM-pzm2TtG0t-HIZx3EPfry09I48FtQyEV-ORHXLPBJ68z7j6r53fLg-yOHppHS","width":12000}],"place_id":"ChIJ65DViUKPsUcRd3BjRoRxwf0","plus_code":{"compound_code":"HX66+PX Hamburg","global_code":"9F5FHX66+PX"},"price_level":2,"rating":3.9,"reference":"ChIJ65DViUKPsUcRd3BjRoRxwf0","types":["restaurant","food","point_of_interest","establishment"],"user_ratings_total":336},{"business_status":"OPERATIONAL","formatted_address":"Ballindamm 40, 20095 Hamburg","geometry":{"location":{"lat":53.5513679,"lng":9.996944},"viewport":{"northeast":{"lat":53.55277097989271,"lng":9.998454529892722},"southwest":{"lat":53.55007132010727,"lng":9.995754870107278}}},"icon":"https://maps.gstatic.com/mapfiles/place_api/icons/v1/png_71/restaurant-71.png","icon_background_color":"#FF9E67","icon_mask_base_uri":"https://maps.gstatic.com/mapfiles/place_api/icons/v2/restaurant_pinlet","name":"Food Sky","opening_hours":{"open_now":true},"photos":[{"height":3436,"html_attributions":["<a href=\"https://maps.google.com/maps/contrib/110374751752012791561\">sebastian köller</a>"],"photo_reference":"AeJbb3cjUIK17lRLtjfhDhl10kKIob8AHZF53kcUk5-RrdirSLAuEBcJaH4V-ttPSf90ARWIuYV3ATzleb0vH36H_fcdTR6qOSjsL6Tzto4ANwYOf3WW65QgeuwzZt8on3zhfvNpYZcH8SFbwiw50JyavmhbCkCK8lxuIEU7nGXz94zoZyXI","width":7275}],"place_id":"ChIJVVUFyR2PsUcRdjGvfXIJTFk","plus_code":{"compound_code":"HX2W+GQ Hamburg","global_code":"9F5FHX2W+GQ"},"price_level":2,"rating":3.9,"reference":"ChIJVVUFyR2PsUcRdjGvfXIJTFk","types":["restaurant","point_of_interest","food","establishment"],"user_ratings_total":141},{"business_status":"OPERATIONAL","formatted_address":"Ballindamm 38, 20095 Hamburg","geometry":{"location":{"lat":53.5521416,"lng":9.9957523},"viewport":{"northeast":{"lat":53.55354147989272,"lng":9.99694447989272},"southwest":{"lat":53.55084182010728,"lng":9.994244820107276}}},"icon":"https://maps.gstatic.com/mapfiles/place_api/icons/v1/png_71/restaurant-71.png","icon_background_color":"#FF9E67","icon_mask_base_uri":"https://maps.gstatic.com/mapfiles/place_api/icons/v2/restaurant_pinlet","name":"Subway","opening_hours":{"open_now":true},"photos":[{"height":1600,"html_attributions":["<a href=\"https://maps.google.com/maps/contrib/103676596850717070674\">A Google User</a>"],"photo_reference":"AeJbb3fjEGQKBMSHKGwMZFSNvAjcz9-vYvQeje1TQVsdJ7zOwGDQdnFcTwfy67pjwEQcKjmTHolpTMtEQmjPddLXcTSatqQrn6NGpIf0gc-9drjNWXpKqXZaeL_mVroRu35gULOJebFCenzpAA_itIEogstVLTjhwe4qfYgCaJh91y-Mgaay","width":1200}],"place_id":"ChIJI4Q_IxyPsUcROICQjrIZqWk","plus_code":{"compound_code":"HX2W+V8 Hamburg","global_code":"9F5FHX2W+V8"},"price_level":2,"rating":3.8,"reference":"ChIJI4Q_IxyPsUcROICQjrIZqWk","types":["meal_takeaway","restaurant","food","point_of_interest","establishment"],"user_ratings_total":722},{"business_status":"OPERATIONAL","formatted_address":"Lehfeld 2, 21029 Hamburg","geometry":{"location":{"lat":53.4804919,"lng":10.2070639},"viewport":{"northeast":{"lat":53.48173687989272,"lng":10.20831342989272},"southwest":{"lat":53.47903722010728,"lng":10.20561377010728}}},"icon":"https://maps.gstatic.com/mapfiles/place_api/icons/v1/png_71/restaurant-71.png","icon_background_color":"#FF9E67","icon_mask_base_uri":"https://maps.gstatic.com/mapfiles/place_api/icons/v2/restaurant_pinlet","name":"McDonald's","opening_hours":{"open_now":true},"photos":[{"height":3024,"html_attributions":["<a href=\"https://maps.google.com/maps/contrib/112007385922051087111\">Hermann Niesig</a>"],"photo_reference":"AeJbb3c1G9INbX8bGV9Pmo7Pj5NeDojbKXJGsBH2hs1Tf-tPAU4KHP2oeQ0cWEwQ_TYTvW7xvmL_yEolt5MXI-KbzDyDrs8K70bxk3lFfYYxgl6AqoEq9P8uaA5tOdtrIZtvb0lxl9GTq2FBhVYNcGsc6psEni0lQdDN5vnYoA-iYhS4ga1g","width":4032}],"place_id":"ChIJAaPoAITysUcRx1N8AmozaqI","plus_code":{"compound_code":"F6J4+6R Hamburg","global_code":"9F5GF6J4+6R"},"price_level":2,"rating":3.7,"reference":"ChIJAaPoAITysUcRx1N8AmozaqI","types":["restaurant","food","point_of_interest","establishment"],"user_ratings_total":1556},{"business_status":"OPERATIONAL","formatted_address":"Eiffestraße 440, 20537 Hamburg","geometry":{"location":{"lat":53.5520793,"lng":10.0464022},"viewport":{"northeast":{"lat":53.55359612989272,"lng":10.04771277989272},"southwest":{"lat":53.55089647010728,"lng":10.04501312010728}}},"icon":"https://maps.gstatic.com/mapfiles/place_api/icons/v1/png_71/restaurant-71.png","icon_background_color":"#FF9E67","icon_mask_base_uri":"https://maps.gstatic.com/mapfiles/place_api/icons/v2/restaurant_pinlet","name":"McDonald's","opening_hours":{"open_now":true},"photos":[{"height":3024,"html_attributions":["<a href=\"https://maps.google.com/maps/contrib/117930746284118278293\">Chiara Maria Cervetta</a>"],"photo_reference":"AeJbb3e0qQtvVl8yMHRuWo1BArP_pSkk_XjqVhl8u1ICiJG7QIH-_LHnq1p2IIuAR0YGtXAvXfXil8UEByJYefukT7AQoOs1xGYInZ25ofR4FcF1TV--yng05DjpPnOgluf0WVe0x19W5Yk004AHbSnBqURY2fUh2S9gvHW4e7xIRykhkqVj","width":4032}],"place_id":"ChIJgYimH4aFsUcRTLfDySrk-qo","plus_code":{"compound_code":"H22W+RH Hamburg","global_code":"9F5GH22W+RH"},"price_level":2,"rating":3.6,"reference":"ChIJgYimH4aFsUcRTLfDySrk-qo","types":["restaurant","food","point_of_interest","establishment"],"user_ratings_total":2962},{"business_status":"OPERATIONAL","formatted_address":"Kollaustraße 25, 22529 Hamburg","geometry":{"location":{"lat":53.6021387,"lng":9.9618316},"viewport":{"northeast":{"lat":53.60356887989272,"lng":9.96310627989272},"southwest":{"lat":53.60086922010728,"lng":9.960406620107277}}},"icon":"https://maps.gstatic.com/mapfiles/place_api/icons/v1/png_71/restaurant-71.png","icon_background_color":"#FF9E67","icon_mask_base_uri":"https://maps.gstatic.com/mapfiles/place_api/icons/v2/restaurant_pinlet","name":"McDonald's","opening_hours":{"open_now":true},"photos":[{"height":3024,"html_attributions":["<a href=\"https://maps.google.com/maps/contrib/112867061937933388555\">112867061937933388555</a>"],"photo_reference":"AeJbb3cLYp6Dr_4MWstdcVQUt9pzvEA2Wha3G0z23emKjT39jWW355mdg0NMmGfHdNp2mI86s8NxjRiZOCkIbeECZLw04b4yEwYsDdIHiHwu5IRrIr9NXgwiAfuMmjU80-AB7ltBQNia8AAZszujakyUzPQRr-9nEAQnb85Yu9X5L_-T7cvO","width":4032}],"place_id":"ChIJgYimH4aFsUcRAr9nktyiiUI","plus_code":{"compound_code":"JX26+VQ Hamburg","global_code":"9F5FJX26+VQ"},"price_level":2,"rating":3.6,"reference":"ChIJgYimH4aFsUcRAr9nktyiiUI","types":["restaurant","food","point_of_interest","establishment"],"user_ratings_total":2301},{"business_status":"OPERATIONAL","formatted_address":"Langenhorner Chaussee 287, 22415 Hamburg","geometry":{"location":{"lat":53.653723,"lng":10.0055307},"viewport":{"northeast":{"lat":53.65512642989272,"lng":10.00705922989272},"southwest":{"lat":53.65242677010728,"lng":10.00435957010728}}},"icon":"https://maps.gstatic.com/mapfiles/place_api/icons/v1/png_71/restaurant-71.png","icon_background_color":"#FF9E67","icon_mask_base_uri":"https://maps.gstatic.com/mapfiles/place_api/icons/v2/restaurant_pinlet","name":"McDonald's","opening_hours":{"open_now":true},"photos":[{"height":3024,"html_attributions":["<a href=\"https://maps.google.com/maps/contrib/112344071865731783706\">Klaus Mack</a>"],"photo_reference":"AeJbb3fHv1_Ahtk0YjLCR7J7CtvNVeRhK0oUxHko22raupKELPowqkIbsf_7m9vLjzkyutfL9kXUMa88vCZKl3OS9yeCoiRQEDK07_dXZ4nQwbpgyEsVD2EoB6LH6QlvRkdVxBcdrrWpAH3bCGzw5JalMUSL96ORKyVZ2RUxNiI_eBpzfM-y","width":4032}],"place_id":"ChIJgYimH4aFsUcRDepCdb1bC4c","plus_code":{"compound_code":"M234+F6 Hamburg","global_code":"9F5GM234+F6"},"price_level":2,"rating":3.6,"reference":"ChIJgYimH4aFsUcRDepCdb1bC4c","types":["restaurant","food","point_of_interest","establishment"],"user_ratings_total":2016},{"business_status":"OPERATIONAL","formatted_address":"Europa Passage, Ballindamm 40, 20095 Hamburg","geometry":{"location":{"lat":53.55179769999999,"lng":9.99532},"viewport":{"northeast":{"lat":53.55327232989272,"lng":9.996563229892722},"southwest":{"lat":53.55057267010728,"lng":9.993863570107278}}},"icon":"https://maps.gstatic.com/mapfiles/place_api/icons/v1/png_71/restaurant-71.png","icon_background_color":"#FF9E67","icon_mask_base_uri":"https://maps.gstatic.com/mapfiles/place_api/icons/v2/restaurant_pinlet","name":"McDonald's","opening_hours":{"open_now":true},"photos":[{"height":3024,"html_attributions":["<a href=\"https://maps.google.com/maps/contrib/112743815790971081952\">Fawad</a>"],"photo_reference":"AeJbb3ergA1h9hpwceK2m-awSWX5fRwAusHYIpc4jAmPG6verP9BY7jCKYP4geH3cBGLtQh5IN5f_g75bvJfwTWSZXu1k_-n4rg_UbZ11L6xHbjDBqFf2IF49XkCrwEvDhQdleBFUNQdHWN35scVwHTti_hTASv0NrYpQ0Z_OXBtjevJm4Ws","width":4032}],"place_id":"ChIJgYimH4aFsUcR2vsrRiBjfno","plus_code":{"compound_code":"HX2W+P4 Hamburg","global_code":"9F5FHX2W+P4"},"price_level":2,"rating":3.6,"reference":"ChIJgYimH4aFsUcR2vsrRiBjfno","types":["restaurant","point_of_interest","food","establishment"],"user_ratings_total":1901},{"business_status":"OPERATIONAL","formatted_address":"Ida-Ehre-Platz 10, 20095 Hamburg","geometry":{"location":{"lat":53.5504803,"lng":9.999509699999999},"viewport":{"northeast":{"lat":53.55201392989272,"lng":10.00075607989272},"southwest":{"lat":53.54931427010727,"lng":9.998056420107277}}},"icon":"https://maps.gstatic.com/mapfiles/place_api/icons/v1/png_71/restaurant-71.png","icon_background_color":"#FF9E67","icon_mask_base_uri":"https://maps.gstatic.com/mapfiles/place_api/icons/v2/restaurant_pinlet","name":"McDonald's","opening_hours":{"open_now":true},"photos":[{"height":2976,"html_attributions":["<a href=\"https://maps.google.com/maps/contrib/105968925385401017337\">Christel Dönitz</a>"],"photo_reference":"AeJbb3dPISxGK9-Sqe-ciU9uJnIeSEaetXam39Nl030x-evBCub73cxBf360gShCsouuKq3qUf_49OgLfYT1-m1xSGYRF1S3GrKi6WhNZzyyOrV83k707XIlaCgpX4PVdj4c4IPl34z7Io8jHtX3A2THikuvPYj9Z_afshchyMNa6EBuow_b","width":3968}],"place_id":"ChIJh2vuix2PsUcRJSZsCWEXMr4","plus_code":{"compound_code":"HX2X+5R Hamburg","global_code":"9F5FHX2X+5R"},"price_level":2,"rating":3.5,"reference":"ChIJh2vuix2PsUcRJSZsCWEXMr4","types":["restaurant","food","point_of_interest","establishment"],"user_ratings_total":2141},{"business_status":"OPERATIONAL","formatted_address":"Eiffestraße 64, 20537 Hamburg","geometry":{"location":{"lat":53.5521053,"lng":10.037185},"viewport":{"northeast":{"lat":53.55343387989272,"lng":10.03843252989272},"southwest":{"lat":53.55073422010727,"lng":10.03573287010728}}},"icon":"https://maps.gstatic.com/mapfiles/place_api/icons/v1/png_71/restaurant-71.png","icon_background_color":"#FF9E67","icon_mask_base_uri":"https://maps.gstatic.com/mapfiles/place_api/icons/v2/restaurant_pinlet","name":"Burger King Borgfelde","opening_hours":{"open_now":true},"photos":[{"height":3024,"html_attributions":["<a href=\"https://maps.google.com/maps/contrib/117136137245444408437\">Nuri Hemissi</a>"],"photo_reference":"AeJbb3fZ4kmnR05v3_wb6RDKLP8qoUK6U1u32eixY-RZgtU0l6EzFds53DUnLrw-b5gCSvEp0d5iBTkxxagLboYXIXqA_FlryvjeOKWu0MdprHlXWSpiWu4q-EsF60hJV6rj1n2ucjOmruxtQFvxPg49IYOJFL1l0XAZ35R-HKrOrkK2er0_","width":4032}],"place_id":"ChIJBROl0JWOsUcRzpM0Cq9wu2M","plus_code":{"compound_code":"H22P+RV Hamburg","global_code":"9F5GH22P+RV"},"price_level":2,"rating":3.5,"reference":"ChIJBROl0JWOsUcRzpM0Cq9wu2M","types":["restaurant","point_of_interest","food","establishment"],"user_ratings_total":2053},{"business_status":"OPERATIONAL","formatted_address":"Kieler Str. 222, 22525 Hamburg","geometry":{"location":{"lat":53.5783244,"lng":9.937133099999999},"viewport":{"northeast":{"lat":53.57963742989272,"lng":9.938394279892721},"southwest":{"lat":53.57693777010728,"lng":9.935694620107277}}},"icon":"https://maps.gstatic.com/mapfiles/place_api/icons/v1/png_71/restaurant-71.png","icon_background_color":"#FF9E67","icon_mask_base_uri":"https://maps.gstatic.com/mapfiles/place_api/icons/v2/restaurant_pinlet","name":"Burger King","opening_hours":{"open_now":true},"photos":[{"height":1080,"html_attributions":["<a href=\"https://maps.google.com/maps/contrib/100004914344312629755\">Floh pack</a>"],"photo_reference":"AeJbb3eT8z4vBjw_CikM4NLtNEsb_jBlLwSFI67JHyMWtQHcy_uFhoQUQZ7219aL1FQt0AuYFX7ygSbDqDn6Glf9PxEDNv14WdO9w1VlqBFepxTUIQ48ExVyUGwzITaXHOxeyTp4wjrENk7hjLKBBCLg_DCW1UA3HW2J6wiud7_IlTzFQBoH","width":1920}],"place_id":"ChIJZz6ZXvuFsUcRjPy9IXeA_ak","plus_code":{"compound_code":"HWHP+8V Hamburg","global_code":"9F5FHWHP+8V"},"price_level":2,"rating":3.5,"reference":"ChIJZz6ZXvuFsUcRjPy9IXeA_ak","types":["restaurant","food","point_of_interest","establishment"],"user_ratings_total":2050},{"business_status":"OPERATIONAL","formatted_address":"Steilshooper Allee 5-7, 22309 Hamburg","geometry":{"location":{"lat":53.60873530000001,"lng":10.0461928},"viewport":{"northeast":{"lat":53.61015507989271,"lng":10.04752262989272},"southwest":{"lat":53.60745542010727,"lng":10.04482297010728}}},"icon":"https://maps.gstatic.com/mapfiles/place_api/icons/v1/png_71/restaurant-71.png","icon_background_color":"#FF9E67","icon_mask_base_uri":"https://maps.gstatic.com/mapfiles/place_api/icons/v2/restaurant_pinlet","name":"McDonald's","opening_hours":{"open_now":true},"photos":[{"height":1280,"html_attributions":["<a href=\"https://maps.google.com/maps/contrib/105445816006487649614\">Anja Steinort-Bialke</a>"],"photo_reference":"AeJbb3dtIUp-ePsAbn6VV1EPy4HaA3FaBv-si-NUjijBkYrI5qFC0OFaDDXJ27wnrctRUcsVwAgT5aiDisA7KeNxMCaR_ELYb60H652yHJj-LTeMlnwu95jGmLhTLrlWdjWj7ftCGMNEwEvmpHDPUDRgkU2E4dGge7RnHiDZzG2WgSX9iT2N","width":720}],"place_id":"ChIJgYimH4aFsUcR8CyUt6UvOB4","plus_code":{"compound_code":"J25W+FC Hamburg","global_code":"9F5GJ25W+FC"},"price_level":2,"rating":3.5,"reference":"ChIJgYimH4aFsUcR8CyUt6UvOB4","types":["restaurant","food","point_of_interest","establishment"],"user_ratings_total":1920},{"business_status":"OPERATIONAL","formatted_address":"Kieler Str. 191/193, 22525 Hamburg","geometry":{"location":{"lat":53.5766705,"lng":9.9370491},"viewport":{"northeast":{"lat":53.57803882989272,"lng":9.938386729892724},"southwest":{"lat":53.57533917010728,"lng":9.93568707010728}}},"icon":"https://maps.gstatic.com/mapfiles/place_api/icons/v1/png_71/restaurant-71.png","icon_background_color":"#FF9E67","icon_mask_base_uri":"https://maps.gstatic.com/mapfiles/place_api/icons/v2/restaurant_pinlet","name":"McDonald's Restaurant","opening_hours":{"open_now":true},"photos":[{"height":2988,"html_attributions":["<a href=\"https://maps.google.com/maps/contrib/103344605646498611817\">Karl Schneider</a>"],"photo_reference":"AeJbb3cx6GZlQZFTVBZlOCb4-nfkcWvCWgTl2EOEpaoEcaPGkj0EyvY_RWipa1eYDnVQ24PNSXfwVmlNZcsB5S39VUokehbodWoolJGl7sGDLtsklP2qqqCL2NdWjvUd8Uj1h8uMSkVcOQzI2pIXwEqtTA1C95lqonAFd2JFn-T1W8FN9cC1","width":5312}],"place_id":"ChIJgYimH4aFsUcRbb3PXxPik8o","plus_code":{"compound_code":"HWGP+MR Hamburg","global_code":"9F5FHWGP+MR"},"price_level":2,"rating":3.5,"reference":"ChIJgYimH4aFsUcRbb3PXxPik8o","types":["restaurant","food","point_of_interest","establishment"],"user_ratings_total":1786},{"business_status":"OPERATIONAL","formatted_address":"Reeperbahn 59, 20359 Hamburg","geometry":{"location":{"lat":53.5498761,"lng":9.9636214},"viewport":{"northeast":{"lat":53.55112447989273,"lng":9.965001779892718},"southwest":{"lat":53.54842482010729,"lng":9.962302120107275}}},"icon":"https://maps.gstatic.com/mapfiles/place_api/icons/v1/png_71/restaurant-71.png","icon_background_color":"#FF9E67","icon_mask_base_uri":"https://maps.gstatic.com/mapfiles/place_api/icons/v2/restaurant_pinlet","name":"McDonald's","opening_hours":{"open_now":true},"photos":[{"height":4032,"html_attributions":["<a href=\"https://maps.google.com/maps/contrib/107054825285751982818\">Die _TomatenGabel</a>"],"photo_reference":"AeJbb3d6vplQTxPwKNRrtiqMaqa7HWn4MzGSqZoQ_jPWFFsDgAiDGV7NRaCExMa3bsLlZ0vqdxniEvFvn2M3OIH66rFlmMYpDwhoB9TsScNqD0LRVPMGGvw3B7Qr7EkUTzKsfDO1imG8NaxFnd-znecQmZsDflOmWs1-eVpobHqXaAbFhm_P","width":2268}],"place_id":"ChIJgYimH4aFsUcR3etX_2KXDqc","plus_code":{"compound_code":"GXX7+XC Hamburg","global_code":"9F5FGXX7+XC"},"price_level":2,"rating":3.4,"reference":"ChIJgYimH4aFsUcR3etX_2KXDqc","types":["restaurant","food","point_of_interest","establishment"],"user_ratings_total":1926},{"business_status":"OPERATIONAL","formatted_address":"Theodor-Heuss-Platz 3, 20354 Hamburg","geometry":{"location":{"lat":53.5605807,"lng":9.9901352},"viewport":{"northeast":{"lat":53.56198612989272,"lng":9.991621079892724},"southwest":{"lat":53.55928647010727,"lng":9.98892142010728}}},"icon":"https://maps.gstatic.com/mapfiles/place_api/icons/v1/png_71/restaurant-71.png","icon_background_color":"#FF9E67","icon_mask_base_uri":"https://maps.gstatic.com/mapfiles/place_api/icons/v2/restaurant_pinlet","name":"McDonald's","opening_hours":{"open_now":true},"photos":[{"height":4032,"html_attributions":["<a href=\"https://maps.google.com/maps/contrib/109076648294256997427\">A Google User</a>"],"photo_reference":"AeJbb3eU_S9cHPD0wJaKetz313uB7WQw255R4uKCk4opJV4BFshA3arebLfX9rmMF90kX3Lv6vfszttGIkJce_ggugjAdApCVZ-5W_WZepwZp52SUFkufusa7bJqoEIUHd9NMGUfOStMXvoYxgPTJGSOwLh_p0LGXAIKVzr3LAVUaFg7fGw6","width":3024}],"place_id":"ChIJgYimH4aFsUcRrUtNzbiKyaw","plus_code":{"compound_code":"HX6R+63 Hamburg","global_code":"9F5FHX6R+63"},"price_level":2,"rating":3.2,"reference":"ChIJgYimH4aFsUcRrUtNzbiKyaw","types":["restaurant","point_of_interest","food","establishment"],"user_ratings_total":1713},{"business_status":"OPERATIONAL","formatted_address":"Reeperbahn 75, 20359 Hamburg","geometry":{"location":{"lat":53.549177,"lng":9.9623334},"viewport":{"northeast":{"lat":53.55046712989272,"lng":9.963774629892722},"southwest":{"lat":53.54776747010727,"lng":9.961074970107278}}},"icon":"https://maps.gstatic.com/mapfiles/place_api/icons/v1/png_71/restaurant-71.png","icon_background_color":"#FF9E67","icon_mask_base_uri":"https://maps.gstatic.com/mapfiles/place_api/icons/v2/restaurant_pinlet","name":"Burger King","opening_hours":{"open_now":true},"photos":[{"height":1836,"html_attributions":["<a href=\"https://maps.google.com/maps/contrib/112559909496071069129\">A Google User</a>"],"photo_reference":"AeJbb3fy467RFezzNE4uE3W0Lyeevl7AWBdgx6pkUC9QVn5BMIwGtd6SBLMsFsHHEJ5IMQI5m1_bbXEttbYIqvy5grSQQs74QwEC1V9splmiHF6Wq4BIBCG0NIgy6zRJW2R2KFvryQdOW55lVB03uQEumeAiqmi7l365qQdJ8bTHcdOWQvXn","width":3264}],"place_id":"ChIJhbZpA3KPsUcR2islDwkMQvM","plus_code":{"compound_code":"GXX6+MW Hamburg","global_code":"9F5FGXX6+MW"},"price_level":2,"rating":3.2,"reference":"ChIJhbZpA3KPsUcR2islDwkMQvM","types":["restaurant","point_of_interest","food","establishment"],"user_ratings_total":1709},{"business_status":"OPERATIONAL","formatted_address":"Adenauerallee 78/ZOB, 20097 Hamburg","geometry":{"location":{"lat":53.5520341,"lng":10.0110501},"viewport":{"northeast":{"lat":53.55349687989272,"lng":10.01259682989272},"southwest":{"lat":53.55079722010728,"lng":10.00989717010728}}},"icon":"https://maps.gstatic.com/mapfiles/place_api/icons/v1/png_71/restaurant-71.png","icon_background_color":"#FF9E67","icon_mask_base_uri":"https://maps.gstatic.com/mapfiles/place_api/icons/v2/restaurant_pinlet","name":"McDonald's","opening_hours":{"open_now":true},"photos":[{"height":667,"html_attributions":["<a href=\"https://maps.google.com/maps/contrib/114330314299646036205\">McDonald&#39;s Restaurant</a>"],"photo_reference":"AeJbb3cnzlOFWPRigJF9w0SsEnmcKFCSzLwkv7BecUcXfvzSHCiXaLEJo8i9vddn9IOH0Kb6VKtmh89GXeKOhp4hO2u4xmNsUddHOmkJKolK7Lrfws7DTu780K27ummmuGr9_AIX9aiG303rmoY9YVBP3FfIcLbPP8uNSVIHf3shLNObOVq-","width":1000}],"place_id":"ChIJgYimH4aFsUcRPE4YarN1960","plus_code":{"compound_code":"H226+RC Hamburg","global_code":"9F5GH226+RC"},"price_level":2,"rating":3.2,"reference":"ChIJgYimH4aFsUcRPE4YarN1960","types":["restaurant","point_of_interest","food","establishment"],"user_ratings_total":920},{"business_status":"OPERATIONAL","formatted_address":"REAL, Beim Strohhause 8, 20097 Hamburg","geometry":{"location":{"lat":53.5523839,"lng":10.0204382},"viewport":{"northeast":{"lat":53.55397672989272,"lng":10.02171607989272},"southwest":{"lat":53.55127707010728,"lng":10.01901642010728}}},"icon":"https://maps.gstatic.com/mapfiles/place_api/icons/v1/png_71/restaurant-71.png","icon_background_color":"#FF9E67","icon_mask_base_uri":"https://maps.gstatic.com/mapfiles/place_api/icons/v2/restaurant_pinlet","name":"McDonald's Restaurant","opening_hours":{"open_now":true},"photos":[{"height":668,"html_attributions":["<a href=\"https://maps.google.com/maps/contrib/114471188077514167030\">McDonald&#39;s</a>"],"photo_reference":"AeJbb3fievQa7vrfmtQs-HiZiyZn7RTAnjG1891637C_zmqj1xjJdTL20sHpbWQ8sSGRroopVYrDesEUOAcbptXmd7u5pwHgawQAz2C1aKyx5qkyCFsyUaXJEX4b6sqTttWzv90B-svWT1rFzqj6yeUNS94T2H-qjaS9N6M4wBjnIJhWlkSv","width":1000}],"place_id":"ChIJgYimH4aFsUcR_LyKwMpaMRo","plus_code":{"compound_code":"H22C+X5 Hamburg","global_code":"9F5GH22C+X5"},"price_level":2,"rating":3.2,"reference":"ChIJgYimH4aFsUcR_LyKwMpaMRo","types":["restaurant","food","point_of_interest","establishment"],"user_ratings_total":289},{"business_status":"OPERATIONAL","formatted_address":"Ballindamm 40, 20095 Hamburg","geometry":{"location":{"lat":53.55127359999999,"lng":9.996015},"viewport":{"northeast":{"lat":53.55278272989273,"lng":9.996726049999998},"southwest":{"lat":53.55008307010728,"lng":9.993881849999998}}},"icon":"https://maps.gstatic.com/mapfiles/place_api/icons/v1/png_71/restaurant-71.png","icon_background_color":"#FF9E67","icon_mask_base_uri":"https://maps.gstatic.com/mapfiles/place_api/icons/v2/restaurant_pinlet","name":"Pommes Freunde","opening_hours":{"open_now":true},"photos":[{"height":2988,"html_attributions":["<a href=\"https://maps.google.com/maps/contrib/104575166938576581262\">Luis T</a>"],"photo_reference":"AeJbb3eCnusmcOcX5SG24-xjlCIeiy_u1PgXjAAXQP9RdpjktC5iweh3HVyJ5zeFBpP-o_vc0KuyQ373rOmRL9F3ohmbbHPgoZkp4DorXInrOn66RsjcKDUWM5WEMCMMWOxhMSzbEtHCj_WXzOek-1Q482WrdSjCOcD2pwH0cWmlyNtnGbfa","width":5312}],"place_id":"ChIJVVUFyR2PsUcRw9t75Y538uo","plus_code":{"compound_code":"HX2W+GC Hamburg","global_code":"9F5FHX2W+GC"},"price_level":2,"rating":3.1,"reference":"ChIJVVUFyR2PsUcRw9t75Y538uo","types":["restaurant","food","point_of_interest","establishment"],"user_ratings_total":498},{"business_status":"OPERATIONAL","formatted_address":"Hamburg HBF, Glockengießerwall 6, 20095 Hamburg","geometry":{"location":{"lat":53.5521123,"lng":10.0069127},"viewport":{"northeast":{"lat":53.55384162989272,"lng":10.00767055},"southwest":{"lat":53.55114197010728,"lng":10.00463915}}},"icon":"https://maps.gstatic.com/mapfiles/place_api/icons/v1/png_71/restaurant-71.png","icon_background_color":"#FF9E67","icon_mask_base_uri":"https://maps.gstatic.com/mapfiles/place_api/icons/v2/restaurant_pinlet","name":"Burger King","opening_hours":{"open_now":true},"photos":[{"height":2268,"html_attributions":["<a href=\"https://maps.google.com/maps/contrib/118196816143840751705\">Olaf Steenbock</a>"],"photo_reference":"AeJbb3fcdl6E5ORVxFjIzvaOUarUB7kX-Ph7dp8JMmclL4bICOUdmIJUydVdFMYeohh15wA0Pw1PJPwVe4XMoh88sFlDPH7dI-4tmqF9w49w1I3id-fEJtosplhh-8yAdGp05NJSz4Csa-i4MYodxos9Q4mrkLg56Dc8-7EM-8feFUrgheiN","width":4032}],"place_id":"ChIJo799WuGOsUcRtCrwyGq-mzk","plus_code":{"compound_code":"H224+RQ Hamburg","global_code":"9F5GH224+RQ"},"price_level":2,"rating":1.9,"reference":"ChIJo799WuGOsUcRtCrwyGq-mzk","types":["restaurant","point_of_interest","food","establishment"],"user_ratings_total":455},{"business_status":"OPERATIONAL","formatted_address":"Paul-Nevermann-Platz 22, 22765 Hamburg","geometry":{"location":{"lat":53.5517274,"lng":9.934733099999999},"viewport":{"northeast":{"lat":53.55307152989272,"lng":9.936082829892719},"southwest":{"lat":53.55037187010728,"lng":9.933383170107275}}},"icon":"https://maps.gstatic.com/mapfiles/place_api/icons/v1/png_71/restaurant-71.png","icon_background_color":"#FF9E67","icon_mask_base_uri":"https://maps.gstatic.com/mapfiles/place_api/icons/v2/restaurant_pinlet","name":"burgerking 4","place_id":"ChIJURky0OmFsUcRIoHyJYq5aL0","plus_code":{"compound_code":"HW2M+MV Hamburg","global_code":"9F5FHW2M+MV"},"rating":1,"reference":"ChIJURky0OmFsUcRIoHyJYq5aL0","types":["restaurant","food","point_of_interest","establishment"],"user_ratings_total":2},{"business_status":"OPERATIONAL","formatted_address":"Kirchenallee 75, 20099 Hamburg","geometry":{"location":{"lat":53.552661,"lng":10.0087252},"viewport":{"northeast":{"lat":53.55400642989272,"lng":10.01002252989272},"southwest":{"lat":53.55130677010728,"lng":10.00732287010728}}},"icon":"https://maps.gstatic.com/mapfiles/place_api/icons/v1/png_71/restaurant-71.png","icon_background_color":"#FF9E67","icon_mask_base_uri":"https://maps.gstatic.com/mapfiles/place_api/icons/v2/restaurant_pinlet","name":"mcdonalds 2","place_id":"ChIJ5Y-CKaiPsUcRJC9db98bffg","plus_code":{"compound_code":"H235+3F Hamburg","global_code":"9F5GH235+3F"},"rating":0,"reference":"ChIJ5Y-CKaiPsUcRJC9db98bffg","types":["restaurant","food","point_of_interest","establishment"],"user_ratings_total":0},{"business_status":"OPERATIONAL","formatted_address":"Reeperbahn 38, 20359 Hamburg","geometry":{"location":{"lat":53.55001,"lng":9.96518},"viewport":{"northeast":{"lat":53.55127222989272,"lng":9.966555179892723},"southwest":{"lat":53.54857257010728,"lng":9.963855520107279}}},"icon":"https://maps.gstatic.com/mapfiles/place_api/icons/v1/png_71/restaurant-71.png","icon_background_color":"#FF9E67","icon_mask_base_uri":"https://maps.gstatic.com/mapfiles/place_api/icons/v2/restaurant_pinlet","name":"kfc 8","place_id":"ChIJ_YNwJGGPsUcRdJA2VsC0kx4","plus_code":{"compound_code":"HX28+23 Hamburg","global_code":"9F5FHX28+23"},"rating":0,"reference":"ChIJ_YNwJGGPsUcRdJA2VsC0kx4","types":["restaurant","food","point_of_interest","establishment"],"user_ratings_total":0},{"business_status":"OPERATIONAL","formatted_address":"Bahrenfelder Str. 242, 22765 Hamburg","geometry":{"location":{"lat":53.55672200000001,"lng":9.928437299999999},"viewport":{"northeast":{"lat":53.55805167989272,"lng":9.929632229892722},"southwest":{"lat":53.55535202010728,"lng":9.926932570107278}}},"icon":"https://maps.gstatic.com/mapfiles/place_api/icons/v1/png_71/restaurant-71.png","icon_background_color":"#FF9E67","icon_mask_base_uri":"https://maps.gstatic.com/mapfiles/place_api/icons/v2/restaurant_pinlet","name":"Jiwan restaurant","place_id":"ChIJ2yheouKFsUcRY58XPDY0l9I","plus_code":{"compound_code":"HW4H+M9 Hamburg","global_code":"9F5FHW4H+M9"},"rating":0,"reference":"ChIJ2yheouKFsUcRY58XPDY0l9I","types":["restaurant","food","point_of_interest","establishment"],"user_ratings_total":0}]