[{"business_status":"OPERATIONAL","formatted_address":"Bellealliancestraße 52, 20259 Hamburg","geometry":{"location":{"lat":53.56836999999999,"lng":9.96162},"viewport":{"northeast":{"lat":53.56977382989272,"lng":9.963048929892723},"southwest":{"lat":53.56707417010728,"lng":9.96034927010728}}},"icon":"https://maps.gstatic.com/mapfiles/place_api/icons/v1/png_71/restaurant-71.png","icon_background_color":"#FF9E67","icon_mask_base_uri":"https://maps.gstatic.com/mapfiles/place_api/icons/v2/restaurant_pinlet","name":"Wings Quality Fastfood","opening_hours":{"open_now":false},"photos":[{"height":1560,"html_attributions":["<a href=\"https://maps.google.com/maps/contrib/118358162462860729199\">Daniel John</a>"],"photo_reference":"AeJbb3dKyvXW9-gEAG7mheWRayKZ4CuhJNalW88ybpp45ffmsggA37KdKwdUjArzd3ivb5m9vvpltosW0-6BsY4Af60Q0Ng2Jg5SgN6mNMCFD3N_jZd6sEEZveiZqXURV46KDk5WuJRgPDH5LmS8UugGM9G_MyhyIYmvHrQO9vjIooPJJDZt","width":1171}],"place_id":"ChIJ-xL3eOaPsUcR2j3MEzjzIeA","plus_code":{"compound_code":"HX96+8J Hamburg","global_code":"9F5FHX96+8J"},"rating":4.8,"reference":"ChIJ-xL3eOaPsUcR2j3MEzjzIeA","types":["restaurant","food","point_of_interest","establishment"],"user_ratings_total":88},{"business_status":"OPERATIONAL","formatted_address":"Seeveplatz 1, 21073 Hamburg","geometry":{"location":{"lat":53.4572842,"lng":9.9878698},"viewport":{"northeast":{"lat":53.45858352989271,"lng":9.989255629892723},"southwest":{"lat":53.45588387010727,"lng":9.986555970107279}}},"icon":"https://maps.gstatic.com/mapfiles/place_api/icons/v1/png_71/restaurant-71.png","icon_background_color":"#FF9E67","icon_mask_base_uri":"https://maps.gstatic.com/mapfiles/place_api/icons/v2/restaurant_pinlet","name":"Weza Chicken","opening_hours":{"open_now":true},"photos":[{"height":2460,"html_attributions":["<a href=\"https://maps.google.com/maps/contrib/116267076475193163052\">A Google User</a>"],"photo_reference":"AeJbb3cpJB7Pb3FOEQSSaLqrN0UL93dNsB7ZTQhjnUudZqVZfghcWQSZEMOb3UaQJqZ4F73i2Ie8CS4DJ0URnqqUqt18fdjULrAwgTGYbHGAQKY2R1c7XFiblLs21epWDxGQBHw7dQ99pxddWE1QPB8iJjJpnA6mnQ3rbrEJz4H4LPQENSJe","width":3950}],"place_id":"ChIJg_DnlfuRsUcRaTBa_m-XIMs","plus_code":{"compound_code":"FX4Q+W4 Hamburg","global_code":"9F5FFX4Q+W4"},"rating":4.8,"reference":"ChIJg_DnlfuRsUcRaTBa_m-XIMs","types":["meal_takeaway","restaurant","food","point_of_interest","establishment"],"user_ratings_total":61},{"business_status":"OPERATIONAL","formatted_address":"Wandsbeker Chaussee 325, 22089 Hamburg","geometry":{"location":{"lat":53.5705499,"lng":10.0599196},"viewport":{"northeast":{"lat":53.57183072989272,"lng":10.06131337989272},"southwest":{"lat":53.56913107010728,"lng":10.05861372010728}}},"icon":"https://maps.gstatic.com/mapfiles/place_api/icons/v1/png_71/restaurant-71.png","icon_background_color":"#FF9E67","icon_mask_base_uri":"https://maps.gstatic.com/mapfiles/place_api/icons/v2/restaurant_pinlet","name":"Safi Food","opening_hours":{"open_now":true},"photos":[{"height":1488,"html_attributions":["<a href=\"https://maps.google.com/maps/contrib/108738784061685140437\">Volha Semashko</a>"],"photo_reference":"AeJbb3fv9gEaaP07R28u0AbVwpFYIQSwfU5vVoVPw6ilIP-v2Rid6sSlyOuMZnCR4ckOKkcxduJRaT6lcQ14ws2yZoFTdZTHFK7_g1iDWRdVKxYdAsPYpbc1ehZNPHqPYW4IFsCXEwwHCIm5sA8-TFDHqipPPqklsEUJgMv5yDALlJ2biW7_","width":1984}],"place_id":"ChIJH54MdayOsUcRtDWPrlu_wK8","plus_code":{"compound_code":"H3C5+6X Hamburg","global_code":"9F5GH3C5+6X"},"price_level":1,"rating":4.7,"reference":"ChIJH54MdayOsUcRtDWPrlu_wK8","types":["restaurant","food","point_of_interest","establishment"],"user_ratings_total":349},{"business_status":"OPERATIONAL","formatted_address":"Große Bäckerstraße 8, 20095 Hamburg","geometry":{"location":{"lat":53.5488693,"lng":9.9931311},"viewport":{"northeast":{"lat":53.55027902989273,"lng":9.994491229892724},"southwest":{"lat":53.54757937010729,"lng":9.99179157010728}}},"icon":"https://maps.gstatic.com/mapfiles/place_api/icons/v1/png_71/restaurant-71.png","icon_background_color":"#FF9E67","icon_mask_base_uri":"https://maps.gstatic.com/mapfiles/place_api/icons/v2/restaurant_pinlet","name":"FrittenFreude","opening_hours":{"open_now":true},"photos":[{"height":2160,"html_attributions":["<a href=\"https://maps.google.com/maps/contrib/105117835374582624308\">A Google User</a>"],"photo_reference":"AeJbb3fkeaEqwZM9X7UkHTQ-FxPhfLopio_ZN3ADUTxSAOKN4NPKH6uXIJTjFyrrK6I6uw3HKABfv6kCWW3Az1faQywEw8o_y1kI2D9dmOm4NbyCA-yviJiilfjba0Oabi_jZv-K4OSKADz1F2I6Xoc5GRt5bUB_e2S5fnk31w67xEWSXVbE","width":3840}],"place_id":"ChIJJ-XHlRyPsUcRx3q5Ob40g-g","plus_code":{"compound_code":"GXXV+G7 Hamburg","global_code":"9F5FGXXV+G7"},"rating":4.7,"reference":"ChIJJ-XHlRyPsUcRx3q5Ob40g-g","types":["restaurant","food","point_of_interest","establishment"],"user_ratings_total":337},{"business_status":"OPERATIONAL","formatted_address":"Mozartstraße 23, 22083 Hamburg","geometry":{"location":{"lat":53.578029,"lng":10.021344},"viewport":{"northeast":{"lat":53.57931962989272,"lng":10.02270907989272},"southwest":{"lat":53.57661997010728,"lng":10.02000942010728}}},"icon":"https://maps.gstatic.com/mapfiles/place_api/icons/v1/png_71/restaurant-71.png","icon_background_color":"#FF9E67","icon_mask_base_uri":"https://maps.gstatic.com/mapfiles/place_api/icons/v2/restaurant_pinlet","name":"Curry-Pirates","opening_hours":{"open_now":false},"photos":[{"height":2976,"html_attributions":["<a href=\"https://maps.google.com/maps/contrib/108075578107319344685\">Michael Ortmann</a>"],"photo_reference":"AeJbb3duZ1F_8dyH3aasCB170ihCDPIIu_gs1tWejHhdsAG423wQPGE8hrEIRlowgvcx7x-5vSUh_OdwoK-t4yJ9Q-pSgzYFCpeYAJJf17Zmhexz9y6ARvOqG0EAABEV5_AIo3R9Rjb60xZ3Q36Pp3-KWHQz2d7qtUKKsLlme5TJRGE2XHcZ","width":3968}],"place_id":"ChIJH3BxKi2JsUcRLygtVP5pC2A","plus_code":{"compound_code":"H2HC+6G Hamburg","global_code":"9F5GH2HC+6G"},"price_level":2,"rating":4.7,"reference":"ChIJH3BxKi2JsUcRLygtVP5pC2A","types":["restaurant","food","point_of_interest","establishment"],"user_ratings_total":301},{"business_status":"OPERATIONAL","formatted_address":"Reeperbahn 122, 20359 Hamburg","geometry":{"location":{"lat":53.5497007,"lng":9.9598371},"viewport":{"northeast":{"lat":53.55097272989272,"lng":9.961269379892723},"southwest":{"lat":53.54827307010727,"lng":9.95856972010728}}},"icon":"https://maps.gstatic.com/mapfiles/place_api/icons/v1/png_71/restaurant-71.png","icon_background_color":"#FF9E67","icon_mask_base_uri":"https://maps.gstatic.com/mapfiles/place_api/icons/v2/restaurant_pinlet","name":"Danmark-Snack","opening_hours":{"open_now":false},"photos":[{"height":2633,"html_attributions":["<a href=\"https://maps.google.com/maps/contrib/103672553456934363843\">Florian Lust</a>"],"photo_reference":"AeJbb3dPDIfV3HyFIULM9drG35g86bXBfYff86G176l7c879cy-iTQDM3YaqJiInK51rHS0cEpOpY09P2W-vU6Er8yE0eKS-Upy25RH57Pso4w0OzvtCNoVcRG0HEV45TQsEnHmt-f1xzPqQuBggZO71WEZV8uWiSHM0S7Rjr7NNIZuDFZbN","width":3024}],"place_id":"ChIJUdrt3XGPsUcRb2uYL4uZVPg","plus_code":{"compound_code":"GXX5+VW Hamburg","global_code":"9F5FGXX5+VW"},"price_level":1,"rating":4.7,"reference":"ChIJUdrt3XGPsUcRb2uYL4uZVPg","types":["restaurant","food","point_of_interest","establishment"],"user_ratings_total":150},{"business_status":"OPERATIONAL","formatted_address":"Alte Holstenstraße 24, 21031 Hamburg","geometry":{"location":{"lat":53.4928818,"lng":10.2069682},"viewport":{"northeast":{"lat":53.49376847989272,"lng":10.20868327989272},"southwest":{"lat":53.49106882010727,"lng":10.20598362010728}}},"icon":"https://maps.gstatic.com/mapfiles/place_api/icons/v1/png_71/restaurant-71.png","icon_background_color":"#FF9E67","icon_mask_base_uri":"https://maps.gstatic.com/mapfiles/place_api/icons/v2/restaurant_pinlet","name":"Sub Fresh Bergedorf","opening_hours":{"open_now":true},"photos":[{"height":2448,"html_attributions":["<a href=\"https://maps.google.com/maps/contrib/102334991778893865007\">A Google User</a>"],"photo_reference":"AeJbb3cPmRCcFdstmw7pCHfMQBgJp0cSJC7eyzwQmPZqXH70o6ZxndSiWZLkdmvnt7_6cuAnl376doHjAD9GhZozEWDW5TOCihZn1oNLkkiPkr7qN3h-BhVXkX9XT7nldG2d7AKVz1oPfecsJjEsqHhK6bynbb2qqpoUurPIssAFMMwG2B_9","width":3264}],"place_id":"ChIJJyqJ8ATzsUcRdY2iVUOTC_o","plus_code":{"compound_code":"F6V4+5Q Hamburg","global_code":"9F5GF6V4+5Q"},"rating":4.6,"reference":"ChIJJyqJ8ATzsUcRdY2iVUOTC_o","types":["restaurant","food","point_of_interest","establishment"],"user_ratings_total":36},{"business_status":"OPERATIONAL","formatted_address":"Karolinenstraße 2, 20357 Hamburg","geometry":{"location":{"lat":53.5570144,"lng":9.975190399999999},"viewport":{"northeast":{"lat":53.55829837989273,"lng":9.97672232989272},"southwest":{"lat":53.55559872010728,"lng":9.974022670107276}}},"icon":"https://maps.gstatic.com/mapfiles/place_api/icons/v1/png_71/restaurant-71.png","icon_background_color":"#FF9E67","icon_mask_base_uri":"https://maps.gstatic.com/mapfiles/place_api/icons/v2/restaurant_pinlet","name":"Dulf's Burger","opening_hours":{"open_now":true},"photos":[{"height":3796,"html_attributions":["<a href=\"https://maps.google.com/maps/contrib/114008663331484045565\">Dulf&#39;s Burger</a>"],"photo_reference":"AeJbb3dza9O2pq1rB6rafKAFjLpN6XOEOm3jlH5UlbSLfZsXzEMmyrIGNtSxtyZIcGB_sp1uoYWhewN8k3ZKeKbKnjxyFkMvlny1Df88sms6Uxwz6Fn4KwUHbMpCpgzyQJz3D1SulmCaJq6ou7kNPMNuC_I1wqcErwIqjgyXjnlqF6Yj_KGC","width":5573}],"place_id":"ChIJlQOfgcOIsUcR3yVKZl2dMkA","plus_code":{"compound_code":"HX4G+R3 Hamburg","global_code":"9F5FHX4G+R3"},"price_level":2,"rating":4.5,"reference":"ChIJlQOfgcOIsUcR3yVKZl2dMkA","types":["restaurant","food","point_of_interest","establishment"],"user_ratings_total":5671},{"business_status":"OPERATIONAL","formatted_address":"Wohlwillstraße 37, 20359 Hamburg","geometry":{"location":{"lat":53.5548385,"lng":9.962339799999999},"viewport":{"northeast":{"lat":53.55624047989271,"lng":9.963727829892722},"southwest":{"lat":53.55354082010727,"lng":9.961028170107278}}},"icon":"https://maps.gstatic.com/mapfiles/place_api/icons/v1/png_71/restaurant-71.png","icon_background_color":"#FF9E67","icon_mask_base_uri":"https://maps.gstatic.com/mapfiles/place_api/icons/v2/restaurant_pinlet","name":"Kleine Pause","opening_hours":{"open_now":true},"photos":[{"height":3016,"html_attributions":["<a href=\"https://maps.google.com/maps/contrib/101749684953051673630\">Vidrequin Johnny</a>"],"photo_reference":"AeJbb3c1s1uEUYAljF6RiB6WjmtEZmSfktriO4kDLk52dzYSDtbxbFYyTss87VhlmBXQz38ymH8Irp5K66PIMkH_ie6AeZqppVXAd3b0VHKVMKYh2A38aV3Tb4gCSjMS7xPUyqwoXotAyKiNOyAbAA6VDVSzyO8Vlp_KKpJv04M-FkgG9T5n","width":4032}],"place_id":"ChIJXxhct26PsUcRpWklxJwS1ok","plus_code":{"compound_code":"HX36+WW Hamburg","global_code":"9F5FHX36+WW"},"price_level":1,"rating":4.5,"reference":"ChIJXxhct26PsUcRpWklxJwS1ok","types":["cafe","meal_takeaway","bar","restaurant","food","point_of_interest","establishment"],"user_ratings_total":2020},{"business_status":"OPERATIONAL","formatted_address":"Bugenhagenstraße 23, 20095 Hamburg","geometry":{"location":{"lat":53.5505851,"lng":10.0020217},"viewport":{"northeast":{"lat":53.55196537989272,"lng":10.00323307989272},"southwest":{"lat":53.54926572010728,"lng":10.00053342010728}}},"icon":"https://maps.gstatic.com/mapfiles/place_api/icons/v1/png_71/restaurant-71.png","icon_background_color":"#FF9E67","icon_mask_base_uri":"https://maps.gstatic.com/mapfiles/place_api/icons/v2/restaurant_pinlet","name":"Shiso Burger Hamburg","opening_hours":{"open_now":false},"photos":[{"height":3000,"html_attributions":["<a href=\"https://maps.google.com/maps/contrib/110528380573531386623\">Martin Voegeli</a>"],"photo_reference":"AeJbb3ffVW0PinM0BzXwRPlOLBmuk3uOidBu5ITx6yLoY_FXhZydbu_QCw2bL1X3OltvThODz12TB-hKTwmLX96TNNRzgZkVIPXWxxIa_qOkR7MVa5mWYzMn3E45dzoRuqGClgbGMDuHwO1nbbBkb1l0K0QI_wBQ-SUW3H4YSpLPbjjh7VLf","width":4000}],"place_id":"ChIJaSP6QOKOsUcRUaaBW3YLEFs","plus_code":{"compound_code":"H222+6R Hamburg","global_code":"9F5GH222+6R"},"price_level":2,"rating":4.5,"reference":"ChIJaSP6QOKOsUcRUaaBW3YLEFs","types":["store","restaurant","food","point_of_interest","establishment"],"user_ratings_total":1516},{"business_status":"OPERATIONAL","formatted_address":"Ballindamm 40, 20095 Hamburg","geometry":{"location":{"lat":53.55171679999999,"lng":9.9954489},"viewport":{"northeast":{"lat":53.55323547989271,"lng":9.996609529892723},"southwest":{"lat":53.55053582010727,"lng":9.993909870107279}}},"icon":"https://maps.gstatic.com/mapfiles/place_api/icons/v1/png_71/restaurant-71.png","icon_background_color":"#FF9E67","icon_mask_base_uri":"https://maps.gstatic.com/mapfiles/place_api/icons/v2/restaurant_pinlet","name":"Vincent Vegan","opening_hours":{"open_now":true},"photos":[{"height":946,"html_attributions":["<a href=\"https://maps.google.com/maps/contrib/115923507529657664668\">A Google User</a>"],"photo_reference":"AeJbb3ck9MMA1ShwlMVMLqiUNsIuHGPLf2pCsMsRbTydT5FzCQKWhRApmvRkB-h3iGacfKEXyAXrcNQvUkJw4Ik3pDR-Y1VI7LFB6_RK4-w_qODGnluWLPvgf7nhsWHY7kSQO1t8H60XTq1Ls55VDw7XANZY_ZZrVJDAhSydd7P_eFOnQjYy","width":1262}],"place_id":"ChIJVVUFyR2PsUcRyvz1_28tuBI","plus_code":{"compound_code":"HX2W+M5 Hamburg","global_code":"9F5FHX2W+M5"},"price_level":2,"rating":4.5,"reference":"ChIJVVUFyR2PsUcRyvz1_28tuBI","types":["restaurant","food","point_of_interest","establishment"],"user_ratings_total":1290},{"business_status":"OPERATIONAL","formatted_address":"Eppendorfer Weg 172, 20253 Hamburg","geometry":{"location":{"lat":53.5801238,"lng":9.968265599999999},"viewport":{"northeast":{"lat":53.58152772989272,"lng":9.96954982989272},"southwest":{"lat":53.57882807010728,"lng":9.966850170107277}}},"icon":"https://maps.gstatic.com/mapfiles/place_api/icons/v1/png_71/restaurant-71.png","icon_background_color":"#FF9E67","icon_mask_base_uri":"https://maps.gstatic.com/mapfiles/place_api/icons/v2/restaurant_pinlet","name":"Eppendorfer Grill-Station","opening_hours":{"open_now":true},"photos":[{"height":3024,"html_attributions":["<a href=\"https://maps.google.com/maps/contrib/102697745939004448703\">Sebastian Hinterding</a>"],"photo_reference":"AeJbb3cdcblRPXa5VAolHq1FN8q-D5PNXWq2UKity9BydeBRjjiYHFIswUM1mEMzy7a-fIVq13wQcyoTbD64cAtkNMB9K_AFrgZjCpswdWpyEFfCFmF2PYhUTo6LqliKrIL1yzhPALPbcmHVihSeyVgiz8HRNVuXkSVJamRQjPXbsC7vcXEs","width":4032}],"place_id":"ChIJVcqGD02PsUcR7MtzpkoTsWs","plus_code":{"compound_code":"HXJ9+28 Hamburg","global_code":"9F5FHXJ9+28"},"price_level":1,"rating":4.5,"reference":"ChIJVcqGD02PsUcR7MtzpkoTsWs","types":["restaurant","food","point_of_interest","establishment"],"user_ratings_total":615},{"business_status":"OPERATIONAL","formatted_address":"Mühlenkamp 12, 22303 Hamburg","geometry":{"location":{"lat":53.5805993,"lng":10.0124838},"viewport":{"northeast":{"lat":53.58193047989272,"lng":10.01375217989272},"southwest":{"lat":53.57923082010728,"lng":10.01105252010728}}},"icon":"https://maps.gstatic.com/mapfiles/place_api/icons/v1/png_71/restaurant-71.png","icon_background_color":"#FF9E67","icon_mask_base_uri":"https://maps.gstatic.com/mapfiles/place_api/icons/v2/restaurant_pinlet","name":"Hensel Burger","opening_hours":{"open_now":false},"photos":[{"height":1080,"html_attributions":["<a href=\"https://maps.google.com/maps/contrib/106407228867363238148\">Qrito</a>"],"photo_reference":"AeJbb3dr2M_R35qMlWVmsKNwqLGlqBRXWRdXHPYsYPaDpL0FhHdUScaDB9GsVT8Ywd2WxbM3vqQqgslbsNqI7iAocv4Akz5X8XcNN38xOku9zajjMf4eAI0hE9Y03lcdzqcux5SNDp8qU-9sOiR6EUhc5zPZbZc8Y57dyS6eRQMK8IZt6IjG","width":1080}],"place_id":"ChIJ7X-PjSqJsUcRuuDnyJaPWFo","plus_code":{"compound_code":"H2J6+6X Hamburg","global_code":"9F5GH2J6+6X"},"price_level":2,"rating":4.5,"reference":"ChIJ7X-PjSqJsUcRuuDnyJaPWFo","types":["restaurant","food","point_of_interest","establishment"],"user_ratings_total":430},{"business_status":"OPERATIONAL","formatted_address":"Grindelhof 1, 20146 Hamburg","geometry":{"location":{"lat":53.5675527,"lng":9.981230199999999},"viewport":{"northeast":{"lat":53.56885947989272,"lng":9.982660429892722},"southwest":{"lat":53.56615982010727,"lng":9.979960770107278}}},"icon":"https://maps.gstatic.com/mapfiles/place_api/icons/v1/png_71/restaurant-71.png","icon_background_color":"#FF9E67","icon_mask_base_uri":"https://maps.gstatic.com/mapfiles/place_api/icons/v2/restaurant_pinlet","name":"Cup n' Go","opening_hours":{"open_now":true},"photos":[{"height":1686,"html_attributions":["<a href=\"https://maps.google.com/maps/contrib/112479413254657420742\">A Google User</a>"],"photo_reference":"AeJbb3epHltUjIdb-W9KzWAYukCEQ9G8x0vLdBVeAwmbX0QWHYXweTBlQM2fJ18PZseH8CLwq4qKpogJIs6KJoPF_-soaMFte2bI_yEtffbBenrucYndOIw7RaweG8zRpKzd2etzXctN7nVZRAGBPnw7HaxxlCaoynv2rSXJtZwduTGchPcq","width":2244}],"place_id":"ChIJ_5CPoDmPsUcRBltQyGFyp6g","plus_code":{"compound_code":"HX9J+2F Hamburg","global_code":"9F5FHX9J+2F"},"rating":4.5,"reference":"ChIJ_5CPoDmPsUcRBltQyGFyp6g","types":["restaurant","food","point_of_interest","establishment"],"user_ratings_total":99},{"business_status":"OPERATIONAL","formatted_address":"Hamburger Str. 27, 22083 Hamburg","geometry":{"location":{"lat":53.5737095,"lng":10.0326792},"viewport":{"northeast":{"lat":53.57499227989273,"lng":10.03397042989272},"southwest":{"lat":53.57229262010728,"lng":10.03127077010728}}},"icon":"https://maps.gstatic.com/mapfiles/place_api/icons/v1/png_71/restaurant-71.png","icon_background_color":"#FF9E67","icon_mask_base_uri":"https://maps.gstatic.com/mapfiles/place_api/icons/v2/restaurant_pinlet","name":"KISS","opening_hours":{"open_now":true},"photos":[{"height":4032,"html_attributions":["<a href=\"https://maps.google.com/maps/contrib/116554467694037620700\">Tobias Beck</a>"],"photo_reference":"AeJbb3egsegSzuklBjz2SU2JbCoMOTzUS9AA2kp-5UuqPu3e5KF3g8g9of_O6FYJW4ydAkhUkaClB5vfS2RjtHE2rRqDHZBBmI-IVJn0j57i25TkotJP777QPoGfZPi5Ps6qbeURoqc4yPGWGtV_ZUfpXEe9obgKH5xujX4pVapsAQCTR9WW","width":3024}],"place_id":"ChIJp4JPnsuOsUcRX6NjbD356rY","plus_code":{"compound_code":"H2FM+F3 Hamburg","global_code":"9F5GH2FM+F3"},"rating":4.5,"reference":"ChIJp4JPnsuOsUcRX6NjbD356rY","types":["restaurant","food","point_of_interest","establishment"],"user_ratings_total":24},{"business_status":"OPERATIONAL","formatted_address":"Speersort 1, 20095 Hamburg","geometry":{"location":{"lat":53.5496054,"lng":9.998626699999999},"viewport":{"northeast":{"lat":53.55108887989272,"lng":9.999943979892722},"southwest":{"lat":53.54838922010727,"lng":9.997244320107278}}},"icon":"https://maps.gstatic.com/mapfiles/place_api/icons/v1/png_71/restaurant-71.png","icon_background_color":"#FF9E67","icon_mask_base_uri":"https://maps.gstatic.com/mapfiles/place_api/icons/v2/restaurant_pinlet","name":"Burgerlich","opening_hours":{"open_now":true},"photos":[{"height":662,"html_attributions":["<a href=\"https://maps.google.com/maps/contrib/111729674624194859105\">Burgerlich GmbH</a>"],"photo_reference":"AeJbb3ecY-Odgr2lQW-88BJ2W9aWhlUrRYFBjP7aXwiVLEjXftKwxrD8BiyeJOuJcGMrey_9cGtGLAEleSu6Wui08m1XklYXE-zEvf7jMKQ750JYVruKed_z-Lr1Bx0yUnzfefdAfdUmJuoDwbo-0EoCaQ0_MrWkVSTrB4Kev_f0YQD3F8lQ","width":992}],"place_id":"ChIJ66MoeB2PsUcRdXBSgKqEUyc","plus_code":{"compound_code":"GXXX+RF Hamburg","global_code":"9F5FGXXX+RF"},"price_level":2,"rating":4.4,"reference":"ChIJ66MoeB2PsUcRdXBSgKqEUyc","types":["restaurant","food","point_of_interest","establishment"],"user_ratings_total":5374},{"business_status":"OPERATIONAL","formatted_address":"Reeperbahn 99, 20359 Hamburg","geometry":{"location":{"lat":53.549192,"lng":9.961274099999999},"viewport":{"northeast":{"lat":53.55059752989271,"lng":9.962689979892723},"southwest":{"lat":53.54789787010727,"lng":9.959990320107279}}},"icon":"https://maps.gstatic.com/mapfiles/place_api/icons/v1/png_71/restaurant-71.png","icon_background_color":"#FF9E67","icon_mask_base_uri":"https://maps.gstatic.com/mapfiles/place_api/icons/v2/restaurant_pinlet","name":"BURGER HEROES","opening_hours":{"open_now":false},"photos":[{"height":1836,"html_attributions":["<a href=\"https://maps.google.com/maps/contrib/114621445488501086674\">juwe west</a>"],"photo_reference":"AeJbb3dSn4uiYnB87UX-iCRiPT4k_r7GQQL43389zWN8DqAd8uxNWwErviTmkGnjUvc9GB4mpwDcYROrd1sIodOThWE8DSvQGw0xy9mV0YDQtx5TTjU0wDjF5Fnd_0wfu8U5pCKhinwZRR-NfHLRgFj9NqXdGFgLePGIwzOzWIRFWvCLqsAH","width":3264}],"place_id":"ChIJicfh9nGPsUcR63gWAjpcZAU","plus_code":{"compound_code":"GXX6+MG Hamburg","global_code":"9F5FGXX6+MG"},"price_level":1,"rating":4.4,"reference":"ChIJicfh9nGPsUcR63gWAjpcZAU","types":["meal_takeaway","restaurant","food","point_of_interest","establishment"],"user_ratings_total":1917},{"business_status":"OPERATIONAL","formatted_address":"Große Bleichen 68, 20354 Hamburg","geometry":{"location":{"lat":53.5522595,"lng":9.986328199999999},"viewport":{"northeast":{"lat":53.55355667989272,"lng":9.987625329892722},"southwest":{"lat":53.55085702010727,"lng":9.984925670107279}}},"icon":"https://maps.gstatic.com/mapfiles/place_api/icons/v1/png_71/restaurant-71.png","icon_background_color":"#FF9E67","icon_mask_base_uri":"https://maps.gstatic.com/mapfiles/place_api/icons/v2/restaurant_pinlet","name":"Edelcurry","opening_hours":{"open_now":true},"photos":[{"height":3888,"html_attributions":["<a href=\"https://maps.google.com/maps/contrib/107602913062114427676\">Enrico Righetti</a>"],"photo_reference":"AeJbb3djC8-U1O5kots9_IEBco6meP4xjktMyuxMOj-DZVYoeaoCBdkv9ALPIMy-qGCOH6Mj090ERma16dvXL8fquCPJE1GoBwCj1e2Rpc1SLu0Jgozi_hZ5BKO_CabM6nnjaKkM0kXv7HvgdI3y32yEuxYSTMKCaZYWBbJ3Z8PgIrT6ljA","width":5184}],"place_id":"ChIJ5WaHDBqPsUcRjkYgHS9LAnM","plus_code":{"compound_code":"HX2P+WG Hamburg","global_code":"9F5FHX2P+WG"},"price_level":2,"rating":4.4,"reference":"ChIJ5WaHDBqPsUcRjkYgHS9LAnM","types":["meal_takeaway","restaurant","food","point_of_interest","establishment"],"user_ratings_total":1063},{"business_status":"OPERATIONAL","formatted_address":"Heidi-Kabel-Platz, 20099 Hamburg","geometry":{"location":{"lat":53.553719,"lng":10.0078683},"viewport":{"northeast":{"lat":53.55505202989272,"lng":10.00931207989272},"southwest":{"lat":53.55235237010728,"lng":10.00661242010728}}},"icon":"https://maps.gstatic.com/mapfiles/place_api/icons/v1/png_71/restaurant-71.png","icon_background_color":"#FF9E67","icon_mask_base_uri":"https://maps.gstatic.com/mapfiles/place_api/icons/v2/restaurant_pinlet","name":"CKTs Hamburg Hauptbahnhof","opening_hours":{"open_now":true},"photos":[{"height":1335,"html_attributions":["<a href=\"https://maps.google.com/maps/contrib/115625056886314082092\">Glyn Lowe Photoworks</a>"],"photo_reference":"AeJbb3dpmtsLM1JOKTcbKv8zL6In0Uwdi3H-L4GJNbplPE6e5m9T9v7qA2SwMSPOukBoOUktuzDHh7LD0qz1a5g41ZMyL_d6b0L7WrU991Fkojpg1wSPEOPhKQKoOqxJPSHPVohqpWM7bTrwF5GDYk-mSIbWSflgmAAzoS-2kRVGdwj2ozqO","width":2000}],"place_id":"ChIJn2sdLuGOsUcRV7roBbUokXA","plus_code":{"compound_code":"H235+F4 Hamburg","global_code":"9F5GH235+F4"},"rating":4.4,"reference":"ChIJn2sdLuGOsUcRV7roBbUokXA","types":["meal_takeaway","restaurant","food","point_of_interest","establishment"],"user_ratings_total":89},{"business_status":"OPERATIONAL","formatted_address":"Jungfernstieg 1-3, 20095 Hamburg","geometry":{"location":{"lat":53.5516391,"lng":9.994234299999999},"viewport":{"northeast":{"lat":53.55299402989272,"lng":9.99576322989272},"southwest":{"lat":53.55029437010728,"lng":9.993063570107276}}},"icon":"https://maps.gstatic.com/mapfiles/place_api/icons/v1/png_71/restaurant-71.png","icon_background_color":"#FF9E67","icon_mask_base_uri":"https://maps.gstatic.com/mapfiles/place_api/icons/v2/restaurant_pinlet","name":"Jim Block Jungfernstieg","opening_hours":{"open_now":true},"photos":[{"height":3024,"html_attributions":["<a href=\"https://maps.google.com/maps/contrib/116111558994993172154\">Michael Krag</a>"],"photo_reference":"AeJbb3frg_kviXTEEOa01s2w529Bhxj7mcBXwI4T5WKF4ZGU0pGyZP7wnVJrk_vAcrR1eEP0a3F9r5OEODXpxGO9o_X78-qTpc-fTPo57TWa2rBWxFwPu6ShS4aaO04HiTS25kP9PRjGTKLDUGHROKUX7UwRQADBWX_1Ogli7UEcSQWV6Zvr","width":4032}],"place_id":"ChIJMzNpFByPsUcRFV3bm-fNa84","plus_code":{"compound_code":"HX2V+MM Hamburg","global_code":"9F5FHX2V+MM"},"price_level":2,"rating":4.3,"reference":"ChIJMzNpFByPsUcRFV3bm-fNa84","types":["restaurant","food","point_of_interest","establishment"],"user_ratings_total":4393},{"business_status":"OPERATIONAL","formatted_address":"Bergstraße 17, 20095 Hamburg","geometry":{"location":{"lat":53.551398,"lng":9.994533599999999},"viewport":{"northeast":{"lat":53.55272962989272,"lng":9.995982779892723},"southwest":{"lat":53.55002997010727,"lng":9.993283120107279}}},"icon":"https://maps.gstatic.com/mapfiles/place_api/icons/v1/png_71/restaurant-71.png","icon_background_color":"#FF9E67","icon_mask_base_uri":"https://maps.gstatic.com/mapfiles/place_api/icons/v2/restaurant_pinlet","name":"Frittenwerk Hamburg","opening_hours":{"open_now":true},"photos":[{"height":3024,"html_attributions":["<a href=\"https://maps.google.com/maps/contrib/103123409218877623620\">A Google User</a>"],"photo_reference":"AeJbb3e73YArJlQjsS_3a-sVCV_MhnwXysZcgJH_maCGGY0Chzab4kn0Psb5iJMTM-3GZRyL64n_lnrNx85TNslSNxDOg0C4uncA-mOeIuXTN5ZesO36SrQKF5vNZHuqXlXzZ8lovqrgKFeJ_MOvJ2pyXfIX-0kshV-8DIiXOAqOzoaJiUnp","width":4032}],"place_id":"ChIJq7BwLMyPsUcRQwqHxbIsqLo","plus_code":{"compound_code":"HX2V+HR Hamburg","global_code":"9F5FHX2V+HR"},"price_level":2,"rating":4.3,"reference":"ChIJq7BwLMyPsUcRQwqHxbIsqLo","types":["restaurant","meal_takeaway","food","point_of_interest","establishment"],"user_ratings_total":985},{"business_status":"OPERATIONAL","formatted_address":"Winsener Str. 229, 21077 Hamburg","geometry":{"location":{"lat":53.4218633,"lng":9.9818301},"viewport":{"northeast":{"lat":53.42328007989272,"lng":9.982791779892723},"southwest":{"lat":53.42058042010728,"lng":9.98009212010728}}},"icon":"https://maps.gstatic.com/mapfiles/place_api/icons/v1/png_71/restaurant-71.png","icon_background_color":"#FF9E67","icon_mask_base_uri":"https://maps.gstatic.com/mapfiles/place_api/icons/v2/restaurant_pinlet","name":"Virginia Burger","opening_hours":{"open_now":true},"photos":[{"height":2322,"html_attributions":["<a href=\"https://maps.google.com/maps/contrib/112302229263082452967\">Daniel-Hauke Adam</a>"],"photo_reference":"AeJbb3eVmMulDsFClIILVD5uX4vb9v0eawlyfdr4ceuT72WA-jEatdKA7PiT13KPKwhTKE59Vpz4LwmoFbYHtyyoiaycVoDXzzu5nIZiar7rwBtibpPIs_0V0DQPoXDr9rMlotws-N4KC_xvV8HPTtLZ-2H52J9vj52jyl27RbWKMIlpKO51","width":4128}],"place_id":"ChIJP4LopDiRsUcRoLV7qDoGMR4","plus_code":{"compound_code":"CXCJ+PP Hamburg","global_code":"9F5FCXCJ+PP"},"price_level":2,"rating":4.3,"reference":"ChIJP4LopDiRsUcRoLV7qDoGMR4","types":["restaurant","food","point_of_interest","establishment"],"user_ratings_total":640},{"business_status":"OPERATIONAL","formatted_address":"Kieler Str. 685, 22527 Hamburg","geometry":{"location":{"lat":53.6056508,"lng":9.9086043},"viewport":{"northeast":{"lat":53.60704967989273,"lng":9.910051479892724},"southwest":{"lat":53.60435002010728,"lng":9.90735182010728}}},"icon":"https://maps.gstatic.com/mapfiles/place_api/icons/v1/png_71/restaurant-71.png","icon_background_color":"#FF9E67","icon_mask_base_uri":"https://maps.gstatic.com/mapfiles/place_api/icons/v2/restaurant_pinlet","name":"Champ Pizza & Burger","opening_hours":{"open_now":false},"photos":[{"height":1536,"html_attributions":["<a href=\"https://maps.google.com/maps/contrib/102219556517973193916\">A Google User</a>"],"photo_reference":"AeJbb3fmmaxIe8OfaQjtPK2hAoRV2CeT4tZWmafaxqsyD_MULX4qgyKAs2q88kIfHuHOIhlxwB6rMbICVasjcW7T3RvJ8IHgs5q0mLqo3J2ia3RprnhU2-ThHEd31MLnq64fdkKrdGH_0xeaguKUkULMU9lphKnFDAYc-JtE2Ao6MbAs-NmQ","width":2048}],"place_id":"ChIJC0Uuw2aGsUcR0qi6ZG5LH6E","plus_code":{"compound_code":"JW45+7C Hamburg","global_code":"9F5FJW45+7C"},"rating":4.3,"reference":"ChIJC0Uuw2aGsUcR0qi6ZG5LH6E","types":["meal_delivery","restaurant","food","point_of_interest","establishment"],"user_ratings_total":115},{"business_status":"OPERATIONAL","formatted_address":"Wendenstraße 8-12, 20097 Hamburg","geometry":{"location":{"lat":53.5468971,"lng":10.0258291},"viewport":{"northeast":{"lat":53.54830922989272,"lng":10.02713002989272},"southwest":{"lat":53.54560957010727,"lng":10.02443037010728}}},"icon":"https://maps.gstatic.com/mapfiles/place_api/icons/v1/png_71/restaurant-71.png","icon_background_color":"#FF9E67","icon_mask_base_uri":"https://maps.gstatic.com/mapfiles/place_api/icons/v2/restaurant_pinlet","name":"Fresh Food Factory","opening_hours":{"open_now":true},"photos":[{"height":2268,"html_attributions":["<a href=\"https://maps.google.com/maps/contrib/105042569812809731633\">Andreas.Stys</a>"],"photo_reference":"AeJbb3ePsnuw1d6ZUhtZWZx1tYNiuuv50SRsKMMHJFpk1D7ukxbeAgVtuaicaX3SsGzQMrhb4vEwB4i8-nzWLoqm_xxoHinOdJcCKjns8YUAoqhekjeNZrqSBVsS1UyZVSaw6UpcWzJc0dMT7EEwkj1AEGW7n1o4G8mn-YiW6iRs3fxSqwDi","width":4032}],"place_id":"ChIJt0DsBO2OsUcRMT7-N1RWxOs","plus_code":{"compound_code":"G2WG+Q8 Hamburg","global_code":"9F5GG2WG+Q8"},"price_level":2,"rating":4.3,"reference":"ChIJt0DsBO2OsUcRMT7-N1RWxOs","types":["restaurant","food","point_of_interest","establishment"],"user_ratings_total":69},{"business_status":"OPERATIONAL","formatted_address":"Dammtorstraße 29-32, 20354 Hamburg","geometry":{"location":{"lat":53.556237,"lng":9.988603},"viewport":{"northeast":{"lat":53.55771507989272,"lng":9.989681879892721},"southwest":{"lat":53.55501542010727,"lng":9.986982220107278}}},"icon":"https://maps.gstatic.com/mapfiles/place_api/icons/v1/png_71/restaurant-71.png","icon_background_color":"#FF9E67","icon_mask_base_uri":"https://maps.gstatic.com/mapfiles/place_api/icons/v2/restaurant_pinlet","name":"Jim Block Dammtor","opening_hours":{"open_now":true},"photos":[{"height":3024,"html_attributions":["<a href=\"https://maps.google.com/maps/contrib/101374949893719923810\">TaeGeun Seong</a>"],"photo_reference":"AeJbb3dZhkxMt9cys8v-RHPYQkAVAjW_XEHJspnq7VBah4u-y8jbaN8gklL0MV6Xq6-DIQS8sHzR9h5MVD_f4568-cbNfQOynMLlugn7pHlN5lGN4Rqttmre16r4n-P6pDkNO9SS-0u69JJ14SrOfOvED4MISBH6vFJ3o2gSN_-mcqLQDrSc","width":4032}],"place_id":"ChIJMzNpFByPsUcRoFv6FwNkVGg","plus_code":{"compound_code":"HX4Q+FC Hamburg","global_code":"9F5FHX4Q+FC"},"price_level":2,"rating":4.2,"reference":"ChIJMzNpFByPsUcRoFv6FwNkVGg","types":["restaurant","food","point_of_interest","establishment"],"user_ratings_total":2362},{"business_status":"OPERATIONAL","formatted_address":"Kirchenallee 37, 20099 Hamburg","geometry":{"location":{"lat":53.5546884,"lng":10.008423},"viewport":{"northeast":{"lat":53.55601657989272,"lng":10.00965597989272},"southwest":{"lat":53.55331692010727,"lng":10.00695632010728}}},"icon":"https://maps.gstatic.com/mapfiles/place_api/icons/v1/png_71/restaurant-71.png","icon_background_color":"#FF9E67","icon_mask_base_uri":"https://maps.gstatic.com/mapfiles/place_api/icons/v2/restaurant_pinlet","name":"Jim Block Kirchenallee","opening_hours":{"open_now":true},"photos":[{"height":1166,"html_attributions":["<a href=\"https://maps.google.com/maps/contrib/101045475451277755462\">Jim Block Restaurantbetriebe GmbH</a>"],"photo_reference":"AeJbb3dpuYx_-gJbpIUp-hioCZHt3qJU_oC3f-UkIZxQwjmpWP_aNsCthzvXKsF4duhIAOoEC4r4QT2OqrT0x2O5v-b7VzsA9IsKFUG1jN4AseVFU0y7GkjcXfMQxtvfuxwvOqVPMNhYZ98kGZYaJjFiTwDI4jVFtBCUHe6sWQdAtuwheuWm","width":1742}],"place_id":"ChIJ83sI1OCOsUcRc3ihKJSgfgI","plus_code":{"compound_code":"H235+V9 Hamburg","global_code":"9F5GH235+V9"},"price_level":2,"rating":4.2,"reference":"ChIJ83sI1OCOsUcRc3ihKJSgfgI","types":["restaurant","food","point_of_interest","establishment"],"user_ratings_total":1477},{"business_status":"OPERATIONAL","formatted_address":"Stellinger Weg 33, 20255 Hamburg","geometry":{"location":{"lat":53.5791145,"lng":9.949082899999999},"viewport":{"northeast":{"lat":53.58051362989272,"lng":9.950576279892722},"southwest":{"lat":53.57781397010728,"lng":9.947876620107278}}},"icon":"https://maps.gstatic.com/mapfiles/place_api/icons/v1/png_71/restaurant-71.png","icon_background_color":"#FF9E67","icon_mask_base_uri":"https://maps.gstatic.com/mapfiles/place_api/icons/v2/restaurant_pinlet","name":"Better Burger Company","opening_hours":{"open_now":false},"photos":[{"height":3024,"html_attributions":["<a href=\"https://maps.google.com/maps/contrib/105680385287281270912\">Stephan Krause</a>"],"photo_reference":"AeJbb3drA6oFAbjWVyRqiucPTbr7CbaO9ITtEFvEK-p13SwtdnslGQk6fqlercgPiogvpCmpqX0oHMHjw_wpFNBMtNQVI4C_yeMIuHkIr-GLRWQNQ44nI3wPOnnYQ9qAx-RRBQ7J6K5tTXhKteVPoIf66kmNzZ5_b6bxW4voTkwAH111yMbZ","width":4032}],"place_id":"ChIJkZ8rGx6PsUcRAwNRRzdOa7c","plus_code":{"compound_code":"HWHX+JJ Hamburg","global_code":"9F5FHWHX+JJ"},"price_level":2,"rating":4.2,"reference":"ChIJkZ8rGx6PsUcRAwNRRzdOa7c","types":["meal_delivery","meal_takeaway","restaurant","food","point_of_interest","establishment"],"user_ratings_total":1395},{"business_status":"OPERATIONAL","formatted_address":"Gänsemarkt 36, 20354 Hamburg","geometry":{"location":{"lat":53.5552017,"lng":9.9877991},"viewport":{"northeast":{"lat":53.55657207989272,"lng":9.989258179892722},"southwest":{"lat":53.55387242010728,"lng":9.986558520107279}}},"icon":"https://maps.gstatic.com/mapfiles/place_api/icons/v1/png_71/restaurant-71.png","icon_background_color":"#FF9E67","icon_mask_base_uri":"https://maps.gstatic.com/mapfiles/place_api/icons/v2/restaurant_pinlet","name":"Subway","opening_hours":{"open_now":true},"photos":[{"height":3072,"html_attributions":["<a href=\"https://maps.google.com/maps/contrib/106048252159271746773\">Philipp Klöckner</a>"],"photo_reference":"AeJbb3egjMWQduqDJX_7TfMZYte93hNPXaqTuMQiiT3TRxfYTBhqv53ErmT_Zx0Y-Zr7SuwAe6F0ehsYNooDj37rCp1mlfccdB72ZxfCj9EAh8gLthkDyBlhb_t93dRSDgfolxt1YLblMIaCotukKRCgHH0_VYxH2NEd4WCfKRTiWdkZkN9t","width":4080}],"place_id":"ChIJfcmXxRmPsUcRif6tRPMjvNA","plus_code":{"compound_code":"HX4Q+34 Hamburg","global_code":"9F5FHX4Q+34"},"price_level":2,"rating":4.2,"reference":"ChIJfcmXxRmPsUcRif6tRPMjvNA","types":["meal_takeaway","restaurant","food","point_of_interest","establishment"],"user_ratings_total":500},{"business_status":"OPERATIONAL","formatted_address":"Hammerbrookstraße 92-94, 20097 Hamburg","geometry":{"location":{"lat":53.5440589,"lng":10.0253842},"viewport":{"northeast":{"lat":53.54548662989272,"lng":10.02688957989272},"southwest":{"lat":53.54278697010728,"lng":10.02418992010728}}},"icon":"https://maps.gstatic.com/mapfiles/place_api/icons/v1/png_71/restaurant-71.png","icon_background_color":"#FF9E67","icon_mask_base_uri":"https://maps.gstatic.com/mapfiles/place_api/icons/v2/restaurant_pinlet","name":"Subway","opening_hours":{"open_now":true},"photos":[{"height":4032,"html_attributions":["<a href=\"https://maps.google.com/maps/contrib/104119811319363934557\">Robin Singh</a>"],"photo_reference":"AeJbb3fSTsN49jlGTfMtkUO60Bi3f7Zzyok6fYtj2BlIWzzTjLaYByQ9bxTQBCE4lOL69YgvzOkNoYzEoo0npnCLhSxFPMeofguPqnWP5dEPGNyUE2TkBhvcBmXNTgLAmEgqjXrNsu01ce1dmv-1cWu7-6WXQb7fqORv_4UnCuJpN6CrowX3","width":3024}],"place_id":"ChIJA8psnPKOsUcReP4MnGPx89c","plus_code":{"compound_code":"G2VG+J5 Hamburg","global_code":"9F5GG2VG+J5"},"price_level":2,"rating":4.2,"reference":"ChIJA8psnPKOsUcReP4MnGPx89c","types":["meal_takeaway","restaurant","food","point_of_interest","establishment"],"user_ratings_total":290},{"business_status":"OPERATIONAL","formatted_address":"Phoenix Center, Hannoversche Str. 86, 21079 Hamburg","geometry":{"location":{"lat":53.45626,"lng":9.98639},"viewport":{"northeast":{"lat":53.45756247989272,"lng":9.987649879892722},"southwest":{"lat":53.45486282010727,"lng":9.984950220107278}}},"icon":"https://maps.gstatic.com/mapfiles/place_api/icons/v1/png_71/restaurant-71.png","icon_background_color":"#FF9E67","icon_mask_base_uri":"https://maps.gstatic.com/mapfiles/place_api/icons/v2/restaurant_pinlet","name":"Subway","opening_hours":{"open_now":true},"photos":[{"height":1440,"html_attributions":["<a href=\"https://maps.google.com/maps/contrib/110250918622453483247\">Sebastian Giertz</a>"],"photo_reference":"AeJbb3fC8Eb8pkS-oYjUtsQwIyIrYiUfY0qh_1bXUC8V3PR545Z3JVMQwGyOYlGbdV6ySWatIJ9q8c33WN9xgj5VnNaqgDPtp4JjLlOzpP9pqDsNMlJxGkMIwPGIi-66i8-T3xConsX8fpEjZnkdUlNbTwene6KNVYavQOghbRZKd1-V61Dp","width":2560}],"place_id":"ChIJadKvE6SRsUcRqfHYBXntwas","plus_code":{"compound_code":"FX4P+GH Hamburg","global_code":"9F5FFX4P+GH"},"price_level":2,"rating":4.2,"reference":"ChIJadKvE6SRsUcRqfHYBXntwas","types":["meal_takeaway","restaurant","food","point_of_interest","establishment"],"user_ratings_total":288},{"business_status":"OPERATIONAL","formatted_address":"Fuhlsbüttler Str. 104, 22305 Hamburg","geometry":{"location":{"lat":53.58817029999999,"lng":10.046522},"viewport":{"northeast":{"lat":53.58953342989272,"lng":10.04758767989272},"southwest":{"lat":53.58683377010728,"lng":10.04488802010728}}},"icon":"https://maps.gstatic.com/mapfiles/place_api/icons/v1/png_71/restaurant-71.png","icon_background_color":"#FF9E67","icon_mask_base_uri":"https://maps.gstatic.com/mapfiles/place_api/icons/v2/restaurant_pinlet","name":"Croque Star","opening_hours":{"open_now":true},"photos":[{"height":1440,"html_attributions":["<a href=\"https://maps.google.com/maps/contrib/107950133443883931641\">julia O</a>"],"photo_reference":"AeJbb3cPRaU346qE-fjkngIMpNuRWcG4eXeV0RcJvVt03wIFn7fjogB1zvg9dK41_ldh327Z3sP404yOVUgq8WE3_dl8cPcUyYlfujoSyWq095qplLcCvPWRCfH8wxXhn2kg4oIHSyirx0XRWYehJfig7IJTVCiYE1jxhDz7jYYZ9a_-mkuJ","width":1440}],"place_id":"ChIJQQOvuUeJsUcRdwmQ23iVgkM","plus_code":{"compound_code":"H2QW+7J Hamburg","global_code":"9F5GH2QW+7J"},"rating":4.1,"reference":"ChIJQQOvuUeJsUcRdwmQ23iVgkM","types":["restaurant","food","point_of_interest","establishment"],"user_ratings_total":296},{"business_status":"OPERATIONAL","formatted_address":"Barnerstraße 42, 22765 Hamburg","geometry":{"location":{"lat":53.5561649,"lng":9.927987199999999},"viewport":{"northeast":{"lat":53.55746812989272,"lng":9.92939992989272},"southwest":{"lat":53.55476847010727,"lng":9.926700270107276}}},"icon":"https://maps.gstatic.com/mapfiles/place_api/icons/v1/png_71/restaurant-71.png","icon_background_color":"#FF9E67","icon_mask_base_uri":"https://maps.gstatic.com/mapfiles/place_api/icons/v2/restaurant_pinlet","name":"Babylon","opening_hours":{"open_now":true},"photos":[{"height":2976,"html_attributions":["<a href=\"https://maps.google.com/maps/contrib/111783590916716019250\">Fabian S.</a>"],"photo_reference":"AeJbb3eCPXR-zygtKVLDqDHgXexvPXkFhWiYne4-3PjWWN2lFOjr_d0tlI3e-1gCqx6MGz9O9Uts_DHrWAm5i5t7wBbhQUvfdcVDQJ1Eohnh4yjGWoOqZeHw65ljma4adjVsSQ6uy806HTuKIn3xLIrwsJPTBee-mSdeucfwF76oZzu6Do--","width":3968}],"place_id":"ChIJ90oWN46FsUcRzN0XkSn-RGE","plus_code":{"compound_code":"HW4H+F5 Hamburg","global_code":"9F5FHW4H+F5"},"rating":4.1,"reference":"ChIJ90oWN46FsUcRzN0XkSn-RGE","types":["restaurant","food","point_of_interest","establishment"],"user_ratings_total":58},{"business_status":"OPERATIONAL","formatted_address":"Lübecker Str. 25A, 22087 Hamburg","geometry":{"location":{"lat":53.56046749999999,"lng":10.028854},"viewport":{"northeast":{"lat":53.56169807989273,"lng":10.03032082989272},"southwest":{"lat":53.55899842010728,"lng":10.02762117010728}}},"icon":"https://maps.gstatic.com/mapfiles/place_api/icons/v1/png_71/restaurant-71.png","icon_background_color":"#FF9E67","icon_mask_base_uri":"https://maps.gstatic.com/mapfiles/place_api/icons/v2/restaurant_pinlet","name":"Burger Lounge Wandsbek","opening_hours":{"open_now":true},"photos":[{"height":2988,"html_attributions":["<a href=\"https://maps.google.com/maps/contrib/112045805907991161805\">Harald Kerscher</a>"],"photo_reference":"AeJbb3c3eyPCWX1j5Jxocxace70-GpsXWi2CbSz8J6Wl9B1c9x3mpp5m8BB-ScZnhY83DoIW24AHEJFMNRa6DMEaXF6cbh2vJirJmLgnAnUMa9Qi92zS8pWZL8f579i2khRlUAUfeYish0L_mLYg3ISkOLvEE97jFcm7Ap_DLHCGQsjweTsi","width":5312}],"place_id":"ChIJf6CuK8GOsUcRenUqKA9syRo","plus_code":{"compound_code":"H26H+5G Hamburg","global_code":"9F5GH26H+5G"},"price_level":2,"rating":4,"reference":"ChIJf6CuK8GOsUcRenUqKA9syRo","types":["restaurant","food","point_of_interest","establishment"],"user_ratings_total":740},{"business_status":"OPERATIONAL","formatted_address":"Reeperbahn 29, 20359 Hamburg","geometry":{"location":{"lat":53.5500854,"lng":9.9657474},"viewport":{"northeast":{"lat":53.55133912989272,"lng":9.96712502989272},"southwest":{"lat":53.54863947010728,"lng":9.964425370107277}}},"icon":"https://maps.gstatic.com/mapfiles/place_api/icons/v1/png_71/restaurant-71.png","icon_background_color":"#FF9E67","icon_mask_base_uri":"https://maps.gstatic.com/mapfiles/place_api/icons/v2/restaurant_pinlet","name":"Hesburger","opening_hours":{"open_now":false},"photos":[{"height":960,"html_attributions":["<a href=\"https://maps.google.com/maps/contrib/103707564137435321492\">Nico Bärenfänger</a>"],"photo_reference":"AeJbb3cl5mlZ6XbdB-WVg2ydsWOwfHdHPbiSaE7INJRikOqJ_KnRQiE1PEPKZ8uXoTpqe8TIpCdzH-vXRZOrGgL3EEu6UZFXRgNXZNb7ai3Q47XlyetDwzy8WIfOw_w7XkfG8tc9rpDD9EH-iFaE-7yKbPbrfUslLhCG0JqqtINl4JPaaRvn","width":1280}],"place_id":"ChIJ5Q75LnCPsUcRPhZPvQeFamE","plus_code":{"compound_code":"HX28+27 Hamburg","global_code":"9F5FHX28+27"},"price_level":1,"rating":4,"reference":"ChIJ5Q75LnCPsUcRPhZPvQeFamE","types":["restaurant","food","point_of_interest","establishment"],"user_ratings_total":156},{"business_status":"OPERATIONAL","formatted_address":"Amandus-Stubbe-Straße 8, 22113 Hamburg","geometry":{"location":{"lat":53.50463939999999,"lng":10.0897704},"viewport":{"northeast":{"lat":53.50616432989272,"lng":10.09128027989272},"southwest":{"lat":53.50346467010728,"lng":10.08858062010728}}},"icon":"https://maps.gstatic.com/mapfiles/place_api/icons/v1/png_71/restaurant-71.png","icon_background_color":"#FF9E67","icon_mask_base_uri":"https://maps.gstatic.com/mapfiles/place_api/icons/v2/restaurant_pinlet","name":"McDonald's","opening_hours":{"open_now":true},"photos":[{"height":3024,"html_attributions":["<a href=\"https://maps.google.com/maps/contrib/100385846040050050068\">A Google User</a>"],"photo_reference":"AeJbb3e9cNfBX1YJg56t2Vb4ofbh6xnQ0Ce_OspXro20mvrTY6uEPfj1HTFk_JTgCJgV8oaKGP1PRpRizvakmX_KbA6CfPMAtB7ybX5OhEwGt7awpS3-F2BH-uRBgxVr-h9Nb8-qk0iVKVjcfTARYiYvs5vbPNftcxuBuYcgvhcLIlt4GJ9r","width":4032}],"place_id":"ChIJc2uPU72NsUcRqjjAKkzOi2A","plus_code":{"compound_code":"G33Q+VW Hamburg","global_code":"9F5GG33Q+VW"},"price_level":2,"rating":3.9,"reference":"ChIJc2uPU72NsUcRqjjAKkzOi2A","types":["restaurant","food","point_of_interest","establishment"],"user_ratings_total":1468},{"business_status":"OPERATIONAL","formatted_address":"Hoheluftchaussee 28, 20253 Hamburg","geometry":{"location":{"lat":53.579937,"lng":9.9747142},"viewport":{"northeast":{"lat":53.58124797989272,"lng":9.975933529892723},"southwest":{"lat":53.57854832010728,"lng":9.97323387010728}}},"icon":"https://maps.gstatic.com/mapfiles/place_api/icons/v1/png_71/restaurant-71.png","icon_background_color":"#FF9E67","icon_mask_base_uri":"https://maps.gstatic.com/mapfiles/place_api/icons/v2/restaurant_pinlet","name":"Subway","opening_hours":{"open_now":true},"photos":[{"height":4048,"html_attributions":["<a href=\"https://maps.google.com/maps/contrib/106764496988134949940\">Alex K</a>"],"photo_reference":"AeJbb3fVyvsjB0QAE6TWZqsMBQx-LKnXCJCFfAR2lOQPRfbkQuHrCDXg5P2pwfK7ZDoSaoeLH4qo679H2X3aQ9WsW1OwMv7B77S8KES1m-8mHALwO98vTnt_hMxvfzQVJKBmtJpUTpxZGAc9bGHW05JO8HvJhD1Sw5CQGH0VYUA2w5N4xYJN","width":3036}],"place_id":"ChIJ-47MbEuPsUcRQvISbj8nhyU","plus_code":{"compound_code":"HXHF+XV Hamburg","global_code":"9F5FHXHF+XV"},"price_level":2,"rating":3.9,"reference":"ChIJ-47MbEuPsUcRQvISbj8nhyU","types":["meal_takeaway","restaurant","food","point_of_interest","establishment"],"user_ratings_total":455},{"business_status":"OPERATIONAL","formatted_address":"Fuhlsbüttler Str. 166, 22305 Hamburg","geometry":{"location":{"lat":53.5920849,"lng":10.0444761},"viewport":{"northeast":{"lat":53.59320112989271,"lng":10.04572437989272},"southwest":{"lat":53.59050147010727,"lng":10.04302472010728}}},"icon":"https://maps.gstatic.com/mapfiles/place_api/icons/v1/png_71/restaurant-71.png","icon_background_color":"#FF9E67","icon_mask_base_uri":"https://maps.gstatic.com/mapfiles/place_api/icons/v2/restaurant_pinlet","name":"Chicken Spot GmbH","opening_hours":{"open_now":false},"photos":[{"height":2268,"html_attributions":["<a href=\"https://maps.google.com/maps/contrib/114042512631562572588\">master Hamburg</a>"],"photo_reference":"AeJbb3eHl3IA4eaiISarvRymDF65OyE8JjJSH5dnygacbXNO2KJLV_Ig6TgkD89AiRB4_nHMWtrZJXFEDGR37MBdTJD8SnlZ6BwzFxdlpyRdBRh_2Eu1WSTYBisD_NzZ2Vl73ubub7-MjrG7arF5FXEq4C1ps2SIkXN5g33_qggC3pXI8TM","width":4032}],"place_id":"ChIJKwAnsDiJsUcRhozQg0GK7r8","plus_code":{"compound_code":"H2RV+RQ Hamburg","global_code":"9F5GH2RV+RQ"},"rating":3.9,"reference":"ChIJKwAnsDiJsUcRhozQg0GK7r8","types":["restaurant","food","point_of_interest","establishment"],"user_ratings_total":420},{"business_status":"OPERATIONAL","formatted_address":"Schulterblatt 70, 20357 Hamburg","geometry":{"location":{"lat":53.5617598,"lng":9.9623488},"viewport":{"northeast":{"lat":53.56308867989272,"lng":9.96365347989272},"southwest":{"lat":53.56038902010727,"lng":9.960953820107276}}},"icon":"https://maps.gstatic.com/mapfiles/place_api/icons/v1/png_71/restaurant-71.png","icon_background_color":"#FF9E67","icon_mask_base_uri":"https://maps.gstatic.com/mapfiles/place_api/icons/v2/restaurant_pinlet","name":"Schmitt Foxy Food","opening_hours":{"open_now":true},"photos":[{"height":9000,"html_attributions":["<a href=\"https://maps.google.com/maps/contrib/108088082721475743444\">martin. weber</a>"],"photo_reference":"AeJbb3fCDu3ax3CdU2cVdb6WuTEBFigExU32cglqJdOuFvQWnGZpLrJUvgrsO7BKU6LmqqM_SGdh0ss7QaU9tH5AZ5oylkffSEQTN45wQ8HrxaSEFDOTjqI2xwVaIAi0R1u8_cISU1WSWIsOOdz7eIC87v5I8inI9hoLv7mVP7mijNAJKrdA","width":12000}],"place_id":"ChIJ65DViUKPsUcRd3BjRoRxwf0","plus_code":{"compound_code":"HX66+PX Hamburg","global_code":"9F5FHX66+PX"},"price_level":2,"rating":3.9,"reference":"ChIJ65DViUKPsUcRd3BjRoRxwf0","types":["restaurant","food","point_of_interest","establishment"],"user_ratings_total":336},{"business_status":"OPERATIONAL","formatted_address":"Ballindamm 40, 20095 Hamburg","geometry":{"location":{"lat":53.5513679,"lng":9.996944},"viewport":{"northeast":{"lat":53.55277097989271,"lng":9.998454529892722},"southwest":{"lat":53.55007132010727,"lng":9.995754870107278}}},"icon":"https://maps.gstatic.com/mapfiles/place_api/icons/v1/png_71/restaurant-71.png","icon_background_color":"#FF9E67","icon_mask_base_uri":"https://maps.gstatic.com/mapfiles/place_api/icons/v2/restaurant_pinlet","name":"Food Sky","opening_hours":{"open_now":true},"photos":[{"height":3436,"html_attributions":["<a href=\"https://maps.google.com/maps/contrib/110374751752012791561\">sebastian köller</a>"],"photo_reference":"AeJbb3cJjfqkxvk7V8XZPcS0dYTuA48pNj7Nn3Bi-zRqLj3OMcj0ogmo74FYeAHgXk40ELhah_pYFFq--i9qx1PTKAF9VUWeqXlrmk3DVWcwPc9FGiF5WzxG_XVFC9MrZtMvncCxPxiTs0kLEeVG5utJVl8_Vmyl93eZ2dIsnkAxaTZznm2s","width":7275}],"place_id":"ChIJVVUFyR2PsUcRdjGvfXIJTFk","plus_code":{"compound_code":"HX2W+GQ Hamburg","global_code":"9F5FHX2W+GQ"},"price_level":2,"rating":3.9,"reference":"ChIJVVUFyR2PsUcRdjGvfXIJTFk","types":["restaurant","food","point_of_interest","establishment"],"user_ratings_total":141},{"business_status":"OPERATIONAL","formatted_address":"Ballindamm 38, 20095 Hamburg","geometry":{"location":{"lat":53.5521416,"lng":9.9957523},"viewport":{"northeast":{"lat":53.55354147989272,"lng":9.99694447989272},"southwest":{"lat":53.55084182010728,"lng":9.994244820107276}}},"icon":"https://maps.gstatic.com/mapfiles/place_api/icons/v1/png_71/restaurant-71.png","icon_background_color":"#FF9E67","icon_mask_base_uri":"https://maps.gstatic.com/mapfiles/place_api/icons/v2/restaurant_pinlet","name":"Subway","opening_hours":{"open_now":true},"photos":[{"height":1600,"html_attributions":["<a href=\"https://maps.google.com/maps/contrib/103676596850717070674\">A Google User</a>"],"photo_reference":"AeJbb3c0oQoa0OAB1gKlu8LaBv2ewIK0hFPpOAG2Fp951ma_7TqzuXRpwh-hjdsg0nZD9Vm5yZ4yxt7YEGnCQmIpwSanGFKIcWj13yuViNF9QCw_PSRxHcTUF_-iZWWYRckHYMexeuxokIjdHRLuAJZvMlOtIbVpw-JSxpJQujaB5f7Tspzb","width":1200}],"place_id":"ChIJI4Q_IxyPsUcROICQjrIZqWk","plus_code":{"compound_code":"HX2W+V8 Hamburg","global_code":"9F5FHX2W+V8"},"price_level":2,"rating":3.8,"reference":"ChIJI4Q_IxyPsUcROICQjrIZqWk","types":["meal_takeaway","restaurant","food","point_of_interest","establishment"],"user_ratings_total":725},{"business_status":"OPERATIONAL","formatted_address":"Eiffestraße 440, 20537 Hamburg","geometry":{"location":{"lat":53.5520793,"lng":10.0464022},"viewport":{"northeast":{"lat":53.55359612989272,"lng":10.04771277989272},"southwest":{"lat":53.55089647010728,"lng":10.04501312010728}}},"icon":"https://maps.gstatic.com/mapfiles/place_api/icons/v1/png_71/restaurant-71.png","icon_background_color":"#FF9E67","icon_mask_base_uri":"https://maps.gstatic.com/mapfiles/place_api/icons/v2/restaurant_pinlet","name":"McDonald's","opening_hours":{"open_now":true},"photos":[{"height":3024,"html_attributions":["<a href=\"https://maps.google.com/maps/contrib/117930746284118278293\">Chiara Maria Cervetta</a>"],"photo_reference":"AeJbb3fwi2n387EPEj1MUxYkUgOwA8Nf4hxHdfR5b3ZpFGShDKPBuheSgpkc08VMNnsar0wV_myKMimdNPwub-CUUt19uUvn124PWir7ECw_a5EWpgksnqCH9HycXL6lpN9GE44-ZVNBAr1GUX9CRQdtFRJ3W3ildwQm8lGFuN9K_9mJcqjE","width":4032}],"place_id":"ChIJgYimH4aFsUcRTLfDySrk-qo","plus_code":{"compound_code":"H22W+RH Hamburg","global_code":"9F5GH22W+RH"},"price_level":2,"rating":3.6,"reference":"ChIJgYimH4aFsUcRTLfDySrk-qo","types":["restaurant","food","point_of_interest","establishment"],"user_ratings_total":2978},{"business_status":"OPERATIONAL","formatted_address":"Langenhorner Chaussee 287, 22415 Hamburg","geometry":{"location":{"lat":53.653723,"lng":10.0055307},"viewport":{"northeast":{"lat":53.65512642989272,"lng":10.00705922989272},"southwest":{"lat":53.65242677010728,"lng":10.00435957010728}}},"icon":"https://maps.gstatic.com/mapfiles/place_api/icons/v1/png_71/restaurant-71.png","icon_background_color":"#FF9E67","icon_mask_base_uri":"https://maps.gstatic.com/mapfiles/place_api/icons/v2/restaurant_pinlet","name":"McDonald's","opening_hours":{"open_now":true},"photos":[{"height":2268,"html_attributions":["<a href=\"https://maps.google.com/maps/contrib/111324952013061065335\">Marco Schmuck-Hinsch</a>"],"photo_reference":"AeJbb3d04iSUqUFo9A3uzkmfCNw64CwZl3Lh20d2EOAMvhbknt9vrocQqHmkR2vmx0ifg_aD1OMUf0wlLkc17KYiHHkorpJIHwjDU9BXQO_d23zDJq5-cSjpbitJos897lxPRiVjvWelpW0KdEv6tN0D2m54fl-7De9JpckcSgJVUEWmJJf_","width":4032}],"place_id":"ChIJgYimH4aFsUcRDepCdb1bC4c","plus_code":{"compound_code":"M234+F6 Hamburg","global_code":"9F5GM234+F6"},"price_level":2,"rating":3.6,"reference":"ChIJgYimH4aFsUcRDepCdb1bC4c","types":["restaurant","food","point_of_interest","establishment"],"user_ratings_total":2024},{"business_status":"OPERATIONAL","formatted_address":"Europa Passage, Ballindamm 40, 20095 Hamburg","geometry":{"location":{"lat":53.55179769999999,"lng":9.99532},"viewport":{"northeast":{"lat":53.55327232989272,"lng":9.996563229892722},"southwest":{"lat":53.55057267010728,"lng":9.993863570107278}}},"icon":"https://maps.gstatic.com/mapfiles/place_api/icons/v1/png_71/restaurant-71.png","icon_background_color":"#FF9E67","icon_mask_base_uri":"https://maps.gstatic.com/mapfiles/place_api/icons/v2/restaurant_pinlet","name":"McDonald's","opening_hours":{"open_now":true},"photos":[{"height":3024,"html_attributions":["<a href=\"https://maps.google.com/maps/contrib/112743815790971081952\">Fawad</a>"],"photo_reference":"AeJbb3dJO9zdlJuUu-fJiUr2d8diVhoW8AtcQp-hE4Gc1aRtnUyiC_uYXEsyfg6DsMc7zl-OuC9VMA9QhCWFaqJhqW1kpmTdjC9WakSNLUQpS2cX4vXBCp3V5S4XxMFjelkjrmHdegJVXJEccYTg87RT8LmwoTNbYylzrsICuWP5jNOW3z54","width":4032}],"place_id":"ChIJgYimH4aFsUcR2vsrRiBjfno","plus_code":{"compound_code":"HX2W+P4 Hamburg","global_code":"9F5FHX2W+P4"},"price_level":2,"rating":3.6,"reference":"ChIJgYimH4aFsUcR2vsrRiBjfno","types":["restaurant","food","point_of_interest","establishment"],"user_ratings_total":1908},{"business_status":"OPERATIONAL","formatted_address":"Kollaustraße 25, 22529 Hamburg","geometry":{"location":{"lat":53.6021387,"lng":9.9618316},"viewport":{"northeast":{"lat":53.60356887989272,"lng":9.96310627989272},"southwest":{"lat":53.60086922010728,"lng":9.960406620107277}}},"icon":"https://maps.gstatic.com/mapfiles/place_api/icons/v1/png_71/restaurant-71.png","icon_background_color":"#FF9E67","icon_mask_base_uri":"https://maps.gstatic.com/mapfiles/place_api/icons/v2/restaurant_pinlet","name":"McDonald's","opening_hours":{"open_now":true},"photos":[{"height":3024,"html_attributions":["<a href=\"https://maps.google.com/maps/contrib/112867061937933388555\">112867061937933388555</a>"],"photo_reference":"AeJbb3dE84e6KacImxY1TNbBsIxlJebEtVHZL9RPOTBzl2dhWmAnyof-oXKf1N0mMFMOIIrLvxReEPYVu-aC7wUsKVXTSsA58LdsWlWhlPJdURJiEIuTzIqzZhe9ifzmsQo1PNsMiJXWO5afmO0O_obCmyQr2fvwBR9H5J8m8pzneyTyVDEE","width":4032}],"place_id":"ChIJgYimH4aFsUcRAr9nktyiiUI","plus_code":{"compound_code":"JX26+VQ Hamburg","global_code":"9F5FJX26+VQ"},"price_level":2,"rating":3.5,"reference":"ChIJgYimH4aFsUcRAr9nktyiiUI","types":["restaurant","food","point_of_interest","establishment"],"user_ratings_total":2314},{"business_status":"OPERATIONAL","formatted_address":"Ida-Ehre-Platz 10, 20095 Hamburg","geometry":{"location":{"lat":53.5504803,"lng":9.999509699999999},"viewport":{"northeast":{"lat":53.55201392989272,"lng":10.00075607989272},"southwest":{"lat":53.54931427010727,"lng":9.998056420107277}}},"icon":"https://maps.gstatic.com/mapfiles/place_api/icons/v1/png_71/restaurant-71.png","icon_background_color":"#FF9E67","icon_mask_base_uri":"https://maps.gstatic.com/mapfiles/place_api/icons/v2/restaurant_pinlet","name":"McDonald's","opening_hours":{"open_now":true},"photos":[{"height":2976,"html_attributions":["<a href=\"https://maps.google.com/maps/contrib/105968925385401017337\">Christel Dönitz</a>"],"photo_reference":"AeJbb3e_-SZfwtqz_9XWEbdeeTcGOJMeAffv0i1XTmkwFouOSayX3rBLDpJ14M0MKcpu5kWK3cJ-iU0NVwPEAh6ANHqDPPJhiTYAmjY2ET07rvFuPqf8r5Cj8SW6SCduDln6Gu1yyLrmTCMhmusmlRfhjyfloLJmV4fZH2L7kJPWWxeRbif9","width":3968}],"place_id":"ChIJh2vuix2PsUcRJSZsCWEXMr4","plus_code":{"compound_code":"HX2X+5R Hamburg","global_code":"9F5FHX2X+5R"},"price_level":2,"rating":3.5,"reference":"ChIJh2vuix2PsUcRJSZsCWEXMr4","types":["restaurant","food","point_of_interest","establishment"],"user_ratings_total":2151},{"business_status":"OPERATIONAL","formatted_address":"Kieler Str. 222, 22525 Hamburg","geometry":{"location":{"lat":53.5783244,"lng":9.937133099999999},"viewport":{"northeast":{"lat":53.57963742989272,"lng":9.938394279892721},"southwest":{"lat":53.57693777010728,"lng":9.935694620107277}}},"icon":"https://maps.gstatic.com/mapfiles/place_api/icons/v1/png_71/restaurant-71.png","icon_background_color":"#FF9E67","icon_mask_base_uri":"https://maps.gstatic.com/mapfiles/place_api/icons/v2/restaurant_pinlet","name":"Burger King","opening_hours":{"open_now":true},"photos":[{"height":1080,"html_attributions":["<a href=\"https://maps.google.com/maps/contrib/100004914344312629755\">Floh pack</a>"],"photo_reference":"AeJbb3fTXZbTvfLTvJNWYJ5exme5p0gJAbfl8Oa6XSOjqTNn8H3IwCIm_3TsXhSybtV6XactI_Rjsnal0cGepqs-HaFp7VOdLGDnFTmIzcPBUBOOgYov9cWNkdtje9JPVjEbot08b1HsJfxdEx1rW57O5pzrkG3ph4XLIASCZnXtiInC75vR","width":1920}],"place_id":"ChIJZz6ZXvuFsUcRjPy9IXeA_ak","plus_code":{"compound_code":"HWHP+8V Hamburg","global_code":"9F5FHWHP+8V"},"price_level":2,"rating":3.5,"reference":"ChIJZz6ZXvuFsUcRjPy9IXeA_ak","types":["restaurant","food","point_of_interest","establishment"],"user_ratings_total":2064},{"business_status":"OPERATIONAL","formatted_address":"Eiffestraße 64, 20537 Hamburg","geometry":{"location":{"lat":53.5521053,"lng":10.037185},"viewport":{"northeast":{"lat":53.55343387989272,"lng":10.03843252989272},"southwest":{"lat":53.55073422010727,"lng":10.03573287010728}}},"icon":"https://maps.gstatic.com/mapfiles/place_api/icons/v1/png_71/restaurant-71.png","icon_background_color":"#FF9E67","icon_mask_base_uri":"https://maps.gstatic.com/mapfiles/place_api/icons/v2/restaurant_pinlet","name":"Burger King Borgfelde","opening_hours":{"open_now":true},"photos":[{"height":3024,"html_attributions":["<a href=\"https://maps.google.com/maps/contrib/117136137245444408437\">Nuri Hemissi</a>"],"photo_reference":"AeJbb3d2kC-FsvAfwyjvvSgJ2X4IOFzwvq6UXiRi-acFt0pU9XLWJTZYF52oyfm1GR1JwkrQPxkZU8qsXNBQzQudJj6USvQayJQ8V9QYvWbfKwdmbkrTDJb-rf8r4uDan-PYLJaxtlFqYij3Ww4m3umszX7ClyuiBs-Cdm2AuB51Ey0fxHQx","width":4032}],"place_id":"ChIJBROl0JWOsUcRzpM0Cq9wu2M","plus_code":{"compound_code":"H22P+RV Hamburg","global_code":"9F5GH22P+RV"},"price_level":2,"rating":3.5,"reference":"ChIJBROl0JWOsUcRzpM0Cq9wu2M","types":["restaurant","food","point_of_interest","establishment"],"user_ratings_total":2056},{"business_status":"OPERATIONAL","formatted_address":"Kieler Str. 191/193, 22525 Hamburg","geometry":{"location":{"lat":53.5766705,"lng":9.9370491},"viewport":{"northeast":{"lat":53.57803882989272,"lng":9.938386729892724},"southwest":{"lat":53.57533917010728,"lng":9.93568707010728}}},"icon":"https://maps.gstatic.com/mapfiles/place_api/icons/v1/png_71/restaurant-71.png","icon_background_color":"#FF9E67","icon_mask_base_uri":"https://maps.gstatic.com/mapfiles/place_api/icons/v2/restaurant_pinlet","name":"McDonald's Restaurant","opening_hours":{"open_now":true},"photos":[{"height":2988,"html_attributions":["<a href=\"https://maps.google.com/maps/contrib/103344605646498611817\">Karl Schneider</a>"],"photo_reference":"AeJbb3cFo5smqr0_5Iqq2nntUfMcUTJ4jJ6j0KwFjRwVaibTUJIBXhiZvvWoxwbuCgspbHGBVrvqXOvRIP3I8iDlCAPG-iSyAd9LWJZxPcM8JFAgL5LfUrIZF6PqRJP1uE1Vv6sbBv4ILbkUSkzjjCIV6KVWHFzmPsv2TURlcZfTLQIXshgO","width":5312}],"place_id":"ChIJgYimH4aFsUcRbb3PXxPik8o","plus_code":{"compound_code":"HWGP+MR Hamburg","global_code":"9F5FHWGP+MR"},"price_level":2,"rating":3.5,"reference":"ChIJgYimH4aFsUcRbb3PXxPik8o","types":["restaurant","food","point_of_interest","establishment"],"user_ratings_total":1796},{"business_status":"OPERATIONAL","formatted_address":"Reeperbahn 59, 20359 Hamburg","geometry":{"location":{"lat":53.5498761,"lng":9.9636214},"viewport":{"northeast":{"lat":53.55112447989273,"lng":9.965001779892718},"southwest":{"lat":53.54842482010729,"lng":9.962302120107275}}},"icon":"https://maps.gstatic.com/mapfiles/place_api/icons/v1/png_71/restaurant-71.png","icon_background_color":"#FF9E67","icon_mask_base_uri":"https://maps.gstatic.com/mapfiles/place_api/icons/v2/restaurant_pinlet","name":"McDonald's","opening_hours":{"open_now":true},"photos":[{"height":4032,"html_attributions":["<a href=\"https://maps.google.com/maps/contrib/107054825285751982818\">Die _TomatenGabel</a>"],"photo_reference":"AeJbb3dBA53xv9UTV7aOfG-MUoPuTAsHAjtczmhpYIG89qhQGOQ54AyVHMXQbu4A-zFEztVQ-V3puLtF-1PNtc54HqtzXPTiUSlb4s9U7k3EA7M_Tiat4R3X8aqEB5c4awjpWDdDTPhqAtL4Q3uvW3eLG8WiuCCn5PY31Q7dhKp293Xsg8aX","width":2268}],"place_id":"ChIJgYimH4aFsUcR3etX_2KXDqc","plus_code":{"compound_code":"GXX7+XC Hamburg","global_code":"9F5FGXX7+XC"},"price_level":2,"rating":3.4,"reference":"ChIJgYimH4aFsUcR3etX_2KXDqc","types":["restaurant","food","point_of_interest","establishment"],"user_ratings_total":1933},{"business_status":"OPERATIONAL","formatted_address":"Theodor-Heuss-Platz 3, 20354 Hamburg","geometry":{"location":{"lat":53.5605807,"lng":9.9901352},"viewport":{"northeast":{"lat":53.56198612989272,"lng":9.991621079892724},"southwest":{"lat":53.55928647010727,"lng":9.98892142010728}}},"icon":"https://maps.gstatic.com/mapfiles/place_api/icons/v1/png_71/restaurant-71.png","icon_background_color":"#FF9E67","icon_mask_base_uri":"https://maps.gstatic.com/mapfiles/place_api/icons/v2/restaurant_pinlet","name":"McDonald's","opening_hours":{"open_now":true},"photos":[{"height":4032,"html_attributions":["<a href=\"https://maps.google.com/maps/contrib/109076648294256997427\">A Google User</a>"],"photo_reference":"AeJbb3dGgYfRYVwvehtDtORh0Ch6dpp54tsn96l85gWMjgHL4f2MMkhvWYLWzYzsbNQFZK9jHhMI9UaS28NfNTaPtw4Gx-J2dtw_932x-esJsIcvsZKpIXXBLcCX6xxqzdzudK77C-8IlvtMoApSpmsoyJSXH6QrNjMH-biM9N62tJHa3Edo","width":3024}],"place_id":"ChIJgYimH4aFsUcRrUtNzbiKyaw","plus_code":{"compound_code":"HX6R+63 Hamburg","global_code":"9F5FHX6R+63"},"price_level":2,"rating":3.2,"reference":"ChIJgYimH4aFsUcRrUtNzbiKyaw","types":["restaurant","food","point_of_interest","establishment"],"user_ratings_total":1720},{"business_status":"OPERATIONAL","formatted_address":"Reeperbahn 75, 20359 Hamburg","geometry":{"location":{"lat":53.549177,"lng":9.9623334},"viewport":{"northeast":{"lat":53.55046712989272,"lng":9.963774629892722},"southwest":{"lat":53.54776747010727,"lng":9.961074970107278}}},"icon":"https://maps.gstatic.com/mapfiles/place_api/icons/v1/png_71/restaurant-71.png","icon_background_color":"#FF9E67","icon_mask_base_uri":"https://maps.gstatic.com/mapfiles/place_api/icons/v2/restaurant_pinlet","name":"Burger King","opening_hours":{"open_now":true},"photos":[{"height":1836,"html_attributions":["<a href=\"https://maps.google.com/maps/contrib/112559909496071069129\">A Google User</a>"],"photo_reference":"AeJbb3caE9HL3tQzXH1e1RoTKHEfUysl9RPzDu5GE6OFXev2J4Ssq1nxicpBQ1Rs-o5PEh_l0seuQsYRJs2NyxCHvP58RmkwckYw3MUP15U7TVul0ZZ3LL05RP7VNXckHfbI6eOQDoFn0wMKjMyrqokrrIz_Ky1pFxqIZsv42KRvbif6-UWm","width":3264}],"place_id":"ChIJhbZpA3KPsUcR2islDwkMQvM","plus_code":{"compound_code":"GXX6+MW Hamburg","global_code":"9F5FGXX6+MW"},"price_level":2,"rating":3.2,"reference":"ChIJhbZpA3KPsUcR2islDwkMQvM","types":["restaurant","food","point_of_interest","establishment"],"user_ratings_total":1712},{"business_status":"OPERATIONAL","formatted_address":"Adenauerallee 78/ZOB, 20097 Hamburg","geometry":{"location":{"lat":53.5520341,"lng":10.0110501},"viewport":{"northeast":{"lat":53.55349687989272,"lng":10.01259682989272},"southwest":{"lat":53.55079722010728,"lng":10.00989717010728}}},"icon":"https://maps.gstatic.com/mapfiles/place_api/icons/v1/png_71/restaurant-71.png","icon_background_color":"#FF9E67","icon_mask_base_uri":"https://maps.gstatic.com/mapfiles/place_api/icons/v2/restaurant_pinlet","name":"McDonald's","opening_hours":{"open_now":true},"photos":[{"height":667,"html_attributions":["<a href=\"https://maps.google.com/maps/contrib/114330314299646036205\">McDonald&#39;s Restaurant</a>"],"photo_reference":"AeJbb3fNPHJ1ZS2TAq4vpsnpdhKvTZ_sFjqOUjCajH2RRLOqPW5B0d17bxmOdAmcTiq5A0lzyp-ggnf7o3og2cixCjZFtra7AO88ZG90sQidBmThxmzN6Bhs2FS7v2xKKaD2rkhFObiyMfogiTDSpybQ2ggta33DC35OLEXxJ5YYnWPs7i9Z","width":1000}],"place_id":"ChIJgYimH4aFsUcRPE4YarN1960","plus_code":{"compound_code":"H226+RC Hamburg","global_code":"9F5GH226+RC"},"price_level":2,"rating":3.2,"reference":"ChIJgYimH4aFsUcRPE4YarN1960","types":["restaurant","food","point_of_interest","establishment"],"user_ratings_total":925},{"business_status":"OPERATIONAL","formatted_address":"REAL, Beim Strohhause 8, 20097 Hamburg","geometry":{"location":{"lat":53.5523839,"lng":10.0204382},"viewport":{"northeast":{"lat":53.55397672989272,"lng":10.02171607989272},"southwest":{"lat":53.55127707010728,"lng":10.01901642010728}}},"icon":"https://maps.gstatic.com/mapfiles/place_api/icons/v1/png_71/restaurant-71.png","icon_background_color":"#FF9E67","icon_mask_base_uri":"https://maps.gstatic.com/mapfiles/place_api/icons/v2/restaurant_pinlet","name":"McDonald's Restaurant","opening_hours":{"open_now":true},"photos":[{"height":668,"html_attributions":["<a href=\"https://maps.google.com/maps/contrib/114471188077514167030\">McDonald&#39;s</a>"],"photo_reference":"AeJbb3fPr6r4z2P7duZGeiLsuHnVRVb8ITpMc_Wz1B-5F3N8CCdAUw7Xpv5tEJdIEBqJwQrKazDOnLyMdlSSR8r3OFg-YFylkyLHcho5VK7DUxJAUGp78WPtM13alW-gH549H1TYbUxbxbZ2VZa-s-sg1sswuyluryiUVV4ELvXqRYkI1F4S","width":1000}],"place_id":"ChIJgYimH4aFsUcR_LyKwMpaMRo","plus_code":{"compound_code":"H22C+X5 Hamburg","global_code":"9F5GH22C+X5"},"price_level":2,"rating":3.2,"reference":"ChIJgYimH4aFsUcR_LyKwMpaMRo","types":["restaurant","food","point_of_interest","establishment"],"user_ratings_total":289},{"business_status":"OPERATIONAL","formatted_address":"Ballindamm 40, 20095 Hamburg","geometry":{"location":{"lat":53.55127359999999,"lng":9.996015},"viewport":{"northeast":{"lat":53.55278272989273,"lng":9.996726049999998},"southwest":{"lat":53.55008307010728,"lng":9.993881849999998}}},"icon":"https://maps.gstatic.com/mapfiles/place_api/icons/v1/png_71/restaurant-71.png","icon_background_color":"#FF9E67","icon_mask_base_uri":"https://maps.gstatic.com/mapfiles/place_api/icons/v2/restaurant_pinlet","name":"Pommes Freunde","opening_hours":{"open_now":true},"photos":[{"height":2988,"html_attributions":["<a href=\"https://maps.google.com/maps/contrib/104575166938576581262\">Luis T</a>"],"photo_reference":"AeJbb3el58HwSdADYlGn6DrOFWTUmvG2Fm9axvZyBlZhEirNmENDySP51RC8KaifYkorEeGpH9j7jxKJvyYSdHWh44udcH6cMFOcgvqCIFTwHKShHsyYS4PrMD1FjaQIb2I6JeUjlxIPAWC72f0gQ_vdAYy2W8J1L5rIj-sNa_IAUfRx8X_u","width":5312}],"place_id":"ChIJVVUFyR2PsUcRw9t75Y538uo","plus_code":{"compound_code":"HX2W+GC Hamburg","global_code":"9F5FHX2W+GC"},"price_level":2,"rating":3.1,"reference":"ChIJVVUFyR2PsUcRw9t75Y538uo","types":["restaurant","food","point_of_interest","establishment"],"user_ratings_total":500},{"business_status":"OPERATIONAL","formatted_address":"Glockengießerwall 8-10, 20095 Hamburg","geometry":{"location":{"lat":53.5533851,"lng":10.0071545},"viewport":{"northeast":{"lat":53.55492522989272,"lng":10.00887802989272},"southwest":{"lat":53.55222557010728,"lng":10.00617837010728}}},"icon":"https://maps.gstatic.com/mapfiles/place_api/icons/v1/png_71/restaurant-71.png","icon_background_color":"#FF9E67","icon_mask_base_uri":"https://maps.gstatic.com/mapfiles/place_api/icons/v2/restaurant_pinlet","name":"McDonald’s","opening_hours":{"open_now":true},"photos":[{"height":3456,"html_attributions":["<a href=\"https://maps.google.com/maps/contrib/112699941208932666799\">aurang zeb khan</a>"],"photo_reference":"AeJbb3epKLw4zeFWCNzUwG0RkKrRx253S18MI6NaBAdCMNJPiKfJBiIBafJIWYpZXi30CDF3igqYC-7oIH3_AdxETmLWFZKP5c0aFHvzbmpOJBF-iEot5XByELlqNPhy9U52bOu_0Ef_x5zVGsNaJdlS4kCwAoU6HbB8TCilwkTpMnCtB7_u","width":4608}],"place_id":"ChIJgYimH4aFsUcRrLdU5EnRHBQ","plus_code":{"compound_code":"H234+9V Hamburg","global_code":"9F5GH234+9V"},"price_level":2,"rating":2.6,"reference":"ChIJgYimH4aFsUcRrLdU5EnRHBQ","types":["restaurant","food","point_of_interest","establishment"],"user_ratings_total":924},{"business_status":"OPERATIONAL","formatted_address":"Hamburg HBF, Glockengießerwall 6, 20095 Hamburg","geometry":{"location":{"lat":53.5521123,"lng":10.0069127},"viewport":{"northeast":{"lat":53.55384162989272,"lng":10.00767055},"southwest":{"lat":53.55114197010728,"lng":10.00463915}}},"icon":"https://maps.gstatic.com/mapfiles/place_api/icons/v1/png_71/restaurant-71.png","icon_background_color":"#FF9E67","icon_mask_base_uri":"https://maps.gstatic.com/mapfiles/place_api/icons/v2/restaurant_pinlet","name":"Burger King","opening_hours":{"open_now":true},"photos":[{"height":2268,"html_attributions":["<a href=\"https://maps.google.com/maps/contrib/118196816143840751705\">Olaf Steenbock</a>"],"photo_reference":"AeJbb3dhKYsvXblT2aLGIN2juOgOmk7-URUMsoEJGI3q7THAD5mOC9u_aUkWfkxNnnDblVbSSBTDDy1FYCkYL1GaRFO0e5Mh8j36DLQW1LG-1O561B4jqc6fjwdRWXettLsZHzptZcCkrxP9H2eIVFooE5JOxVd4BQJE0upiXBsrveujShXp","width":4032}],"place_id":"ChIJo799WuGOsUcRtCrwyGq-mzk","plus_code":{"compound_code":"H224+RQ Hamburg","global_code":"9F5GH224+RQ"},"price_level":2,"rating":1.9,"reference":"ChIJo799WuGOsUcRtCrwyGq-mzk","types":["restaurant","food","point_of_interest","establishment"],"user_ratings_total":458},{"business_status":"OPERATIONAL","formatted_address":"Paul-Nevermann-Platz 22, 22765 Hamburg","geometry":{"location":{"lat":53.5517274,"lng":9.934733099999999},"viewport":{"northeast":{"lat":53.55307152989272,"lng":9.936082829892719},"southwest":{"lat":53.55037187010728,"lng":9.933383170107275}}},"icon":"https://maps.gstatic.com/mapfiles/place_api/icons/v1/png_71/restaurant-71.png","icon_background_color":"#FF9E67","icon_mask_base_uri":"https://maps.gstatic.com/mapfiles/place_api/icons/v2/restaurant_pinlet","name":"burgerking 4","place_id":"ChIJURky0OmFsUcRIoHyJYq5aL0","plus_code":{"compound_code":"HW2M+MV Hamburg","global_code":"9F5FHW2M+MV"},"rating":1,"reference":"ChIJURky0OmFsUcRIoHyJYq5aL0","types":["restaurant","food","point_of_interest","establishment"],"user_ratings_total":2},{"business_status":"OPERATIONAL","formatted_address":"Kirchenallee 75, 20099 Hamburg","geometry":{"location":{"lat":53.552661,"lng":10.0087252},"viewport":{"northeast":{"lat":53.55400642989272,"lng":10.01002252989272},"southwest":{"lat":53.55130677010728,"lng":10.00732287010728}}},"icon":"https://maps.gstatic.com/mapfiles/place_api/icons/v1/png_71/restaurant-71.png","icon_background_color":"#FF9E67","icon_mask_base_uri":"https://maps.gstatic.com/mapfiles/place_api/icons/v2/restaurant_pinlet","name":"mcdonalds 2","place_id":"ChIJ5Y-CKaiPsUcRJC9db98bffg","plus_code":{"compound_code":"H235+3F Hamburg","global_code":"9F5GH235+3F"},"rating":0,"reference":"ChIJ5Y-CKaiPsUcRJC9db98bffg","types":["restaurant","food","point_of_interest","establishment"],"user_ratings_total":0},{"business_status":"OPERATIONAL","formatted_address":"Reeperbahn 38, 20359 Hamburg","geometry":{"location":{"lat":53.55001,"lng":9.96518},"viewport":{"northeast":{"lat":53.55127222989272,"lng":9.966555179892723},"southwest":{"lat":53.54857257010728,"lng":9.963855520107279}}},"icon":"https://maps.gstatic.com/mapfiles/place_api/icons/v1/png_71/restaurant-71.png","icon_background_color":"#FF9E67","icon_mask_base_uri":"https://maps.gstatic.com/mapfiles/place_api/icons/v2/restaurant_pinlet","name":"kfc 8","place_id":"ChIJ_YNwJGGPsUcRdJA2VsC0kx4","plus_code":{"compound_code":"HX28+23 Hamburg","global_code":"9F5FHX28+23"},"rating":0,"reference":"ChIJ_YNwJGGPsUcRdJA2VsC0kx4","types":["restaurant","food","point_of_interest","establishment"],"user_ratings_total":0},{"business_status":"OPERATIONAL","formatted_address":"Bahrenfelder Str. 242, 22765 Hamburg","geometry":{"location":{"lat":53.55672200000001,"lng":9.928437299999999},"viewport":{"northeast":{"lat":53.55805167989272,"lng":9.929632229892722},"southwest":{"lat":53.55535202010728,"lng":9.926932570107278}}},"icon":"https://maps.gstatic.com/mapfiles/place_api/icons/v1/png_71/restaurant-71.png","icon_background_color":"#FF9E67","icon_mask_base_uri":"https://maps.gstatic.com/mapfiles/place_api/icons/v2/restaurant_pinlet","name":"Jiwan restaurant","place_id":"ChIJ2yheouKFsUcRY58XPDY0l9I","plus_code":{"compound_code":"HW4H+M9 Hamburg","global_code":"9F5FHW4H+M9"},"rating":0,"reference":"ChIJ2yheouKFsUcRY58XPDY0l9I","types":["restaurant","food","point_of_interest","establishment"],"user_ratings_total":0}]