[{"business_status":"OPERATIONAL","formatted_address":"Grünberger Str. 33, 10245 Berlin, Germany","geometry":{"location":{"lat":52.51243760000001,"lng":13.4538023},"viewport":{"northeast":{"lat":52.51370427989271,"lng":13.45510282989272},"southwest":{"lat":52.51100462010727,"lng":13.45240317010728}}},"icon":"https://maps.gstatic.com/mapfiles/place_api/icons/v1/png_71/restaurant-71.png","icon_background_color":"#FF9E67","icon_mask_base_uri":"https://maps.gstatic.com/mapfiles/place_api/icons/v2/restaurant_pinlet","name":"Taverna Olive - Ihr Grieche in Friedrichshain","opening_hours":{"open_now":true},"photos":[{"height":1512,"html_attributions":["<a href=\"https://maps.google.com/maps/contrib/104175583966349905538\">A Google User</a>"],"photo_reference":"AeJbb3d1RgVsk2BpU22Gs6W9bRge42PSTvsVDuGl6e0m3hOUDGzOn5mWRDr0_MvMC0qqiiHftUPyPDRUHRgkyErIUPcHDwhwmIrNkwVggXxXjDVAGjlRYnaYZYKYbTB8BcVDXhxkNYnsTS5r8b1QnhRn6VsJj610fc7pkRKopMmzcX20n7Mt","width":2016}],"place_id":"ChIJpUrCVVdPqEcRGL2FRfwujtY","plus_code":{"compound_code":"GF63+XG Berlin","global_code":"9F4MGF63+XG"},"rating":4.8,"reference":"ChIJpUrCVVdPqEcRGL2FRfwujtY","types":["restaurant","food","point_of_interest","establishment"],"user_ratings_total":68},{"business_status":"OPERATIONAL","formatted_address":"Friesenstraße 12, 10965 Berlin, Germany","geometry":{"location":{"lat":52.4867344,"lng":13.394103},"viewport":{"northeast":{"lat":52.48801772989272,"lng":13.39560422989272},"southwest":{"lat":52.48531807010727,"lng":13.39290457010728}}},"icon":"https://maps.gstatic.com/mapfiles/place_api/icons/v1/png_71/restaurant-71.png","icon_background_color":"#FF9E67","icon_mask_base_uri":"https://maps.gstatic.com/mapfiles/place_api/icons/v2/restaurant_pinlet","name":"Restaurant Z","opening_hours":{"open_now":false},"photos":[{"height":2160,"html_attributions":["<a href=\"https://maps.google.com/maps/contrib/110319660585324539294\">Robert Sprotte</a>"],"photo_reference":"AeJbb3cEaOXUaqi2hWEyTP1mOx14PjYfvW_-cZYyBC1_ODJK-XIpVuQizbmVBwSt_1V02Y2NNXM6bisNYSXTkJMhLThEh8FE-txiU_ksS5SS5kGMYmm_fB3WI8u59eOyQAuQQQ12RFBN8kZnqIGTgOSukSDm6WlG54IYrcJev-b2E9USSebj","width":3840}],"place_id":"ChIJ-5l_A9lPqEcR0IKJve2NT-c","plus_code":{"compound_code":"F9PV+MJ Berlin","global_code":"9F4MF9PV+MJ"},"price_level":2,"rating":4.7,"reference":"ChIJ-5l_A9lPqEcR0IKJve2NT-c","types":["restaurant","food","point_of_interest","establishment"],"user_ratings_total":671},{"business_status":"OPERATIONAL","formatted_address":"Kohlfurter Str. 37, 10999 Berlin, Germany","geometry":{"location":{"lat":52.4970222,"lng":13.4176131},"viewport":{"northeast":{"lat":52.49836372989272,"lng":13.41895592989272},"southwest":{"lat":52.49566407010727,"lng":13.41625627010728}}},"icon":"https://maps.gstatic.com/mapfiles/place_api/icons/v1/png_71/restaurant-71.png","icon_background_color":"#FF9E67","icon_mask_base_uri":"https://maps.gstatic.com/mapfiles/place_api/icons/v2/restaurant_pinlet","name":"Kreuzberger Weltlaterne","opening_hours":{"open_now":false},"photos":[{"height":3456,"html_attributions":["<a href=\"https://maps.google.com/maps/contrib/113787106833290283301\">A Google User</a>"],"photo_reference":"AeJbb3evBwOYBGNNcTaPjBh1T2Idfh4Au2VwhTvvhFD2tW8hx1dAwDsbsEWRgAgeuY5lAA-hqT7G8geDvYqOKxbGL_yf_cI5e6KLwsjWRm8NKdae41EaWqllA6givoRJGyd_sr1HuBp2merZNHZxP4pWQI9XFBtsXN3U8L7fY-n_T1Mmwyjd","width":4608}],"place_id":"ChIJOUzQo8xPqEcRC1UA5yDYI0k","plus_code":{"compound_code":"FCW9+R3 Berlin","global_code":"9F4MFCW9+R3"},"price_level":2,"rating":4.7,"reference":"ChIJOUzQo8xPqEcRC1UA5yDYI0k","types":["restaurant","food","point_of_interest","establishment"],"user_ratings_total":601},{"business_status":"OPERATIONAL","formatted_address":"Mittenwalder Str. 13, 10961 Berlin, Germany","geometry":{"location":{"lat":52.492688,"lng":13.3964734},"viewport":{"northeast":{"lat":52.49400652989272,"lng":13.39799972989272},"southwest":{"lat":52.49130687010727,"lng":13.39530007010728}}},"icon":"https://maps.gstatic.com/mapfiles/place_api/icons/v1/png_71/restaurant-71.png","icon_background_color":"#FF9E67","icon_mask_base_uri":"https://maps.gstatic.com/mapfiles/place_api/icons/v2/restaurant_pinlet","name":"Nonne & Zwerg","opening_hours":{"open_now":true},"photos":[{"height":4032,"html_attributions":["<a href=\"https://maps.google.com/maps/contrib/101196252955694869926\">Florine Cerclé</a>"],"photo_reference":"AeJbb3cmHbk6U22Ljk1Ud675XsPXym7V-Xnw9-nBZ3BDG998ccyu_AE2TGKF_DJrhIxggll7wSxJ2S-ip4CarP82S9HdTKL_H_LYRDOtMNTq0FI8u0GMZG8cgSiYI0DDRIZxsgNw9wpgkNTo98btInxu8-M5ffWSTV937fXl5rPilnrRPxGJ","width":3024}],"place_id":"ChIJww2VVdZPqEcRRv6Nek7lud0","plus_code":{"compound_code":"F9VW+3H Berlin","global_code":"9F4MF9VW+3H"},"price_level":2,"rating":4.7,"reference":"ChIJww2VVdZPqEcRRv6Nek7lud0","types":["restaurant","food","point_of_interest","establishment"],"user_ratings_total":371},{"business_status":"OPERATIONAL","formatted_address":"Ringstraße 96, 12203 Berlin, Germany","geometry":{"location":{"lat":52.43785270000001,"lng":13.3062982},"viewport":{"northeast":{"lat":52.43913507989272,"lng":13.30769817989272},"southwest":{"lat":52.43643542010728,"lng":13.30499852010728}}},"icon":"https://maps.gstatic.com/mapfiles/place_api/icons/v1/png_71/restaurant-71.png","icon_background_color":"#FF9E67","icon_mask_base_uri":"https://maps.gstatic.com/mapfiles/place_api/icons/v2/restaurant_pinlet","name":"Restaurant Rhodos","opening_hours":{"open_now":true},"photos":[{"height":3024,"html_attributions":["<a href=\"https://maps.google.com/maps/contrib/110703014365976624584\">Sandra Brunn</a>"],"photo_reference":"AeJbb3ckpY1ptFX6qM_Napb7uvqaGdiiQlksp89yY9vHb004B2ky8OmrstD_RiR0Z9NJSWXjIJbKypGQ-H7eW8K7RnrAqcfdI5QlszVMNm4h_iy2-w_VIOU3MkiWQemecOjRfgj4qOgEmO6ZRf5KG3TKdlowhRbHhQ-khqZRAPM0IagM19QP","width":4032}],"place_id":"ChIJBSD7DhhbqEcR-EqA0xAAcyI","plus_code":{"compound_code":"C8Q4+4G Berlin","global_code":"9F4MC8Q4+4G"},"rating":4.7,"reference":"ChIJBSD7DhhbqEcR-EqA0xAAcyI","types":["restaurant","food","point_of_interest","establishment"],"user_ratings_total":237},{"business_status":"OPERATIONAL","formatted_address":"Veteranenstraße 25, 10119 Berlin, Germany","geometry":{"location":{"lat":52.5330185,"lng":13.4000754},"viewport":{"northeast":{"lat":52.53431257989272,"lng":13.40148942989272},"southwest":{"lat":52.53161292010728,"lng":13.39878977010728}}},"icon":"https://maps.gstatic.com/mapfiles/place_api/icons/v1/png_71/restaurant-71.png","icon_background_color":"#FF9E67","icon_mask_base_uri":"https://maps.gstatic.com/mapfiles/place_api/icons/v2/restaurant_pinlet","name":"Rises Delicacies","opening_hours":{"open_now":true},"photos":[{"height":3024,"html_attributions":["<a href=\"https://maps.google.com/maps/contrib/118285424074073118005\">A Google User</a>"],"photo_reference":"AeJbb3dHDb4X_HDXrnhLXIgqcGc3BN67j3FWmTG9K8FN_SFTi-sRsHF8pk-Wsh8q-uHtD-g94h6VavL_pw1dPJRQUzCFo-sUzRLU6yeMs37uRkj45OH6lAmEacJRf1CArnEhsifJTJ6jHbrv48kf3QNljlzXvFGXZjkd4dUK1K5qlLYXdBHP","width":3024}],"place_id":"ChIJvd2e0vpRqEcRvV7M6U7Mve4","plus_code":{"compound_code":"GCM2+62 Berlin","global_code":"9F4MGCM2+62"},"price_level":2,"rating":4.7,"reference":"ChIJvd2e0vpRqEcRvV7M6U7Mve4","types":["grocery_or_supermarket","store","restaurant","food","point_of_interest","establishment"],"user_ratings_total":189},{"business_status":"OPERATIONAL","formatted_address":"Oranienstraße 179, 10999 Berlin, Germany","geometry":{"location":{"lat":52.50102769999999,"lng":13.419882},"viewport":{"northeast":{"lat":52.50239162989272,"lng":13.42125592989272},"southwest":{"lat":52.49969197010728,"lng":13.41855627010728}}},"icon":"https://maps.gstatic.com/mapfiles/place_api/icons/v1/png_71/bar-71.png","icon_background_color":"#FF9E67","icon_mask_base_uri":"https://maps.gstatic.com/mapfiles/place_api/icons/v2/bar_pinlet","name":"Meze Haus Mittelmeerfeinkost","opening_hours":{"open_now":true},"photos":[{"height":3792,"html_attributions":["<a href=\"https://maps.google.com/maps/contrib/103723053423016813730\">Tomas Gering</a>"],"photo_reference":"AeJbb3cU4CF0Dt10g-sbM6VdKrLYt4PuaWZEqpSMnSndcEuKDATVDc4SfApC-YpO0QrnGJMot8uzWxKom9cFUuiFSyYU_hHTnXE8gBh9pg6jxgbcOzdK4oDM7kWSTCFMMUucMUXgyZuKhmwvkJQNsygIeWJ5RirapVJHB52FdIUyu_SRIXSf","width":3792}],"place_id":"ChIJxzXQhjNOqEcRvgZV351ap6U","plus_code":{"compound_code":"GC29+9W Berlin","global_code":"9F4MGC29+9W"},"rating":4.7,"reference":"ChIJxzXQhjNOqEcRvgZV351ap6U","types":["bar","restaurant","food","point_of_interest","establishment"],"user_ratings_total":163},{"business_status":"OPERATIONAL","formatted_address":"Helene-Weigel-Platz 7, 12681 Berlin, Germany","geometry":{"location":{"lat":52.5280516,"lng":13.5396873},"viewport":{"northeast":{"lat":52.52945357989272,"lng":13.54095707989272},"southwest":{"lat":52.52675392010728,"lng":13.53825742010728}}},"icon":"https://maps.gstatic.com/mapfiles/place_api/icons/v1/png_71/restaurant-71.png","icon_background_color":"#FF9E67","icon_mask_base_uri":"https://maps.gstatic.com/mapfiles/place_api/icons/v2/restaurant_pinlet","name":"Restaurant Akropolis Berlin","opening_hours":{"open_now":true},"photos":[{"height":3024,"html_attributions":["<a href=\"https://maps.google.com/maps/contrib/114977502264439149397\">Anja Rubbert</a>"],"photo_reference":"AeJbb3dtLepacTffacFH6q6QuqotEcAX5WrqPSejp_YL4lwZ3C3qFSaDaA-2dc6A8wW76Sy80UOP2TuiuqRIvjme2lVcmvy8KRUaapBoCCtvI9SuQc1SVu3-9ZH12LemED6cRvsFnmbPX_DRY9Nl2DJL7cybu6u1O8Mj1k2aakotsbvRg98K","width":4032}],"place_id":"ChIJaW9D0P9LqEcRP2y382jszxk","plus_code":{"compound_code":"GGHQ+6V Berlin","global_code":"9F4MGGHQ+6V"},"price_level":2,"rating":4.6,"reference":"ChIJaW9D0P9LqEcRP2y382jszxk","types":["meal_takeaway","bar","restaurant","food","point_of_interest","establishment"],"user_ratings_total":1528},{"business_status":"OPERATIONAL","formatted_address":"Schnellerstraße 97, 12439 Berlin, Germany","geometry":{"location":{"lat":52.4533386,"lng":13.5242242},"viewport":{"northeast":{"lat":52.45456592989272,"lng":13.52550342989272},"southwest":{"lat":52.45186627010727,"lng":13.52280377010728}}},"icon":"https://maps.gstatic.com/mapfiles/place_api/icons/v1/png_71/restaurant-71.png","icon_background_color":"#FF9E67","icon_mask_base_uri":"https://maps.gstatic.com/mapfiles/place_api/icons/v2/restaurant_pinlet","name":"Artemis","opening_hours":{"open_now":true},"photos":[{"height":1646,"html_attributions":["<a href=\"https://maps.google.com/maps/contrib/112867932242112589085\">A Google User</a>"],"photo_reference":"AeJbb3cp5b1E63hWWSNxWhcML19rotz7iHwXF3etT0_ngCO6XXAR5zKLfEsPUOXF94ft0fe2K4cdUT1p5YBP_c2IrZ1swY5ODIiPnQ0CUt1S-x1Pc2pnuABDLgdMm_Px66DczPsKwdKeDuMVBxBS05SvZn7zDu6BmHXliKUmqYObEvBaqJRW","width":2985}],"place_id":"ChIJjSwrK71IqEcR7c4Gxo_zGMI","plus_code":{"compound_code":"FG3F+8M Berlin","global_code":"9F4MFG3F+8M"},"price_level":2,"rating":4.6,"reference":"ChIJjSwrK71IqEcR7c4Gxo_zGMI","types":["restaurant","food","point_of_interest","establishment"],"user_ratings_total":1427},{"business_status":"OPERATIONAL","formatted_address":"Utrechter Str. 22, 13347 Berlin, Germany","geometry":{"location":{"lat":52.5498822,"lng":13.3579286},"viewport":{"northeast":{"lat":52.55119842989272,"lng":13.35942282989272},"southwest":{"lat":52.54849877010727,"lng":13.35672317010728}}},"icon":"https://maps.gstatic.com/mapfiles/place_api/icons/v1/png_71/restaurant-71.png","icon_background_color":"#FF9E67","icon_mask_base_uri":"https://maps.gstatic.com/mapfiles/place_api/icons/v2/restaurant_pinlet","name":"Taverna Hellas Wedding","opening_hours":{"open_now":true},"photos":[{"height":1836,"html_attributions":["<a href=\"https://maps.google.com/maps/contrib/106319304191736867211\">A Google User</a>"],"photo_reference":"AeJbb3cleM0BWP6rj8979Yasr8Eu-tkTT2X2NRuagVoV9Q5L-t-sYFGX2EyjAZV18N4EFHfrLiSXDYCi7-j__-pUF_JxnVBqNw8c1Ymb7Nv68qCp_enTrMnV5ML0q3PamdLxQ0zW7LEZCaEtjuwZciPXyaJ_G4IovJ0yxrWC_5THKp0JI_7D","width":3264}],"place_id":"ChIJ2fbxONVTqEcR8fx_6csfHfE","plus_code":{"compound_code":"G9X5+X5 Berlin","global_code":"9F4MG9X5+X5"},"price_level":2,"rating":4.6,"reference":"ChIJ2fbxONVTqEcR8fx_6csfHfE","types":["restaurant","food","point_of_interest","establishment"],"user_ratings_total":887},{"business_status":"OPERATIONAL","formatted_address":"Pistoriusstraße 31, 13086 Berlin, Germany","geometry":{"location":{"lat":52.5532014,"lng":13.4485489},"viewport":{"northeast":{"lat":52.55451407989271,"lng":13.44989672989272},"southwest":{"lat":52.55181442010727,"lng":13.44719707010728}}},"icon":"https://maps.gstatic.com/mapfiles/place_api/icons/v1/png_71/restaurant-71.png","icon_background_color":"#FF9E67","icon_mask_base_uri":"https://maps.gstatic.com/mapfiles/place_api/icons/v2/restaurant_pinlet","name":"PLATON Restaurant","opening_hours":{"open_now":true},"photos":[{"height":3456,"html_attributions":["<a href=\"https://maps.google.com/maps/contrib/105056371089751214839\">Eduard Stamm</a>"],"photo_reference":"AeJbb3fCzf-SVivXV2vrdl4pZmNOqqRfOv5c7G292gyLqszypBzc8V5TK15FAi5YWey-uPNwoaLOITaWobBbXTY2nRBEHBsvdBYDv2WZ3Pa8BWPq2Di-nU6UpDjd_B99HQ-yo44IUswOuMOGaZIA-ezxoV3TnYE5ijTXNBqqLThIOPHt8qwY","width":4608}],"place_id":"ChIJUQzkbOlNqEcR5iZOnKN1yN0","plus_code":{"compound_code":"HC3X+79 Berlin","global_code":"9F4MHC3X+79"},"price_level":2,"rating":4.6,"reference":"ChIJUQzkbOlNqEcR5iZOnKN1yN0","types":["restaurant","food","point_of_interest","establishment"],"user_ratings_total":728},{"business_status":"OPERATIONAL","formatted_address":"Südwestkorso 15, 12161 Berlin, Germany","geometry":{"location":{"lat":52.4732835,"lng":13.3213592},"viewport":{"northeast":{"lat":52.47459432989272,"lng":13.32271417989272},"southwest":{"lat":52.47189467010728,"lng":13.32001452010728}}},"icon":"https://maps.gstatic.com/mapfiles/place_api/icons/v1/png_71/restaurant-71.png","icon_background_color":"#FF9E67","icon_mask_base_uri":"https://maps.gstatic.com/mapfiles/place_api/icons/v2/restaurant_pinlet","name":"Achilles' Taverna","opening_hours":{"open_now":true},"photos":[{"height":1836,"html_attributions":["<a href=\"https://maps.google.com/maps/contrib/100981599962074754191\">Uwe Doerwald</a>"],"photo_reference":"AeJbb3fuMHvug5touLHrX61-nlColUwwbJ-5xc83qA5sL8JL2hNJ4wxfhgOWdf6h93Z1POBpIJABlLocw0JJIdjAnuMvfc9UjXxDt5TD3Gd0gkUCFp1i7MmEFdNRTmQ9ODfxbiCYacA_I-Vhj3MnfkAYM3TSKSqNYffdW22jhvoIaUXcLN5h","width":3264}],"place_id":"ChIJ89t3h31QqEcRXpGRPUGOmrQ","plus_code":{"compound_code":"F8FC+8F Berlin","global_code":"9F4MF8FC+8F"},"price_level":2,"rating":4.6,"reference":"ChIJ89t3h31QqEcRXpGRPUGOmrQ","types":["restaurant","food","point_of_interest","establishment"],"user_ratings_total":588},{"business_status":"OPERATIONAL","formatted_address":"am S-Bhf Savignyplatz, Else-Ury-Bogen 597, 10623 Berlin, Germany","geometry":{"location":{"lat":52.505084,"lng":13.3206868},"viewport":{"northeast":{"lat":52.50644842989271,"lng":13.32309415},"southwest":{"lat":52.50374877010726,"lng":13.31988435}}},"icon":"https://maps.gstatic.com/mapfiles/place_api/icons/v1/png_71/restaurant-71.png","icon_background_color":"#FF9E67","icon_mask_base_uri":"https://maps.gstatic.com/mapfiles/place_api/icons/v2/restaurant_pinlet","name":"Kouzina Berlin","opening_hours":{"open_now":true},"photos":[{"height":925,"html_attributions":["<a href=\"https://maps.google.com/maps/contrib/100592366109117700860\">A Google User</a>"],"photo_reference":"AeJbb3e2ArAk7PWhkdMoVWXJ8dmrrx1trK8jgv_rfraXDSkAte3Zz60VF96fy9d9AUNipL621GuPIEWhPnCx-wXqkNK24HPZGQ5U35Uc5_Tmdw-6ye4pFKNs2uiE8RkvzyfvEgLzBF0XCcmYJo55UCwKRrfcxv2m_mWjHGTRQMllBIhtmq5d","width":1242}],"place_id":"ChIJW8FbSuNQqEcR1MRdRpxnx-8","plus_code":{"compound_code":"G84C+27 Berlin","global_code":"9F4MG84C+27"},"price_level":2,"rating":4.6,"reference":"ChIJW8FbSuNQqEcR1MRdRpxnx-8","types":["restaurant","food","point_of_interest","establishment"],"user_ratings_total":374},{"business_status":"OPERATIONAL","formatted_address":"Köpenicker Str. 181, 12683 Berlin, Germany","geometry":{"location":{"lat":52.4879038,"lng":13.5607553},"viewport":{"northeast":{"lat":52.48924997989272,"lng":13.56196942989272},"southwest":{"lat":52.48655032010728,"lng":13.55926977010728}}},"icon":"https://maps.gstatic.com/mapfiles/place_api/icons/v1/png_71/restaurant-71.png","icon_background_color":"#FF9E67","icon_mask_base_uri":"https://maps.gstatic.com/mapfiles/place_api/icons/v2/restaurant_pinlet","name":"Greek Restaurant ELIA","opening_hours":{"open_now":true},"photos":[{"height":1536,"html_attributions":["<a href=\"https://maps.google.com/maps/contrib/100981287657726883081\">Kerstin Walter</a>"],"photo_reference":"AeJbb3cqpozHNrBBRYairAJLU_sCI6vNCvafTL_3duZ4H_TFnQl4dPsbhMnSl1nZkB43hTwRbAvbT22sC2IZ-9O1V8gJ0i7SapxK4SKfJGgMvhbVY4HYY29J7-ebi6oClfugdymdU2dk1FM69zN7LLawRJkgaxp98ctQ8q1DiTvSoai6lEdE","width":2048}],"place_id":"ChIJs_pcSBxJqEcReqiam4QTmsU","plus_code":{"compound_code":"FHQ6+58 Berlin","global_code":"9F4MFHQ6+58"},"rating":4.6,"reference":"ChIJs_pcSBxJqEcReqiam4QTmsU","types":["meal_takeaway","restaurant","food","point_of_interest","establishment"],"user_ratings_total":267},{"business_status":"OPERATIONAL","formatted_address":"Otto-Suhr-Allee 104, 10585 Berlin, Germany","geometry":{"location":{"lat":52.5173712,"lng":13.307717},"viewport":{"northeast":{"lat":52.51864717989273,"lng":13.30893542989272},"southwest":{"lat":52.51594752010728,"lng":13.30623577010728}}},"icon":"https://maps.gstatic.com/mapfiles/place_api/icons/v1/png_71/restaurant-71.png","icon_background_color":"#FF9E67","icon_mask_base_uri":"https://maps.gstatic.com/mapfiles/place_api/icons/v2/restaurant_pinlet","name":"Kalimera Griechische tavernaki Berlin","opening_hours":{"open_now":true},"photos":[{"height":1960,"html_attributions":["<a href=\"https://maps.google.com/maps/contrib/102058900269766745364\">A Google User</a>"],"photo_reference":"AeJbb3fUP5vHEfUBl7ErF0Cpol9mj-1IHgCe7eHHLNCMEpZyEZbe16kEnhL3O5IAOiHtTBKfvejIk3cORvNU0SylK_6rWdColnbF1WKQoQymZXPYBnOJ0UCKLRtv1VzZ963DJDekYGrHpBTVpFzkVoNil2Tj8oGgd8fNDTGqCZRT60yY6v1r","width":4032}],"place_id":"ChIJBU0JySNRqEcRSsN5MVB9NGM","plus_code":{"compound_code":"G885+W3 Berlin","global_code":"9F4MG885+W3"},"price_level":1,"rating":4.6,"reference":"ChIJBU0JySNRqEcRSsN5MVB9NGM","types":["restaurant","food","point_of_interest","establishment"],"user_ratings_total":90},{"business_status":"OPERATIONAL","formatted_address":"Malchower Weg 45, 13053 Berlin, Germany","geometry":{"location":{"lat":52.553804,"lng":13.5029269},"viewport":{"northeast":{"lat":52.55526602989273,"lng":13.50430112989272},"southwest":{"lat":52.55256637010728,"lng":13.50160147010728}}},"icon":"https://maps.gstatic.com/mapfiles/place_api/icons/v1/png_71/restaurant-71.png","icon_background_color":"#FF9E67","icon_mask_base_uri":"https://maps.gstatic.com/mapfiles/place_api/icons/v2/restaurant_pinlet","name":"Restaurant Olympia Berlin","opening_hours":{"open_now":true},"photos":[{"height":6000,"html_attributions":["<a href=\"https://maps.google.com/maps/contrib/114047294402368831467\">A Google User</a>"],"photo_reference":"AeJbb3c2oUXyd3OWab5FFMzIWe3GczXVWJVHPobYLkdBk6Q0d3RKoHNxuxUvVSueWJLCYI1fcMnh1aFiCZrpXRApwajDZ8Umb1XP8aM9beyzpeCNBKanhXTXKw6EXK_Cc9MRBK6MvqWlZWRoACOHHr0tA5r9NSS8OcG7RmNdW7IBfEykIn64","width":8000}],"place_id":"ChIJewOHh0dMqEcR-lxmXVQbvZY","plus_code":{"compound_code":"HG33+G4 Berlin","global_code":"9F4MHG33+G4"},"price_level":2,"rating":4.5,"reference":"ChIJewOHh0dMqEcR-lxmXVQbvZY","types":["bar","restaurant","food","point_of_interest","establishment"],"user_ratings_total":3092},{"business_status":"OPERATIONAL","formatted_address":"Schönhauser Allee 143, 10435 Berlin, Germany","geometry":{"location":{"lat":52.5415419,"lng":13.4117448},"viewport":{"northeast":{"lat":52.54291522989271,"lng":13.41321552989272},"southwest":{"lat":52.54021557010727,"lng":13.41051587010728}}},"icon":"https://maps.gstatic.com/mapfiles/place_api/icons/v1/png_71/restaurant-71.png","icon_background_color":"#FF9E67","icon_mask_base_uri":"https://maps.gstatic.com/mapfiles/place_api/icons/v2/restaurant_pinlet","name":"Asteria","opening_hours":{"open_now":false},"photos":[{"height":12000,"html_attributions":["<a href=\"https://maps.google.com/maps/contrib/117557134234339313377\">A Google User</a>"],"photo_reference":"AeJbb3csPPGEAS7gEjUE7GzSntxgmnyf_nM1wL5sG0yVNdRYhiBJacLqLPrdG4CCZ3DfkGcBxQmC9Dw_y6oz6aKypTdQBf-vBpLx823LNSEZy1QaA14U5xFejxhWYpoTOxbMRT4ASenlpEsl7vWBEiptrhPzdD83y6eBdg_Vrv0_SseGOidf","width":9000}],"place_id":"ChIJhWheb_9RqEcReDrBqesXFmk","plus_code":{"compound_code":"GCR6+JM Berlin","global_code":"9F4MGCR6+JM"},"price_level":2,"rating":4.5,"reference":"ChIJhWheb_9RqEcReDrBqesXFmk","types":["restaurant","food","point_of_interest","establishment"],"user_ratings_total":2496},{"business_status":"OPERATIONAL","formatted_address":"Alt-Blankenburg 22, 13129 Berlin, Germany","geometry":{"location":{"lat":52.59269150000001,"lng":13.4548809},"viewport":{"northeast":{"lat":52.59413832989272,"lng":13.45619992989272},"southwest":{"lat":52.59143867010728,"lng":13.45350027010728}}},"icon":"https://maps.gstatic.com/mapfiles/place_api/icons/v1/png_71/restaurant-71.png","icon_background_color":"#FF9E67","icon_mask_base_uri":"https://maps.gstatic.com/mapfiles/place_api/icons/v2/restaurant_pinlet","name":"Restaurant Syrtaki","opening_hours":{"open_now":true},"photos":[{"height":3000,"html_attributions":["<a href=\"https://maps.google.com/maps/contrib/114047294402368831467\">A Google User</a>"],"photo_reference":"AeJbb3egyISTdJWcjhigOsWCOhHcITcbEVFnszO99uJezA2HTBkpKc9AOtXtZ6jGots-mqdQGagEPccN1jLUsBsK6GExfG6VhS0wLafaNqNpelcrKxpOT-aW3rJeKymJLQVohVBCXkarwuIfH9Y7xGBUg5KfjE9ShS5sH4rgUHMuAbOwIO-V","width":4000}],"place_id":"ChIJ3Z6BJGVNqEcR4Je6sEXzSr8","plus_code":{"compound_code":"HFV3+3X Berlin","global_code":"9F4MHFV3+3X"},"price_level":2,"rating":4.5,"reference":"ChIJ3Z6BJGVNqEcR4Je6sEXzSr8","types":["restaurant","food","point_of_interest","establishment"],"user_ratings_total":1902},{"business_status":"OPERATIONAL","formatted_address":"Radickestraße 57, 12489 Berlin, Germany","geometry":{"location":{"lat":52.4349077,"lng":13.5468017},"viewport":{"northeast":{"lat":52.43628252989272,"lng":13.54812582989272},"southwest":{"lat":52.43358287010727,"lng":13.54542617010728}}},"icon":"https://maps.gstatic.com/mapfiles/place_api/icons/v1/png_71/restaurant-71.png","icon_background_color":"#FF9E67","icon_mask_base_uri":"https://maps.gstatic.com/mapfiles/place_api/icons/v2/restaurant_pinlet","name":"Griechisches Restaurant Athen","opening_hours":{"open_now":true},"photos":[{"height":4032,"html_attributions":["<a href=\"https://maps.google.com/maps/contrib/113398877765866549038\">Ina Jahreis</a>"],"photo_reference":"AeJbb3caG1qTQS79H2JwaPV9XzLk9o9KxzaANMPYzS-tpPhzQnZgLkFjoi44iXKPPIu8s9z_xFMNsBhOV_CIbV32DSgvKpnBQLEHOq0E7MFqVBQA1DUtRus4BZ2yzjUEyoLfPp8q2Daabc7wVD2HnDkfBPkWCcAzpHPUL5QSyocJzI9EywaD","width":3024}],"place_id":"ChIJEeZMZStGqEcRHzXDUZBYUf8","plus_code":{"compound_code":"CGMW+XQ Berlin","global_code":"9F4MCGMW+XQ"},"price_level":2,"rating":4.5,"reference":"ChIJEeZMZStGqEcRHzXDUZBYUf8","types":["liquor_store","bakery","store","restaurant","food","point_of_interest","establishment"],"user_ratings_total":796},{"business_status":"OPERATIONAL","formatted_address":"Kastanienallee 37-38, 13158 Berlin, Germany","geometry":{"location":{"lat":52.592192,"lng":13.3831379},"viewport":{"northeast":{"lat":52.59342632989272,"lng":13.38452407989272},"southwest":{"lat":52.59072667010727,"lng":13.38182442010728}}},"icon":"https://maps.gstatic.com/mapfiles/place_api/icons/v1/png_71/restaurant-71.png","icon_background_color":"#FF9E67","icon_mask_base_uri":"https://maps.gstatic.com/mapfiles/place_api/icons/v2/restaurant_pinlet","name":"Restaurant Astakos","opening_hours":{"open_now":true},"photos":[{"height":2268,"html_attributions":["<a href=\"https://maps.google.com/maps/contrib/107137073912598440869\">Ferdinand Erben</a>"],"photo_reference":"AeJbb3eilQBTV446DyzwBQBUiHEneq55HCkD0rcGL_CqUq7HOeI6_p-Dd7gG0abGvBAUiIka-WGUBy99UMlL-4v6zKCV5_Edi5m71mfuNwl4XRUT1eQclF0cJ19AJqLjC1sDG36eILYfoIFvE5oylEhDV89GOe1L1-8Ucoy37JJkU12ZLMiE","width":4032}],"place_id":"ChIJufRnUv5SqEcREBIbZPjps4E","plus_code":{"compound_code":"H9RM+V7 Berlin","global_code":"9F4MH9RM+V7"},"price_level":2,"rating":4.5,"reference":"ChIJufRnUv5SqEcREBIbZPjps4E","types":["restaurant","food","point_of_interest","establishment"],"user_ratings_total":678},{"business_status":"OPERATIONAL","formatted_address":"Grunewaldstraße 54, 10825 Berlin, Germany","geometry":{"location":{"lat":52.488164,"lng":13.337664},"viewport":{"northeast":{"lat":52.48955902989272,"lng":13.33901882989272},"southwest":{"lat":52.48685937010728,"lng":13.33631917010728}}},"icon":"https://maps.gstatic.com/mapfiles/place_api/icons/v1/png_71/restaurant-71.png","icon_background_color":"#FF9E67","icon_mask_base_uri":"https://maps.gstatic.com/mapfiles/place_api/icons/v2/restaurant_pinlet","name":"Mr. Gyros","opening_hours":{"open_now":true},"photos":[{"height":2268,"html_attributions":["<a href=\"https://maps.google.com/maps/contrib/104232011125882384848\">Whippet Diego</a>"],"photo_reference":"AeJbb3fgCr4YPYf_pFBeyRH0TjsI0BP6v8DJf3uGNDIFTPeDyn9rEZ3E617P_tl3gQXLCSsDJo0zD0lkH9E6aRLdpACAkNK9M1-oV-N8VUOXd6J54HOcXU9sxLP1qJUcS7BJEuofYbKe2OtKdqGvcy4NQO61_IoxFDDx-gnW-QW72iZtWVBn","width":4032}],"place_id":"ChIJ4foAzV1QqEcRIqLQbivvOyo","plus_code":{"compound_code":"F8QQ+73 Berlin","global_code":"9F4MF8QQ+73"},"price_level":1,"rating":4.5,"reference":"ChIJ4foAzV1QqEcRIqLQbivvOyo","types":["restaurant","food","point_of_interest","establishment"],"user_ratings_total":641},{"business_status":"OPERATIONAL","formatted_address":"Grolmanstraße 35, 10623 Berlin, Germany","geometry":{"location":{"lat":52.5034769,"lng":13.3240893},"viewport":{"northeast":{"lat":52.50492307989272,"lng":13.32555107989272},"southwest":{"lat":52.50222342010728,"lng":13.32285142010728}}},"icon":"https://maps.gstatic.com/mapfiles/place_api/icons/v1/png_71/restaurant-71.png","icon_background_color":"#FF9E67","icon_mask_base_uri":"https://maps.gstatic.com/mapfiles/place_api/icons/v2/restaurant_pinlet","name":"Cassambalis","opening_hours":{"open_now":true},"photos":[{"height":2988,"html_attributions":["<a href=\"https://maps.google.com/maps/contrib/116466621269851908855\">marco sapioli</a>"],"photo_reference":"AeJbb3cj7q0fA_sOUyxIGhaOngq4CTdTUp8u9gSOeoM4eACSPyG7IRV0Lq-KGiXa9cdHNMg-Tna0nBKlraqskIY5cg_5Ma6GpaMdZQMVyqHqIa2PqD4gC9lcGQI-Hff3G5oreZ3hlRCDIup66MVci_TIeOAS8oKcEFsFqRRf9K5ZMLg8J7bW","width":5312}],"place_id":"ChIJ_au8f_tQqEcRikAGBGRhutc","plus_code":{"compound_code":"G83F+9J Berlin","global_code":"9F4MG83F+9J"},"rating":4.5,"reference":"ChIJ_au8f_tQqEcRikAGBGRhutc","types":["restaurant","food","point_of_interest","establishment"],"user_ratings_total":504},{"business_status":"OPERATIONAL","formatted_address":"Wilhelmshavener Str. 6, 10551 Berlin, Germany","geometry":{"location":{"lat":52.52850489999999,"lng":13.3415598},"viewport":{"northeast":{"lat":52.52989932989272,"lng":13.34280112989272},"southwest":{"lat":52.52719967010728,"lng":13.34010147010728}}},"icon":"https://maps.gstatic.com/mapfiles/place_api/icons/v1/png_71/restaurant-71.png","icon_background_color":"#FF9E67","icon_mask_base_uri":"https://maps.gstatic.com/mapfiles/place_api/icons/v2/restaurant_pinlet","name":"Taverna Amphipolis","opening_hours":{"open_now":false},"photos":[{"height":1836,"html_attributions":["<a href=\"https://maps.google.com/maps/contrib/117915612510644126700\">Ewald Wetter</a>"],"photo_reference":"AeJbb3f-M0ikhoXUJDL_8_ALF3DeqAOat30QuZuXoae5stP_pi92W0BN7c7nUqF6bWPV6JpOsxEx0aqlULNJbLgUNxfag1v0AZYBQjVXTHzeIjN2psQTrrt08z78uUl4Zkke9LmctqEtWOrwnuzDZWRijzXz915GNCTsatFYSJZ1eKQ_kD4H","width":3264}],"place_id":"ChIJrcSUUwtRqEcRf95jD_gUqoI","plus_code":{"compound_code":"G8HR+CJ Berlin","global_code":"9F4MG8HR+CJ"},"price_level":2,"rating":4.5,"reference":"ChIJrcSUUwtRqEcRf95jD_gUqoI","types":["restaurant","food","point_of_interest","establishment"],"user_ratings_total":463},{"business_status":"OPERATIONAL","formatted_address":"Kottbusser Damm 9, 10967 Berlin, Germany","geometry":{"location":{"lat":52.4938095,"lng":13.4212678},"viewport":{"northeast":{"lat":52.49517997989272,"lng":13.42272207989272},"southwest":{"lat":52.49248032010728,"lng":13.42002242010728}}},"icon":"https://maps.gstatic.com/mapfiles/place_api/icons/v1/png_71/restaurant-71.png","icon_background_color":"#FF9E67","icon_mask_base_uri":"https://maps.gstatic.com/mapfiles/place_api/icons/v2/restaurant_pinlet","name":"Taverna „To Koutouki“","opening_hours":{"open_now":false},"photos":[{"height":4032,"html_attributions":["<a href=\"https://maps.google.com/maps/contrib/111143631466221888044\">A Google User</a>"],"photo_reference":"AeJbb3esiyWY99vffE2eAHMXFFgdsx2wdAyrf7NIxINJJSxR0dffPJsZRlVQZu5_AUj6UeYn9rQwoR5do5ny9RkEyFx4IeyRwXisnDDipOs394W1KK1QZ6aGb24OJjdlAmW9lf4fMrf5-zfm4r2gHY9MV3JoU8ENdirgecaP_1rcoKVS1o_s","width":3024}],"place_id":"ChIJHeOOJp4jZUER3w13sncWesQ","plus_code":{"compound_code":"FCVC+GG Berlin","global_code":"9F4MFCVC+GG"},"price_level":2,"rating":4.5,"reference":"ChIJHeOOJp4jZUER3w13sncWesQ","types":["restaurant","food","point_of_interest","establishment"],"user_ratings_total":448},{"business_status":"OPERATIONAL","formatted_address":"Kantstraße 132, 10625 Berlin, Germany","geometry":{"location":{"lat":52.5060784,"lng":13.3148531},"viewport":{"northeast":{"lat":52.50746982989272,"lng":13.31620887989272},"southwest":{"lat":52.50477017010728,"lng":13.31350922010728}}},"icon":"https://maps.gstatic.com/mapfiles/place_api/icons/v1/png_71/restaurant-71.png","icon_background_color":"#FF9E67","icon_mask_base_uri":"https://maps.gstatic.com/mapfiles/place_api/icons/v2/restaurant_pinlet","name":"Stavros Grill & More","opening_hours":{"open_now":true},"photos":[{"height":4032,"html_attributions":["<a href=\"https://maps.google.com/maps/contrib/117767754075051018079\">A Google User</a>"],"photo_reference":"AeJbb3cmaxtPjtm7w77kIMbEc0RLrhLTWmJFtJccMGGaQlOGenz_9aW88JbhaDPiZZARsYP-iZpwm8iFnVOQFo45_QgyIWRSV_SO7FGQOPuln508tgbHVgvY8whoFTrHULxGSH7K2D2b4iwD0i7fxeJcWrckyrkhQlw2JlW19UfeaIFSlhtD","width":3024}],"place_id":"ChIJC-GhA-FRqEcR0qsv0JbhVpA","plus_code":{"compound_code":"G847+CW Berlin","global_code":"9F4MG847+CW"},"price_level":2,"rating":4.5,"reference":"ChIJC-GhA-FRqEcR0qsv0JbhVpA","types":["restaurant","food","point_of_interest","establishment"],"user_ratings_total":386},{"business_status":"OPERATIONAL","formatted_address":"Am Comeniuspl. 1, 10243 Berlin, Germany","geometry":{"location":{"lat":52.5123399,"lng":13.4480305},"viewport":{"northeast":{"lat":52.51365032989273,"lng":13.44942292989272},"southwest":{"lat":52.51095067010728,"lng":13.44672327010728}}},"icon":"https://maps.gstatic.com/mapfiles/place_api/icons/v1/png_71/restaurant-71.png","icon_background_color":"#FF9E67","icon_mask_base_uri":"https://maps.gstatic.com/mapfiles/place_api/icons/v2/restaurant_pinlet","name":"Taverna Kreta Friedrichshain","opening_hours":{"open_now":false},"photos":[{"height":3968,"html_attributions":["<a href=\"https://maps.google.com/maps/contrib/112909833558513399380\">HWAI EN TING</a>"],"photo_reference":"AeJbb3dLcmx9Z5su8TtkA7GqvYxolZlDAm8XFp6ybwAa5nbzVsCxGx1A7CU2fMGOHttP1LRmSvyklLmpBoHzzylhV3I5A3AQ8nWS_lJwIh78qxDyBSNs-fWiRK6kuCLOYDxHbVP0rV7DjNy3X4Rn72-o-pu7wrf2V5EUOdqsYOUHf7B0N15v","width":2976}],"place_id":"ChIJCRwzl4FPqEcRoxLpWBIYD6s","plus_code":{"compound_code":"GC6X+W6 Berlin","global_code":"9F4MGC6X+W6"},"price_level":2,"rating":4.5,"reference":"ChIJCRwzl4FPqEcRoxLpWBIYD6s","types":["restaurant","food","point_of_interest","establishment"],"user_ratings_total":374},{"business_status":"OPERATIONAL","formatted_address":"Bayerische Str. 26, 10707 Berlin, Germany","geometry":{"location":{"lat":52.4969209,"lng":13.314028},"viewport":{"northeast":{"lat":52.49819377989272,"lng":13.31529847989272},"southwest":{"lat":52.49549412010728,"lng":13.31259882010728}}},"icon":"https://maps.gstatic.com/mapfiles/place_api/icons/v1/png_71/restaurant-71.png","icon_background_color":"#FF9E67","icon_mask_base_uri":"https://maps.gstatic.com/mapfiles/place_api/icons/v2/restaurant_pinlet","name":"Georgios Restaurant","opening_hours":{"open_now":true},"photos":[{"height":960,"html_attributions":["<a href=\"https://maps.google.com/maps/contrib/107654907758775396766\">Georgios Karagiannidis</a>"],"photo_reference":"AeJbb3cibx02p3qPq_m0aAXRtf9Kpw0DwteoRuLnyXy8nFQNoqKOUezOPueGhelhwI_fpnwJRLicZxDcpXS-CPyVg3Wzb1DOkFL-4hq8uFM3JpJcnrUqpDxHzOuJCY-vhnKGi_w8OPgwNkBHQY4dLOsID2AChvqPYk1dRUrrNZ7MHjQL4LF4","width":960}],"place_id":"ChIJGQLXqe9QqEcRu2FMQbwB4zc","plus_code":{"compound_code":"F8W7+QJ Berlin","global_code":"9F4MF8W7+QJ"},"price_level":2,"rating":4.5,"reference":"ChIJGQLXqe9QqEcRu2FMQbwB4zc","types":["restaurant","food","point_of_interest","establishment"],"user_ratings_total":368},{"business_status":"OPERATIONAL","formatted_address":"Pannierstraße 55, 12047 Berlin, Germany","geometry":{"location":{"lat":52.48726500000001,"lng":13.4309456},"viewport":{"northeast":{"lat":52.48855697989273,"lng":13.43245377989272},"southwest":{"lat":52.48585732010729,"lng":13.42975412010728}}},"icon":"https://maps.gstatic.com/mapfiles/place_api/icons/v1/png_71/restaurant-71.png","icon_background_color":"#FF9E67","icon_mask_base_uri":"https://maps.gstatic.com/mapfiles/place_api/icons/v2/restaurant_pinlet","name":"Arethussa","opening_hours":{"open_now":false},"photos":[{"height":3216,"html_attributions":["<a href=\"https://maps.google.com/maps/contrib/115416583764335831240\">A Google User</a>"],"photo_reference":"AeJbb3f5by6yzeDRwFajCMEMfHvjqtCzdGbJyLBEC7yfUlHkn5qAdaHumsEHWUVHhRhVxo9hAYkqGbW2u_k1rvWBYlvsLVt6NERfEZeMBkIvnqiDRWJG6G0FdxfJGQgLL2wf9iro2M5JUdnwquotme4IicVYnUeR1tcm6nNsmbxzWpc-WYrw","width":4288}],"place_id":"ChIJyZYQ67BPqEcRhzE-10lcdro","plus_code":{"compound_code":"FCPJ+W9 Berlin","global_code":"9F4MFCPJ+W9"},"rating":4.5,"reference":"ChIJyZYQ67BPqEcRhzE-10lcdro","types":["restaurant","food","point_of_interest","establishment"],"user_ratings_total":366},{"business_status":"OPERATIONAL","formatted_address":"Eisenbahnstraße 2, 10997 Berlin, Germany","geometry":{"location":{"lat":52.501569,"lng":13.432056},"viewport":{"northeast":{"lat":52.50295957989272,"lng":13.43329862989272},"southwest":{"lat":52.50025992010728,"lng":13.43059897010728}}},"icon":"https://maps.gstatic.com/mapfiles/place_api/icons/v1/png_71/restaurant-71.png","icon_background_color":"#FF9E67","icon_mask_base_uri":"https://maps.gstatic.com/mapfiles/place_api/icons/v2/restaurant_pinlet","name":"Jannimu","opening_hours":{"open_now":true},"photos":[{"height":960,"html_attributions":["<a href=\"https://maps.google.com/maps/contrib/116004498950411280725\">Jannimu</a>"],"photo_reference":"AeJbb3eok-xvxLXw6aathseldr-VYcCTVIOosSGCVIxo1FDPvLqEinkKBAEQHM8gz0t-t7vrCYBWsYZ5Wtx7AXdJdAcyLm2S8WOOrCoXtcmHaAdHgW8sPzKvFbKOS0ixsCKkoUoNjhw5Ej5rXmiMVbKTfBz4ErBhH6kF1a3u32qqyZLVheQJ","width":960}],"place_id":"ChIJpVBc00tOqEcRmba9i51J8_M","plus_code":{"compound_code":"GC2J+JR Berlin","global_code":"9F4MGC2J+JR"},"rating":4.5,"reference":"ChIJpVBc00tOqEcRmba9i51J8_M","types":["restaurant","food","point_of_interest","establishment"],"user_ratings_total":28},{"business_status":"OPERATIONAL","formatted_address":"Karl-Marx-Allee 129, 10243 Berlin, Germany","geometry":{"location":{"lat":52.5168854,"lng":13.4488699},"viewport":{"northeast":{"lat":52.51798007989272,"lng":13.45030092989272},"southwest":{"lat":52.51528042010727,"lng":13.44760127010728}}},"icon":"https://maps.gstatic.com/mapfiles/place_api/icons/v1/png_71/restaurant-71.png","icon_background_color":"#FF9E67","icon_mask_base_uri":"https://maps.gstatic.com/mapfiles/place_api/icons/v2/restaurant_pinlet","name":"Kos House","opening_hours":{"open_now":true},"photos":[{"height":4248,"html_attributions":["<a href=\"https://maps.google.com/maps/contrib/111868769632214305452\">Gabriele Schubert</a>"],"photo_reference":"AeJbb3cT5ZQF-9XJarqaQ2cXNaIrK5jWBUsTYz3CHArNb8y3eu2IT_7V6p4Cfl9iDvdOoVID64EpbuZCakJ_CGXWzJywwx4WZoXiv18io1VD1ef5lChFzZSqWCRNYlFiv6Puctfv7KFY8a_y37yzlBFXLwQIOPfz_sR3Aq4hugFR2EqcdIoV","width":5664}],"place_id":"ChIJ4_DqJGhOqEcRbP-PsJABgQo","plus_code":{"compound_code":"GC8X+QG Berlin","global_code":"9F4MGC8X+QG"},"price_level":2,"rating":4.4,"reference":"ChIJ4_DqJGhOqEcRbP-PsJABgQo","types":["restaurant","food","point_of_interest","establishment"],"user_ratings_total":1526},{"business_status":"OPERATIONAL","formatted_address":"Oberfeldstraße 30, 12683 Berlin, Germany","geometry":{"location":{"lat":52.5203061,"lng":13.5555669},"viewport":{"northeast":{"lat":52.52163962989273,"lng":13.55711962989272},"southwest":{"lat":52.51893997010728,"lng":13.55441997010728}}},"icon":"https://maps.gstatic.com/mapfiles/place_api/icons/v1/png_71/restaurant-71.png","icon_background_color":"#FF9E67","icon_mask_base_uri":"https://maps.gstatic.com/mapfiles/place_api/icons/v2/restaurant_pinlet","name":"Restaurant Herkules","opening_hours":{"open_now":true},"photos":[{"height":1440,"html_attributions":["<a href=\"https://maps.google.com/maps/contrib/105943664686636027635\">Rainer Woidtke</a>"],"photo_reference":"AeJbb3dPI6sZuQR7xwUoc4CvLXEf1MnD-CinQo1iJDRko-pEcY_56h1p3AtnFVHXTFhzBeyMcUYXCz-6VdLieCTxpU94YcQ3BMVpleAxiedMketPjgdM8qzHd1IjMPNZk-U05XBH4i_95SQT3_0kJ8FdmB6ACOw-pOhwtaI0OSkaDvmUj3hV","width":2560}],"place_id":"ChIJP6VGn15JqEcR3I_pU-3cgl0","plus_code":{"compound_code":"GHC4+46 Berlin","global_code":"9F4MGHC4+46"},"price_level":2,"rating":4.4,"reference":"ChIJP6VGn15JqEcR3I_pU-3cgl0","types":["restaurant","food","point_of_interest","establishment"],"user_ratings_total":1447},{"business_status":"OPERATIONAL","formatted_address":"Winterfeldtstraße 45, 10781 Berlin, Germany","geometry":{"location":{"lat":52.4968168,"lng":13.3536287},"viewport":{"northeast":{"lat":52.49825482989272,"lng":13.35492527989272},"southwest":{"lat":52.49555517010727,"lng":13.35222562010728}}},"icon":"https://maps.gstatic.com/mapfiles/place_api/icons/v1/png_71/restaurant-71.png","icon_background_color":"#FF9E67","icon_mask_base_uri":"https://maps.gstatic.com/mapfiles/place_api/icons/v2/restaurant_pinlet","name":"Berkis","opening_hours":{"open_now":true},"photos":[{"height":1440,"html_attributions":["<a href=\"https://maps.google.com/maps/contrib/101787397098130269650\">A Google User</a>"],"photo_reference":"AeJbb3ddy6Fl9wGDo9U0et7GWN5dpNtpsfExyV6oa_Q1iylODHw_tqagRp8ng390jNRKd8lSEnTmOwxJUCL0cJsomgCoQ4Gwp7lqlMnoJ8_qZzL2VpYVyX4Wafcfnl-vngu3lhCAE3fC8iQ_MLzS9Vdn6wsZaSkiRJvzxBz4Vzibzf90PENo","width":2560}],"place_id":"ChIJZXX1G09QqEcRqt35NrlyDsY","plus_code":{"compound_code":"F9W3+PF Berlin","global_code":"9F4MF9W3+PF"},"price_level":2,"rating":4.4,"reference":"ChIJZXX1G09QqEcRqt35NrlyDsY","types":["restaurant","food","point_of_interest","establishment"],"user_ratings_total":994},{"business_status":"OPERATIONAL","formatted_address":"Wandlitzstraße 10, 10318 Berlin, Germany","geometry":{"location":{"lat":52.4810793,"lng":13.5238155},"viewport":{"northeast":{"lat":52.48241077989272,"lng":13.52526802989272},"southwest":{"lat":52.47971112010728,"lng":13.52256837010728}}},"icon":"https://maps.gstatic.com/mapfiles/place_api/icons/v1/png_71/restaurant-71.png","icon_background_color":"#FF9E67","icon_mask_base_uri":"https://maps.gstatic.com/mapfiles/place_api/icons/v2/restaurant_pinlet","name":"Syrtaki","opening_hours":{"open_now":true},"photos":[{"height":4032,"html_attributions":["<a href=\"https://maps.google.com/maps/contrib/105049659201123853673\">Jan Walzer</a>"],"photo_reference":"AeJbb3e_HGSwW5NosHq0gFmpeGQDUaIERfo1GB_RBuwpHoCsOdp1yOszP5Z5ORelJ92yTCy1kCbvda-35xA2pvLroRLAS2SALSsAAaL38Ft9LltDyjS9nqgbSugiTKbvomKxgMDB9EZ49vKEsyluPmhU8IdXE43hjNszWaYNIAMgK7yTD0BF","width":3024}],"place_id":"ChIJhQc2MNdIqEcRULtghLT_oEo","plus_code":{"compound_code":"FGJF+CG Berlin","global_code":"9F4MFGJF+CG"},"price_level":2,"rating":4.4,"reference":"ChIJhQc2MNdIqEcRULtghLT_oEo","types":["restaurant","food","point_of_interest","establishment"],"user_ratings_total":919},{"business_status":"OPERATIONAL","formatted_address":"Lichtenrader Damm 26, 12305 Berlin, Germany","geometry":{"location":{"lat":52.4117536,"lng":13.4024087},"viewport":{"northeast":{"lat":52.41308377989272,"lng":13.40384452989272},"southwest":{"lat":52.41038412010728,"lng":13.40114487010728}}},"icon":"https://maps.gstatic.com/mapfiles/place_api/icons/v1/png_71/restaurant-71.png","icon_background_color":"#FF9E67","icon_mask_base_uri":"https://maps.gstatic.com/mapfiles/place_api/icons/v2/restaurant_pinlet","name":"Restaurant Meteora","opening_hours":{"open_now":true},"photos":[{"height":2048,"html_attributions":["<a href=\"https://maps.google.com/maps/contrib/108535895527523267364\">Kostas Koufos</a>"],"photo_reference":"AeJbb3f46Xo4N9wMkS8_hKeahfD5jImRXIAVNbg0WEydYSPB23tnMBwKRmJjiyemm9Xrl51rt0nrXi1kaYFchGibCE9fhLCjKS5FAcL4owLROYXNgk_NPI7yASwf8tW7j-cfYN8dUneAMfIi0D_1OFpU6ouF0EDsvEqSY29zDjZo408xKBQK","width":1536}],"place_id":"ChIJeQ_Vcv1EqEcR5XdI6P-fjQI","plus_code":{"compound_code":"CC62+PX Berlin","global_code":"9F4MCC62+PX"},"price_level":2,"rating":4.4,"reference":"ChIJeQ_Vcv1EqEcR5XdI6P-fjQI","types":["restaurant","food","point_of_interest","establishment"],"user_ratings_total":843},{"business_status":"OPERATIONAL","formatted_address":"Warnitzer Str. 10, 13057 Berlin, Germany","geometry":{"location":{"lat":52.5668658,"lng":13.5191575},"viewport":{"northeast":{"lat":52.56792247989272,"lng":13.52105482989272},"southwest":{"lat":52.56522282010728,"lng":13.51835517010728}}},"icon":"https://maps.gstatic.com/mapfiles/place_api/icons/v1/png_71/restaurant-71.png","icon_background_color":"#FF9E67","icon_mask_base_uri":"https://maps.gstatic.com/mapfiles/place_api/icons/v2/restaurant_pinlet","name":"Theo's Taverna","opening_hours":{"open_now":true},"photos":[{"height":2592,"html_attributions":["<a href=\"https://maps.google.com/maps/contrib/111893075531665836605\">A Google User</a>"],"photo_reference":"AeJbb3eCMQ1wXeNcDFcXIP_RRmIi5GXDp6W9GLVRyrH_ZrKP26MOdxxF9UctvA_IVdJVJWAXj85ZxuuKndvPy4bjSZpZlIyzhi3vixMWpkLQbYUGWrX054BrgQJHuQp9ardXxZK_659mGhPbdX4ir3_YEyl-yfKcGMGNlnTdAyoV3byZLa47","width":4608}],"place_id":"ChIJ4Ytw90RMqEcRL_apEXkhfLs","plus_code":{"compound_code":"HG89+PM Berlin","global_code":"9F4MHG89+PM"},"price_level":2,"rating":4.4,"reference":"ChIJ4Ytw90RMqEcRL_apEXkhfLs","types":["restaurant","food","point_of_interest","establishment"],"user_ratings_total":806},{"business_status":"OPERATIONAL","formatted_address":"Märkische Allee 210, A, 12679 Berlin, Germany","geometry":{"location":{"lat":52.54857089999999,"lng":13.5470567},"viewport":{"northeast":{"lat":52.54982582989272,"lng":13.54859252989272},"southwest":{"lat":52.54712617010728,"lng":13.54589287010728}}},"icon":"https://maps.gstatic.com/mapfiles/place_api/icons/v1/png_71/restaurant-71.png","icon_background_color":"#FF9E67","icon_mask_base_uri":"https://maps.gstatic.com/mapfiles/place_api/icons/v2/restaurant_pinlet","name":"Restaurant Syrtaki","opening_hours":{"open_now":true},"photos":[{"height":3168,"html_attributions":["<a href=\"https://maps.google.com/maps/contrib/110920214507398707221\">A Google User</a>"],"photo_reference":"AeJbb3eZTWgCK6S9ZRhfSFfi2Lg8gqZHvUxD3oDM9M31EPpmypvP9WIX1IP6qhmcphm_5H-WLVLWHRCUZbPnrLhFikVA40p7YlB90R5A97ssWzMAv6f46iaZPogJ6uYnQFhpXRK9yYedTFmiUOYcupt1MekDDThSitqRCTXwTlwD4LHhigok","width":5632}],"place_id":"ChIJRbg504pLqEcRaCjdJW0QFlM","plus_code":{"compound_code":"GGXW+CR Berlin","global_code":"9F4MGGXW+CR"},"price_level":2,"rating":4.4,"reference":"ChIJRbg504pLqEcRaCjdJW0QFlM","types":["meal_takeaway","school","restaurant","food","point_of_interest","establishment"],"user_ratings_total":622},{"business_status":"OPERATIONAL","formatted_address":"Maaßenstraße 12, 10777 Berlin, Germany","geometry":{"location":{"lat":52.497524,"lng":13.3541602},"viewport":{"northeast":{"lat":52.49891097989272,"lng":13.35563237989272},"southwest":{"lat":52.49621132010728,"lng":13.35293272010728}}},"icon":"https://maps.gstatic.com/mapfiles/place_api/icons/v1/png_71/restaurant-71.png","icon_background_color":"#FF9E67","icon_mask_base_uri":"https://maps.gstatic.com/mapfiles/place_api/icons/v2/restaurant_pinlet","name":"Taverna Kreta Minotavros","opening_hours":{"open_now":false},"photos":[{"height":4160,"html_attributions":["<a href=\"https://maps.google.com/maps/contrib/116210303438269955763\">Enrico Soso</a>"],"photo_reference":"AeJbb3fbzIs2oGcH1QlJCN_HTA94Szb0ET8ah6a8G0iiYbnEtY0AhS1zydI3j_lXVA8IRFP8REju4AEKR4NU8kv3K-4Wlm1odPz6w1akukthmfhzUyA1PUEZgqWaOaoO5x5CGqKH9_33D9abXVM7Knhd6S02UJ0v6N-cM1aslZEvG9h_iGqW","width":3120}],"place_id":"ChIJ5QoG405QqEcRG1Zmr9FotAs","plus_code":{"compound_code":"F9X3+2M Berlin","global_code":"9F4MF9X3+2M"},"rating":4.4,"reference":"ChIJ5QoG405QqEcRG1Zmr9FotAs","types":["restaurant","food","point_of_interest","establishment"],"user_ratings_total":486},{"business_status":"OPERATIONAL","formatted_address":"Dannenwalder Weg 70, 13439 Berlin, Germany","geometry":{"location":{"lat":52.5911328,"lng":13.3464113},"viewport":{"northeast":{"lat":52.59264982989273,"lng":13.34774417989272},"southwest":{"lat":52.58995017010729,"lng":13.34504452010728}}},"icon":"https://maps.gstatic.com/mapfiles/place_api/icons/v1/png_71/restaurant-71.png","icon_background_color":"#FF9E67","icon_mask_base_uri":"https://maps.gstatic.com/mapfiles/place_api/icons/v2/restaurant_pinlet","name":"Taverna Orakel Hellas","opening_hours":{"open_now":true},"photos":[{"height":4032,"html_attributions":["<a href=\"https://maps.google.com/maps/contrib/109609087140510593757\">Maud Weiß</a>"],"photo_reference":"AeJbb3cehtN6yk8ev4RRvR0726TupLtcsPtGSrxQPfUvZ8nnGzdWk7YN4XZ-6NL2G7o8dxHwapVqIRn4-685yEb9RRsiQ7q3_Jb4EKBTpscFIbRvSqMKTpnyr18xDVvTZzm6DXlqRYDWdfIgMVkKZ03wGGyp9GQy_BtO1Wte19iGJhJdPdNz","width":3024}],"place_id":"ChIJ5T1IahEgZUERxcQ-kI68SmQ","plus_code":{"compound_code":"H8RW+FH Berlin","global_code":"9F4MH8RW+FH"},"price_level":2,"rating":4.4,"reference":"ChIJ5T1IahEgZUERxcQ-kI68SmQ","types":["meal_delivery","meal_takeaway","restaurant","food","point_of_interest","establishment"],"user_ratings_total":457},{"business_status":"OPERATIONAL","formatted_address":"Friedrichstraße 194, 10117 Berlin, Germany","geometry":{"location":{"lat":52.5099267,"lng":13.3896997},"viewport":{"northeast":{"lat":52.51121677989272,"lng":13.39115292989272},"southwest":{"lat":52.50851712010728,"lng":13.38845327010728}}},"icon":"https://maps.gstatic.com/mapfiles/place_api/icons/v1/png_71/cafe-71.png","icon_background_color":"#FF9E67","icon_mask_base_uri":"https://maps.gstatic.com/mapfiles/place_api/icons/v2/cafe_pinlet","name":"Gregory's","opening_hours":{"open_now":true},"photos":[{"height":3000,"html_attributions":["<a href=\"https://maps.google.com/maps/contrib/103273978326826547986\">Kostas Tsitlakidis</a>"],"photo_reference":"AeJbb3fP-5esdCIraxucG_lundmPBry8vxhbwqPMDP0RJMvj-nm6-nnyI6JgHuvpxb38SlUvgi6CyvKF9U4OKZ6HYzvXml7F-R5fYb7GUiWZk3xvAPn4PoQRQLNf2yD6H113Q8OHEtZASQ7x-Rt0EtaFo0RXqzZG5zeVCTpoeVtQq1AU-Oze","width":4000}],"place_id":"ChIJAdonVtBRqEcRxcPPWXAnPco","plus_code":{"compound_code":"G95Q+XV Berlin","global_code":"9F4MG95Q+XV"},"price_level":2,"rating":4.4,"reference":"ChIJAdonVtBRqEcRxcPPWXAnPco","types":["cafe","restaurant","food","point_of_interest","establishment"],"user_ratings_total":358},{"business_status":"OPERATIONAL","formatted_address":"Torstraße 118, 10119 Berlin, Germany","geometry":{"location":{"lat":52.5295559,"lng":13.4023004},"viewport":{"northeast":{"lat":52.53095782989272,"lng":13.40355177989272},"southwest":{"lat":52.52825817010728,"lng":13.40085212010728}}},"icon":"https://maps.gstatic.com/mapfiles/place_api/icons/v1/png_71/restaurant-71.png","icon_background_color":"#FF9E67","icon_mask_base_uri":"https://maps.gstatic.com/mapfiles/place_api/icons/v2/restaurant_pinlet","name":"Apló Greek Kitchen & Foods","opening_hours":{"open_now":false},"photos":[{"height":2699,"html_attributions":["<a href=\"https://maps.google.com/maps/contrib/113680697965802942760\">A Google User</a>"],"photo_reference":"AeJbb3czpq2Vmo8La8i1BNWQA9BwJmV3q07eFDlGmCq7XUkatoGlGlitLfZhzXtDxsBADiMELWTh412wNGc6D2QBj6TT-hrzvZgpOqXrdScHxnCTA2c1LPo1T0VtpndKaMXAvHAR0eahqYEykUHEwFzvwWL-0BoKGRXqzXxCC2QQZpEzqeQS","width":2160}],"place_id":"ChIJa0DelkhRqEcRSEHJ1c6DPMY","plus_code":{"compound_code":"GCH2+RW Berlin","global_code":"9F4MGCH2+RW"},"rating":4.4,"reference":"ChIJa0DelkhRqEcRSEHJ1c6DPMY","types":["restaurant","food","point_of_interest","establishment"],"user_ratings_total":349},{"business_status":"OPERATIONAL","formatted_address":"Gneisenaustraße 109, 10961 Berlin, Germany","geometry":{"location":{"lat":52.4929542,"lng":13.3897531},"viewport":{"northeast":{"lat":52.49416297989273,"lng":13.39098752989272},"southwest":{"lat":52.49146332010729,"lng":13.38828787010728}}},"icon":"https://maps.gstatic.com/mapfiles/place_api/icons/v1/png_71/restaurant-71.png","icon_background_color":"#FF9E67","icon_mask_base_uri":"https://maps.gstatic.com/mapfiles/place_api/icons/v2/restaurant_pinlet","name":"Taverna Dionysos","opening_hours":{"open_now":false},"photos":[{"height":2992,"html_attributions":["<a href=\"https://maps.google.com/maps/contrib/109361571784800723000\">Jason Efstathiou</a>"],"photo_reference":"AeJbb3csi4DqowZvaATILhj2z8fOhvy0cWh3fRo6ZPi4fdJ8PFp61oihBe7JEQ4fGr0LpHBl9B_ySsfYvH_bNLgvuhansBSZNiAYuh-hi8J-BpFvtS00n0QOgKAGLD0-MsJb7KUnVkr3dshIRU86rEY3jNU1IwpSAbPrWh38qQ_rxAVkb1rL","width":4000}],"place_id":"ChIJ3S9bUyhQqEcRB4dbcpnIjog","plus_code":{"compound_code":"F9VQ+5W Berlin","global_code":"9F4MF9VQ+5W"},"price_level":2,"rating":4.4,"reference":"ChIJ3S9bUyhQqEcRB4dbcpnIjog","types":["restaurant","food","point_of_interest","establishment"],"user_ratings_total":277},{"business_status":"OPERATIONAL","formatted_address":"Edisonstraße 34, 12459 Berlin, Germany","geometry":{"location":{"lat":52.46820229999999,"lng":13.5141381},"viewport":{"northeast":{"lat":52.46958102989272,"lng":13.51541522989272},"southwest":{"lat":52.46688137010727,"lng":13.51271557010728}}},"icon":"https://maps.gstatic.com/mapfiles/place_api/icons/v1/png_71/restaurant-71.png","icon_background_color":"#FF9E67","icon_mask_base_uri":"https://maps.gstatic.com/mapfiles/place_api/icons/v2/restaurant_pinlet","name":"Restaurant Thessaloniki","opening_hours":{"open_now":true},"photos":[{"height":789,"html_attributions":["<a href=\"https://maps.google.com/maps/contrib/112581582387555671340\">Анна Бабкович</a>"],"photo_reference":"AeJbb3fwOOZBvrLaBCOXrSsRBjR4vNLb9CwfLIxVctWzYpfok09DzPVknpECncf_60Y24juRWHki4lTOcNPziRrgKJK0yxfEPm1S5ty8PLg_ZKw-m14XKQf22hg7zuZniMDt--EAqCD7HCiVVB7wg8qe_AWiWFlmlq4dkOXDuZS-6mK7NNwF","width":1055}],"place_id":"ChIJY8EyTTxJqEcRYoms8-YlrKU","plus_code":{"compound_code":"FG97+7M Berlin","global_code":"9F4MFG97+7M"},"price_level":2,"rating":4.4,"reference":"ChIJY8EyTTxJqEcRYoms8-YlrKU","types":["restaurant","food","point_of_interest","establishment"],"user_ratings_total":274},{"business_status":"OPERATIONAL","formatted_address":"Nansenstraße 3, 12047 Berlin, Germany","geometry":{"location":{"lat":52.4885812,"lng":13.4299478},"viewport":{"northeast":{"lat":52.48994202989272,"lng":13.43126977989272},"southwest":{"lat":52.48724237010727,"lng":13.42857012010728}}},"icon":"https://maps.gstatic.com/mapfiles/place_api/icons/v1/png_71/restaurant-71.png","icon_background_color":"#FF9E67","icon_mask_base_uri":"https://maps.gstatic.com/mapfiles/place_api/icons/v2/restaurant_pinlet","name":"[a'lu]","opening_hours":{"open_now":false},"photos":[{"height":2165,"html_attributions":["<a href=\"https://maps.google.com/maps/contrib/104371254857183534501\">Holger Vetter</a>"],"photo_reference":"AeJbb3cbAfgU0MqAFMDAujs-Yl0MJx5R0UJy7eLFt-iN1e-_lUN9h1GDGvDZCLSkw7PHmwdK24-cQH-BeI8JZVtN0qYTARtdlDfTuUTb09ADl8FswUvlAnzJptAE2uRUykdrFGXuPlgpZeOizSStZAkbG9sxYjchuSfmPFmCgOaJ4Acz-p8A","width":3848}],"place_id":"ChIJrYkD1rBPqEcROoEpber8p0A","plus_code":{"compound_code":"FCQJ+C2 Berlin","global_code":"9F4MFCQJ+C2"},"rating":4.4,"reference":"ChIJrYkD1rBPqEcROoEpber8p0A","types":["restaurant","food","point_of_interest","establishment"],"user_ratings_total":178},{"business_status":"OPERATIONAL","formatted_address":"Kurfürstendamm 97-98, 10709 Berlin, Germany","geometry":{"location":{"lat":52.4986732,"lng":13.2981211},"viewport":{"northeast":{"lat":52.49990592989273,"lng":13.29959717989272},"southwest":{"lat":52.49720627010728,"lng":13.29689752010728}}},"icon":"https://maps.gstatic.com/mapfiles/place_api/icons/v1/png_71/restaurant-71.png","icon_background_color":"#FF9E67","icon_mask_base_uri":"https://maps.gstatic.com/mapfiles/place_api/icons/v2/restaurant_pinlet","name":"Ach Niko Ach","opening_hours":{"open_now":true},"photos":[{"height":1836,"html_attributions":["<a href=\"https://maps.google.com/maps/contrib/105422542765530015712\">J- Gm</a>"],"photo_reference":"AeJbb3dkrlPwksu7Po90472D-Z5AXd1JsIpJwXCtFOvlL02gfCmXMhD67je6Y4IousyfDIyNjV65p8PgAJiRDJ9y1K5oUl9_uoCJaRDzBeD-TMGWrGVYFD1hRG5ReHPH7eev1RWOCtG5nU5QZ4zyiucdWfphOCqU3KArvpq7L-AXE3TWOTeo","width":1836}],"place_id":"ChIJ40M2BsNQqEcRWf9etfz3O0U","plus_code":{"compound_code":"F7XX+F6 Berlin","global_code":"9F4MF7XX+F6"},"price_level":2,"rating":4.3,"reference":"ChIJ40M2BsNQqEcRWf9etfz3O0U","types":["restaurant","food","point_of_interest","establishment"],"user_ratings_total":2131},{"business_status":"OPERATIONAL","formatted_address":"Mariendorfer Damm 131, 12107 Berlin, Germany","geometry":{"location":{"lat":52.4399893,"lng":13.3879177},"viewport":{"northeast":{"lat":52.44147227989273,"lng":13.38920057989272},"southwest":{"lat":52.43877262010728,"lng":13.38650092010728}}},"icon":"https://maps.gstatic.com/mapfiles/place_api/icons/v1/png_71/restaurant-71.png","icon_background_color":"#FF9E67","icon_mask_base_uri":"https://maps.gstatic.com/mapfiles/place_api/icons/v2/restaurant_pinlet","name":"Villa Christina","opening_hours":{"open_now":true},"photos":[{"height":3000,"html_attributions":["<a href=\"https://maps.google.com/maps/contrib/110319660585324539294\">Robert Sprotte</a>"],"photo_reference":"AeJbb3eo0qOhxQrCgdy6R_2whclFSvT1yLD4_46u2flmulYRZ_Kk_RGOUcjxK6ULe6r_-DJt-ljbQvxVQCo0Qrhky9-abF1vQgfTSrjoob4HVCdwV-jNLop8EYSKF2iwbizP2gPy2xWfvLKY_sB1eCIiQhIu8Sz1fGc0vsG12wHGgyleOXRJ","width":5333}],"place_id":"ChIJmTv850ZFqEcRklSGHHmqRa4","plus_code":{"compound_code":"C9QQ+X5 Berlin","global_code":"9F4MC9QQ+X5"},"price_level":2,"rating":4.3,"reference":"ChIJmTv850ZFqEcRklSGHHmqRa4","types":["meal_delivery","meal_takeaway","restaurant","food","point_of_interest","establishment"],"user_ratings_total":1552},{"business_status":"OPERATIONAL","formatted_address":"Sterndamm 59, 12487 Berlin, Germany","geometry":{"location":{"lat":52.448017,"lng":13.507881},"viewport":{"northeast":{"lat":52.44933962989272,"lng":13.50895042989272},"southwest":{"lat":52.44663997010728,"lng":13.50625077010728}}},"icon":"https://maps.gstatic.com/mapfiles/place_api/icons/v1/png_71/restaurant-71.png","icon_background_color":"#FF9E67","icon_mask_base_uri":"https://maps.gstatic.com/mapfiles/place_api/icons/v2/restaurant_pinlet","name":"Taverna Odyssee","opening_hours":{"open_now":true},"photos":[{"height":2976,"html_attributions":["<a href=\"https://maps.google.com/maps/contrib/101776865413849592373\">Денис Котелевский</a>"],"photo_reference":"AeJbb3c-1vno80kasUP5dji44aYE9M31sD9hV9b6rITw8VYJpKugjURR4LIYYKwUz8qwPtZWv2_Kqg-JlMZ02TNio5XvbjbIa0h3nRNL2NOaUnD4FiA5ib1kRSWwMz1DpEZ8_VNPiuyqbBdfksXLY-5Aa5i09-1qm5lHHoDlVKRKN7SkwK3Q","width":3968}],"place_id":"ChIJAbaW8ahIqEcRtmAl3_kvjJk","plus_code":{"compound_code":"CGX5+65 Berlin","global_code":"9F4MCGX5+65"},"price_level":2,"rating":4.3,"reference":"ChIJAbaW8ahIqEcRtmAl3_kvjJk","types":["meal_takeaway","restaurant","food","bar","point_of_interest","establishment"],"user_ratings_total":815},{"business_status":"OPERATIONAL","formatted_address":"Oberhofer Pl. 9A, 12209 Berlin, Germany","geometry":{"location":{"lat":52.42471159999999,"lng":13.3289302},"viewport":{"northeast":{"lat":52.42604427989271,"lng":13.33022097989272},"southwest":{"lat":52.42334462010727,"lng":13.32752132010728}}},"icon":"https://maps.gstatic.com/mapfiles/place_api/icons/v1/png_71/restaurant-71.png","icon_background_color":"#FF9E67","icon_mask_base_uri":"https://maps.gstatic.com/mapfiles/place_api/icons/v2/restaurant_pinlet","name":"Nostos, griechisches Restaurant","opening_hours":{"open_now":true},"photos":[{"height":4032,"html_attributions":["<a href=\"https://maps.google.com/maps/contrib/116830533732911874428\">Mikki Reyes</a>"],"photo_reference":"AeJbb3cyXXz5xrttFANzIhYO62_E2GoG-7i00EdrGqpeor5ev1Pj1qrsEb7ZCBgt6dknkrQ44KHNvOtoqtBJNqfxI2sQPEf0UJmXkzRwxkMgZBDJwSO139z9Xmej-lShvYXKxw9Yf9IdPGqm-OCm3W0u0Hap0WOk9BZZRGC1kohcPtiNWus4","width":3024}],"place_id":"ChIJg8DkKN5aqEcRvENR--tiUwI","plus_code":{"compound_code":"C8FH+VH Berlin","global_code":"9F4MC8FH+VH"},"price_level":2,"rating":4.3,"reference":"ChIJg8DkKN5aqEcRvENR--tiUwI","types":["restaurant","food","point_of_interest","establishment"],"user_ratings_total":490},{"business_status":"OPERATIONAL","formatted_address":"Modersohnstraße 58, 10245 Berlin, Germany","geometry":{"location":{"lat":52.5023139,"lng":13.4565865},"viewport":{"northeast":{"lat":52.50363507989272,"lng":13.45796917989272},"southwest":{"lat":52.50093542010728,"lng":13.45526952010728}}},"icon":"https://maps.gstatic.com/mapfiles/place_api/icons/v1/png_71/restaurant-71.png","icon_background_color":"#FF9E67","icon_mask_base_uri":"https://maps.gstatic.com/mapfiles/place_api/icons/v2/restaurant_pinlet","name":"Restaurant Areti","opening_hours":{"open_now":true},"photos":[{"height":3480,"html_attributions":["<a href=\"https://maps.google.com/maps/contrib/116702861613313848436\">Sabin Șerban</a>"],"photo_reference":"AeJbb3eKAqXB6mJ8phM7MT0dkmSnVPoP7sY5sONBLrKlvrm_Ys7o7fQccf2vcqBL9g7PQGaHKzkBvPxdUsgz7MLwUkm5VpCtKbGR-9NnckJ6Dj2HJu8_YJyV2wxGS3ljDvJ5wRoQK1t3fedm7ZWPQpq3cYj78bpmXuoOg69nhNgHEVWxmJyo","width":4640}],"place_id":"ChIJqzHnrVdOqEcRrXFYLVlhWfU","plus_code":{"compound_code":"GF24+WJ Berlin","global_code":"9F4MGF24+WJ"},"price_level":2,"rating":4.3,"reference":"ChIJqzHnrVdOqEcRrXFYLVlhWfU","types":["restaurant","food","point_of_interest","establishment"],"user_ratings_total":417},{"business_status":"OPERATIONAL","formatted_address":"Orankestraße 41, 13053 Berlin, Germany","geometry":{"location":{"lat":52.54755669999999,"lng":13.4827228},"viewport":{"northeast":{"lat":52.54886767989272,"lng":13.48408372989272},"southwest":{"lat":52.54616802010727,"lng":13.48138407010728}}},"icon":"https://maps.gstatic.com/mapfiles/place_api/icons/v1/png_71/restaurant-71.png","icon_background_color":"#FF9E67","icon_mask_base_uri":"https://maps.gstatic.com/mapfiles/place_api/icons/v2/restaurant_pinlet","name":"Orankesee-Terrassen","opening_hours":{"open_now":true},"photos":[{"height":4032,"html_attributions":["<a href=\"https://maps.google.com/maps/contrib/105044413425964372000\">Wolfgang Rost</a>"],"photo_reference":"AeJbb3eK4fl5IjJvN7ydfDLw9n79i_m0JTXf8z_wAK1V-LeHFPioyzjwRRqJeCIYFU2FAfPkE7sUD4b8Bi7LujKapOeCtTcqvIqjs4KSLCalLvukhtFrYJwEhCdSedzteIPGVFtrE7SUrEgDJbSQW_U1VDGpnqFbOh17lAE2Zlk2G8V2SP6T","width":2268}],"place_id":"ChIJK8Z21jJMqEcRz8D_aGYoeF8","plus_code":{"compound_code":"GFXM+23 Berlin","global_code":"9F4MGFXM+23"},"price_level":2,"rating":4.2,"reference":"ChIJK8Z21jJMqEcRz8D_aGYoeF8","types":["restaurant","food","point_of_interest","establishment"],"user_ratings_total":2234},{"business_status":"OPERATIONAL","formatted_address":"Danziger Str. 72, 10435 Berlin, Germany","geometry":{"location":{"lat":52.53903649999999,"lng":13.4237419},"viewport":{"northeast":{"lat":52.54043417989273,"lng":13.42513592989272},"southwest":{"lat":52.53773452010729,"lng":13.42243627010728}}},"icon":"https://maps.gstatic.com/mapfiles/place_api/icons/v1/png_71/restaurant-71.png","icon_background_color":"#FF9E67","icon_mask_base_uri":"https://maps.gstatic.com/mapfiles/place_api/icons/v2/restaurant_pinlet","name":"Taverna Apollon","opening_hours":{"open_now":false},"photos":[{"height":3024,"html_attributions":["<a href=\"https://maps.google.com/maps/contrib/112523186128413405587\">Negar Sakhipoor</a>"],"photo_reference":"AeJbb3c1CIbIqPxbcXO-Ylu0Zg3HXssiS8A923a8GvwYh2ZNrX_XxzFLKuheI57Q7mIIdcmYn9A-cU2THRiLRiM35iGrgwpAEfwxhZDdVg50TvHnz5Db68iHeax7SRtfbGjG_ZufZsfpNH7krPJQa9-EdDxmmoJQ_AutCTa8TB49loC3ZT0I","width":4032}],"place_id":"ChIJc4knzQBOqEcR8L-h7V7uo30","plus_code":{"compound_code":"GCQF+JF Berlin","global_code":"9F4MGCQF+JF"},"price_level":2,"rating":4.2,"reference":"ChIJc4knzQBOqEcR8L-h7V7uo30","types":["restaurant","food","point_of_interest","establishment"],"user_ratings_total":953},{"business_status":"OPERATIONAL","formatted_address":"Ruschestraße 64, 10365 Berlin, Germany","geometry":{"location":{"lat":52.5217413,"lng":13.4865493},"viewport":{"northeast":{"lat":52.52307187989272,"lng":13.48750972989272},"southwest":{"lat":52.52037222010728,"lng":13.48481007010728}}},"icon":"https://maps.gstatic.com/mapfiles/place_api/icons/v1/png_71/restaurant-71.png","icon_background_color":"#FF9E67","icon_mask_base_uri":"https://maps.gstatic.com/mapfiles/place_api/icons/v2/restaurant_pinlet","name":"Epirus","opening_hours":{"open_now":true},"photos":[{"height":1840,"html_attributions":["<a href=\"https://maps.google.com/maps/contrib/104737229348687281468\">Magdalena Bandarek</a>"],"photo_reference":"AeJbb3ekMVhZs6MOWdzDqjhhf8mOVPbwpK0TdnxA8eHU3yK4_Rb14B9H0AVBdLR4g1NYNoF3g16uF4Pj8zWUQYTRMOr0JkELYikUDx7omivHCcisEyNCgDUrMvZG-yP0MjkP7BgAwtC7lSmPEuotKuhCUKL3-3SiPqyx36HO80Ewhyt8Ma4","width":3264}],"place_id":"ChIJQ60PRJBOqEcRRcWC3MTdLnI","plus_code":{"compound_code":"GFCP+MJ Berlin","global_code":"9F4MGFCP+MJ"},"price_level":2,"rating":4.2,"reference":"ChIJQ60PRJBOqEcRRcWC3MTdLnI","types":["restaurant","food","point_of_interest","establishment"],"user_ratings_total":855},{"business_status":"OPERATIONAL","formatted_address":"Gudrunstraße 5A, 10365 Berlin, Germany","geometry":{"location":{"lat":52.513028,"lng":13.5014214},"viewport":{"northeast":{"lat":52.51435142989271,"lng":13.50279772989272},"southwest":{"lat":52.51165177010727,"lng":13.50009807010728}}},"icon":"https://maps.gstatic.com/mapfiles/place_api/icons/v1/png_71/restaurant-71.png","icon_background_color":"#FF9E67","icon_mask_base_uri":"https://maps.gstatic.com/mapfiles/place_api/icons/v2/restaurant_pinlet","name":"Restaurant Athos","opening_hours":{"open_now":true},"photos":[{"height":3024,"html_attributions":["<a href=\"https://maps.google.com/maps/contrib/102422777788794333873\">Dean Holbrough</a>"],"photo_reference":"AeJbb3eDCT8St8BuVgGKs2AZT3fk8pZh6WhGyF9Rp-VcP5F9xPmwuxrpK-sAMMHUMBE0TvDa_XTa50jXsF67mHN9SYUXWfZBT8_rhAelzK85GGBEjZTeFGZZijGJy1Ui49bW1hoGgNDjgUmZRSon5d6gnlXVfI2-PVScsgtLm7wE2XoQHoKD","width":4032}],"place_id":"ChIJIQlW4L5OqEcRsEv67lD3hhM","plus_code":{"compound_code":"GG72+6H Berlin","global_code":"9F4MGG72+6H"},"price_level":2,"rating":4.2,"reference":"ChIJIQlW4L5OqEcRsEv67lD3hhM","types":["restaurant","food","point_of_interest","establishment"],"user_ratings_total":834},{"business_status":"OPERATIONAL","formatted_address":"Arndtstraße 12, 10965 Berlin, Germany","geometry":{"location":{"lat":52.488552,"lng":13.3928872},"viewport":{"northeast":{"lat":52.48983582989272,"lng":13.39422437989272},"southwest":{"lat":52.48713617010728,"lng":13.39152472010728}}},"icon":"https://maps.gstatic.com/mapfiles/place_api/icons/v1/png_71/restaurant-71.png","icon_background_color":"#FF9E67","icon_mask_base_uri":"https://maps.gstatic.com/mapfiles/place_api/icons/v2/restaurant_pinlet","name":"Taverna Restaurant Mastiha","opening_hours":{"open_now":false},"photos":[{"height":3024,"html_attributions":["<a href=\"https://maps.google.com/maps/contrib/108070865187044861276\">Margarete Bode</a>"],"photo_reference":"AeJbb3f_69ZRxDlRXSitIK1BG1oGcoec2hVORGF1UzlJ9Mo1TTFSfINcmXDSE_FiTot2IFFX7bYNUCZF-2gCiDY-dGKq0_Tjf4Ux6MJnFUfkPJ8LR_McqBJtqbSfKhTqFWI3-soVtUSS93-yVC3fOTdHHQgaU5AfPjBnhNRJKCOrWIOFLNRv","width":4032}],"place_id":"ChIJ9epzQdhPqEcRq6fBOibKfHk","plus_code":{"compound_code":"F9QV+C5 Berlin","global_code":"9F4MF9QV+C5"},"price_level":2,"rating":4.2,"reference":"ChIJ9epzQdhPqEcRq6fBOibKfHk","types":["restaurant","food","point_of_interest","establishment"],"user_ratings_total":602},{"business_status":"OPERATIONAL","formatted_address":"Budapester Str. 13, 10787 Berlin, Germany","geometry":{"location":{"lat":52.5064856,"lng":13.3461229},"viewport":{"northeast":{"lat":52.50777897989272,"lng":13.34731392989272},"southwest":{"lat":52.50507932010727,"lng":13.34461427010728}}},"icon":"https://maps.gstatic.com/mapfiles/place_api/icons/v1/png_71/restaurant-71.png","icon_background_color":"#FF9E67","icon_mask_base_uri":"https://maps.gstatic.com/mapfiles/place_api/icons/v2/restaurant_pinlet","name":"Ja! Niko Ja!","opening_hours":{"open_now":true},"photos":[{"height":3024,"html_attributions":["<a href=\"https://maps.google.com/maps/contrib/102723869383423971290\">Balázs Hinel</a>"],"photo_reference":"AeJbb3cWdQOd5EkyYYxv9zdErRnukXqVNIOSZYZXm-h_FHEh6-4BzS8C_kAfhhBEBuj04VfmP_TtUp-qCTRnAoaFsmC75LLkw5tUjvSznV5KZYxG5-g5b52JNFtmAILdqnuv0XfA6F6KOB3j4QX-wZsJiNrSPyfVAbbcDqmGn_M6uRhUuJWj","width":4032}],"place_id":"ChIJo8ypraxRqEcRe1DSMHgmQeo","plus_code":{"compound_code":"G84W+HC Berlin","global_code":"9F4MG84W+HC"},"price_level":2,"rating":4.1,"reference":"ChIJo8ypraxRqEcRe1DSMHgmQeo","types":["restaurant","food","point_of_interest","establishment"],"user_ratings_total":1170},{"business_status":"OPERATIONAL","formatted_address":"Markstraße 20, 13409 Berlin, Germany","geometry":{"location":{"lat":52.5582153,"lng":13.3657262},"viewport":{"northeast":{"lat":52.55957442989272,"lng":13.36694357989272},"southwest":{"lat":52.55687477010728,"lng":13.36424392010728}}},"icon":"https://maps.gstatic.com/mapfiles/place_api/icons/v1/png_71/restaurant-71.png","icon_background_color":"#FF9E67","icon_mask_base_uri":"https://maps.gstatic.com/mapfiles/place_api/icons/v2/restaurant_pinlet","name":"Ariston Taverna Hellas Berlin","opening_hours":{"open_now":true},"photos":[{"height":3000,"html_attributions":["<a href=\"https://maps.google.com/maps/contrib/101633677582955440338\">Ekart Schuberth</a>"],"photo_reference":"AeJbb3d-_4GCQH9z6kWekAK3kyu-2IlhMvmiVthLdI4W9_p2xl7w43oU5p3dBNKlSLIeVLqFcIRd8D7MkF36-ghZ2OR9n53WV8GJrd7qljdRV5ZklPKVyfOIiJymIs97dJHpebbsDc7Qz1eDwUZjMSrwy2ayeuWH8vpoLsq1I1DqoxF1JP11","width":5333}],"place_id":"ChIJmWaIYS1SqEcRWTRkmcAvMJY","plus_code":{"compound_code":"H958+77 Berlin","global_code":"9F4MH958+77"},"price_level":2,"rating":4.1,"reference":"ChIJmWaIYS1SqEcRWTRkmcAvMJY","types":["meal_takeaway","bar","restaurant","food","point_of_interest","establishment"],"user_ratings_total":618},{"business_status":"OPERATIONAL","formatted_address":"Marheineke Platz 15, 10961 Berlin, Germany","geometry":{"location":{"lat":52.489278,"lng":13.3944925},"viewport":{"northeast":{"lat":52.49050607989273,"lng":13.39579472989272},"southwest":{"lat":52.48780642010728,"lng":13.39309507010728}}},"icon":"https://maps.gstatic.com/mapfiles/place_api/icons/v1/png_71/restaurant-71.png","icon_background_color":"#FF9E67","icon_mask_base_uri":"https://maps.gstatic.com/mapfiles/place_api/icons/v2/restaurant_pinlet","name":"Olgas Feinkost / Agora","opening_hours":{"open_now":true},"photos":[{"height":3024,"html_attributions":["<a href=\"https://maps.google.com/maps/contrib/115709233773460572993\">Atila Schuh</a>"],"photo_reference":"AeJbb3ccjEUliWZjNeo0Ej8Ku5nocNEzh7OQ3HqZrN4H8jpUVh6OH8IBbTJ0FE5wuA8JHH35TWQhTsPaac20eTw7kTSLNLEXYXdn7khN1sJMBTsvcfbbdfPLlXVZ3B00HxIKKBLyrJyA_XLAm5FxEfqtqiOYKrIaKdMb8i5JvxTjkvzBb4Au","width":4032}],"place_id":"ChIJranD0NlPqEcRli3Zuf7WXtA","plus_code":{"compound_code":"F9QV+PQ Berlin","global_code":"9F4MF9QV+PQ"},"rating":4.1,"reference":"ChIJranD0NlPqEcRli3Zuf7WXtA","types":["restaurant","food","point_of_interest","store","establishment"],"user_ratings_total":79},{"business_status":"OPERATIONAL","formatted_address":"Kurfürstendamm 165-166, 10707 Berlin, Germany","geometry":{"location":{"lat":52.49984,"lng":13.30789},"viewport":{"northeast":{"lat":52.50127372989272,"lng":13.30920592989272},"southwest":{"lat":52.49857407010728,"lng":13.30650627010728}}},"icon":"https://maps.gstatic.com/mapfiles/place_api/icons/v1/png_71/restaurant-71.png","icon_background_color":"#FF9E67","icon_mask_base_uri":"https://maps.gstatic.com/mapfiles/place_api/icons/v2/restaurant_pinlet","name":"Leonidas","opening_hours":{"open_now":true},"photos":[{"height":1080,"html_attributions":["<a href=\"https://maps.google.com/maps/contrib/100028455041117716142\">Eric B</a>"],"photo_reference":"AeJbb3cyRZ-0SAnIjHK6n2vao0GQ6oQ7z2UpH5a7lGPSs4J-YoFt1Im6EcFnml285Hll6YU1J_Z-tMGgm-iJBlCBdZzhSPdQDZigewYFZ6mcDks0c40itL2UsvgUYe88LiR5Tgncp8HzqwQBWuI3sMAOYHFt5W9BxnVIQgc4LuhkbmcaXtr6","width":1920}],"place_id":"ChIJ1XDlgehQqEcRUKgvFj5Rb_A","plus_code":{"compound_code":"F8X5+W5 Berlin","global_code":"9F4MF8X5+W5"},"price_level":1,"rating":4,"reference":"ChIJ1XDlgehQqEcRUKgvFj5Rb_A","types":["restaurant","food","point_of_interest","establishment"],"user_ratings_total":602},{"business_status":"OPERATIONAL","formatted_address":"Güntzelstraße 19, 10717 Berlin, Germany","geometry":{"location":{"lat":52.4913342,"lng":13.3261515},"viewport":{"northeast":{"lat":52.49262472989272,"lng":13.32748332989272},"southwest":{"lat":52.48992507010728,"lng":13.32478367010728}}},"icon":"https://maps.gstatic.com/mapfiles/place_api/icons/v1/png_71/restaurant-71.png","icon_background_color":"#FF9E67","icon_mask_base_uri":"https://maps.gstatic.com/mapfiles/place_api/icons/v2/restaurant_pinlet","name":"Taverna Hellas","opening_hours":{"open_now":true},"photos":[{"height":1836,"html_attributions":["<a href=\"https://maps.google.com/maps/contrib/112177503566465227795\">Gerd</a>"],"photo_reference":"AeJbb3epEuhRJHMxjnVeHuqxwubc0_4yepXUaX9vojEB7Pkrd2dIDlIub-husE-Y03L_AuVe8QRSExHDcXFXYCIZy3QwAhipg6_hItQfyHEdlpeQd3NQ7KnFu1wqF_t30KWtIutJq5Qx2J5t0Dp_cN97ggY_SQwOwsA1bqNnGuUPTD-gQkxD","width":3264}],"place_id":"ChIJoYrVM_RQqEcRQwPF3hBlMZ8","plus_code":{"compound_code":"F8RG+GF Berlin","global_code":"9F4MF8RG+GF"},"price_level":2,"rating":4,"reference":"ChIJoYrVM_RQqEcRQwPF3hBlMZ8","types":["restaurant","food","point_of_interest","establishment"],"user_ratings_total":379},{"business_status":"OPERATIONAL","formatted_address":"Hasenheide 18, 10967 Berlin, Germany","geometry":{"location":{"lat":52.4878751,"lng":13.4198031},"viewport":{"northeast":{"lat":52.48904777989272,"lng":13.42108572989272},"southwest":{"lat":52.48634812010727,"lng":13.41838607010728}}},"icon":"https://maps.gstatic.com/mapfiles/place_api/icons/v1/png_71/restaurant-71.png","icon_background_color":"#FF9E67","icon_mask_base_uri":"https://maps.gstatic.com/mapfiles/place_api/icons/v2/restaurant_pinlet","name":"Sto Steki","opening_hours":{"open_now":false},"photos":[{"height":2976,"html_attributions":["<a href=\"https://maps.google.com/maps/contrib/116538885402308778149\">Uri Friedman</a>"],"photo_reference":"AeJbb3e6IxjIgMPIChpo8wb2pY8x-p1rwcQ_zf0p_CU5W39wS-NvltLkEmosGFsBD-_TCqXFT-aiQiiRWLGCt0HiOADL7CIDKZ4LWLw9c6hQcvRS-Lb2VYoswG81A8fr-J_fVTfIyBoHb1rFZQj5Efiho_gPQScUwqDW2u4d60VNiEnNrfkj","width":3968}],"place_id":"ChIJecvyEchPqEcRzByczV8smk0","plus_code":{"compound_code":"FCQ9+5W Berlin","global_code":"9F4MFCQ9+5W"},"price_level":1,"rating":3.9,"reference":"ChIJecvyEchPqEcRzByczV8smk0","types":["cafe","restaurant","food","point_of_interest","establishment"],"user_ratings_total":237},{"business_status":"OPERATIONAL","formatted_address":"Friedelstraße 37, 12047 Berlin, Germany","geometry":{"location":{"lat":52.4923847,"lng":13.4276876},"viewport":{"northeast":{"lat":52.49372612989272,"lng":13.42919942989272},"southwest":{"lat":52.49102647010728,"lng":13.42649977010728}}},"icon":"https://maps.gstatic.com/mapfiles/place_api/icons/v1/png_71/restaurant-71.png","icon_background_color":"#FF9E67","icon_mask_base_uri":"https://maps.gstatic.com/mapfiles/place_api/icons/v2/restaurant_pinlet","name":"Taverna Odysseus","opening_hours":{"open_now":false},"photos":[{"height":2240,"html_attributions":["<a href=\"https://maps.google.com/maps/contrib/108423205000325973723\">Martina Häge</a>"],"photo_reference":"AeJbb3ffqW4Q_GrSZeM00Ilvzm4sGCXd9MhoJpltBF09cWDnsVmTlo9kZjrUFZ02v6gIvh2jhVfC7QP4XvK_vkTGDijFIcBQikceeN22UCv8Pqk5TaqSLAu43fSxTvAB_0inhhvq2SZ3EHF8S2tQz1lJzYfitzssnicGRFx0DAjymp_1yu97","width":3968}],"place_id":"ChIJwxv9MrRPqEcRioX5SFTE7-c","plus_code":{"compound_code":"FCRH+X3 Berlin","global_code":"9F4MFCRH+X3"},"rating":3.8,"reference":"ChIJwxv9MrRPqEcRioX5SFTE7-c","types":["restaurant","food","point_of_interest","establishment"],"user_ratings_total":120}]