[{"business_status":"OPERATIONAL","formatted_address":"Sierichstraße 112, 22299 Hamburg","geometry":{"location":{"lat":53.58896,"lng":10.0017},"viewport":{"northeast":{"lat":53.59027192989272,"lng":10.00291297989272},"southwest":{"lat":53.58757227010728,"lng":10.00021332010728}}},"icon":"https://maps.gstatic.com/mapfiles/place_api/icons/v1/png_71/restaurant-71.png","icon_background_color":"#FF9E67","icon_mask_base_uri":"https://maps.gstatic.com/mapfiles/place_api/icons/v2/restaurant_pinlet","name":"ZEIK Restaurant","opening_hours":{"open_now":false},"photos":[{"height":1333,"html_attributions":["<a href=\"https://maps.google.com/maps/contrib/101562705779707765948\">ZEIK Restaurant · Axel Henkel</a>"],"photo_reference":"AeJbb3dpLiNLl037V___5Zwvpp-XmR3eEH1p7D07xtKmO5KmoLAdKT9ecvVQrbbKKQSskzcFE0hI9Imed-cdxKe8ch3wx3ZGPODE8OaEACGtGRd7wpuANmP918mpiTOnaz8E6x8AmYsr8gzbAXBUR5_lcd6JAZHcpcPEvE0eoVFS7grNbUWf","width":2000}],"place_id":"ChIJ4TtMXdCIsUcRAcmdiwyZVD0","plus_code":{"compound_code":"H2Q2+HM Hamburg","global_code":"9F5GH2Q2+HM"},"price_level":3,"rating":4.9,"reference":"ChIJ4TtMXdCIsUcRAcmdiwyZVD0","types":["restaurant","food","point_of_interest","establishment"],"user_ratings_total":221},{"business_status":"OPERATIONAL","formatted_address":"Rothenbaumchaussee 10, 20148 Hamburg","geometry":{"location":{"lat":53.56356,"lng":9.9900977},"viewport":{"northeast":{"lat":53.56503452989272,"lng":9.99167792989272},"southwest":{"lat":53.56233487010728,"lng":9.988978270107276}}},"icon":"https://maps.gstatic.com/mapfiles/place_api/icons/v1/png_71/restaurant-71.png","icon_background_color":"#FF9E67","icon_mask_base_uri":"https://maps.gstatic.com/mapfiles/place_api/icons/v2/restaurant_pinlet","name":"THEOS","opening_hours":{"open_now":false},"photos":[{"height":853,"html_attributions":["<a href=\"https://maps.google.com/maps/contrib/115954769702290882418\">A Google User</a>"],"photo_reference":"AeJbb3eZ2izWe_V1t4eJ7ua1Lduk-goiCP8kV6ZyEvlYQ0ALlUisqa5iaEeFF5nnQ5YUHgQ4fECqwK-uUQRpjp_ZLNMkN0NJn_-12UbM9CnCS9-oRRhw1rpNso4XZBnjHi_aHNptU_Qr8sRbjzf6XRIEmsxSUZNO5VaYRjNdiUE0V4xslDrC","width":1280}],"place_id":"ChIJIXaPRSOPsUcRu2T9OgoLw-c","plus_code":{"compound_code":"HX7R+C2 Hamburg","global_code":"9F5FHX7R+C2"},"price_level":4,"rating":4.8,"reference":"ChIJIXaPRSOPsUcRu2T9OgoLw-c","types":["restaurant","food","point_of_interest","establishment"],"user_ratings_total":597},{"business_status":"OPERATIONAL","formatted_address":"Turnerstraße 9, 20357 Hamburg","geometry":{"location":{"lat":53.5580808,"lng":9.9708983},"viewport":{"northeast":{"lat":53.55941717989271,"lng":9.97227377989272},"southwest":{"lat":53.55671752010727,"lng":9.969574120107277}}},"icon":"https://maps.gstatic.com/mapfiles/place_api/icons/v1/png_71/restaurant-71.png","icon_background_color":"#FF9E67","icon_mask_base_uri":"https://maps.gstatic.com/mapfiles/place_api/icons/v2/restaurant_pinlet","name":"philipps Restaurant","opening_hours":{"open_now":false},"photos":[{"height":536,"html_attributions":["<a href=\"https://maps.google.com/maps/contrib/102425992926328254095\">ask. ir</a>"],"photo_reference":"AeJbb3fK93mOzAt7LWiDGpvzF1JNhjAb7by0EUf9kbZP2uToI1OGK387DD4mAS9BBLUiS23HsQQfMw0-UTKHp0zQEKLaILLjFLm3BjGQqAOGasbrw7KIF8CEQTASDhBTx835L1ThZAdr80IOSm01qV75c307VTWioYy7UvQooq0GAJPMONhJ","width":672}],"place_id":"ChIJ_Zwn3WqPsUcRjK_e1CzzogY","plus_code":{"compound_code":"HX5C+68 Hamburg","global_code":"9F5FHX5C+68"},"price_level":3,"rating":4.8,"reference":"ChIJ_Zwn3WqPsUcRjK_e1CzzogY","types":["restaurant","food","point_of_interest","establishment"],"user_ratings_total":586},{"business_status":"OPERATIONAL","formatted_address":"Am Sandtorkai 50, 20457 Hamburg","geometry":{"location":{"lat":53.5430353,"lng":9.9941158},"viewport":{"northeast":{"lat":53.54453467989272,"lng":9.995547229892722},"southwest":{"lat":53.54183502010728,"lng":9.992847570107278}}},"icon":"https://maps.gstatic.com/mapfiles/place_api/icons/v1/png_71/restaurant-71.png","icon_background_color":"#FF9E67","icon_mask_base_uri":"https://maps.gstatic.com/mapfiles/place_api/icons/v2/restaurant_pinlet","name":"Bianc","opening_hours":{"open_now":false},"photos":[{"height":4032,"html_attributions":["<a href=\"https://maps.google.com/maps/contrib/101987123311023347580\">Liane Richter</a>"],"photo_reference":"AeJbb3e-MSbD76ki3U2vUMq29jcH7-aCvS5MI7O7Fy7GIbCosYUlMVHcx3kCXNnSCGG9ZtYnE0WNblhHooDp7QZGSpYQSCzc-5pDcjbyQEWnyn_81lycaYRIiv8vNtlMm4PRpIsyqBDT0SZKOG5KCP7IkIiM1iZxbkmCsYSawbjmpcFLuEoK","width":3024}],"place_id":"ChIJb62aMAKPsUcRD0GNvxp7ecc","plus_code":{"compound_code":"GXVV+6J Hamburg","global_code":"9F5FGXVV+6J"},"price_level":4,"rating":4.8,"reference":"ChIJb62aMAKPsUcRD0GNvxp7ecc","types":["restaurant","food","point_of_interest","establishment"],"user_ratings_total":269},{"business_status":"OPERATIONAL","formatted_address":"Bundesstraße 15, 20146 Hamburg","geometry":{"location":{"lat":53.5650511,"lng":9.9803563},"viewport":{"northeast":{"lat":53.56643942989272,"lng":9.981814729892722},"southwest":{"lat":53.56373977010728,"lng":9.979115070107278}}},"icon":"https://maps.gstatic.com/mapfiles/place_api/icons/v1/png_71/restaurant-71.png","icon_background_color":"#FF9E67","icon_mask_base_uri":"https://maps.gstatic.com/mapfiles/place_api/icons/v2/restaurant_pinlet","name":"Oechsle Restaurant & Weinbar","opening_hours":{"open_now":false},"photos":[{"height":1645,"html_attributions":["<a href=\"https://maps.google.com/maps/contrib/115932384876095880534\">A Google User</a>"],"photo_reference":"AeJbb3etEPT0E2elligqUfQR1QeNNfv1TZD6rRNpSAe_8xNpfs09Q7xMFgwNJ38Z20aI911Oisiyo01maIlwrsli4Car_qnrri8HhW4eJRlqeyRBRlVqNEE2Do1U_st3eS4u7J2Ux-H6Wl9FDryEIwll8hMaRua0zUsajdHeOrDZuEt0IxoK","width":2500}],"place_id":"ChIJVdDFNDmPsUcRwwhb3BKWW-Y","plus_code":{"compound_code":"HX8J+24 Hamburg","global_code":"9F5FHX8J+24"},"rating":4.8,"reference":"ChIJVdDFNDmPsUcRwwhb3BKWW-Y","types":["restaurant","food","point_of_interest","establishment"],"user_ratings_total":109},{"business_status":"OPERATIONAL","formatted_address":"Moorkamp 6, 20357 Hamburg","geometry":{"location":{"lat":53.5696933,"lng":9.967581599999999},"viewport":{"northeast":{"lat":53.57109137989272,"lng":9.968985679892722},"southwest":{"lat":53.56839172010728,"lng":9.966286020107278}}},"icon":"https://maps.gstatic.com/mapfiles/place_api/icons/v1/png_71/restaurant-71.png","icon_background_color":"#FF9E67","icon_mask_base_uri":"https://maps.gstatic.com/mapfiles/place_api/icons/v2/restaurant_pinlet","name":"Restaurant Santé! - Hamburg","opening_hours":{"open_now":true},"photos":[{"height":1200,"html_attributions":["<a href=\"https://maps.google.com/maps/contrib/110506805365328191782\">A Google User</a>"],"photo_reference":"AeJbb3e9XgQtJpI4omIPJdDYeULA0gcMmy6SOoNJJhNCaEAOXwLtGxUh9qYQtU8UKyCukn-jy5Q0U7OhiexLJoJAlr81NSKTewODcvQBcovHFuA4CxI_tLdFwUSHOcc_c4v7Bt1efzKivhxn-pYjKG_yaE4dPsUBF9XYbgKpJ3ZJ7kp5AhiK","width":1505}],"place_id":"ChIJ-Xt1ukWPsUcRUZc_daXAVg8","plus_code":{"compound_code":"HX99+V2 Hamburg","global_code":"9F5FHX99+V2"},"rating":4.8,"reference":"ChIJ-Xt1ukWPsUcRUZc_daXAVg8","types":["cafe","restaurant","food","point_of_interest","establishment"],"user_ratings_total":90},{"business_status":"OPERATIONAL","formatted_address":"Fontenay 10, 20354 Hamburg","geometry":{"location":{"lat":53.5652984,"lng":9.997961199999999},"viewport":{"northeast":{"lat":53.56660922989271,"lng":9.999336379892721},"southwest":{"lat":53.56390957010727,"lng":9.996636720107277}}},"icon":"https://maps.gstatic.com/mapfiles/place_api/icons/v1/png_71/restaurant-71.png","icon_background_color":"#FF9E67","icon_mask_base_uri":"https://maps.gstatic.com/mapfiles/place_api/icons/v2/restaurant_pinlet","name":"Lakeside","opening_hours":{"open_now":false},"photos":[{"height":3022,"html_attributions":["<a href=\"https://maps.google.com/maps/contrib/114476830721356338133\">Alla Sommermeirer</a>"],"photo_reference":"AeJbb3dm4i362GGmTEEi95ZgX1WJammm1I5dYbUcEYCXcrMV9XQrUiZ5ElCgFtRbzbUcmzubjNO1uNCwaueciyh5d3gNGuyEFzwOg1VMCt1blKI3m0OSbW-XxJBrcy7MxTr0gjagTNx5Tq2Uh-hynqnW7fylHXfZzwmmr4v4_UyXMV5ZIJQt","width":3267}],"place_id":"ChIJBxBWnSaPsUcRaWgkWhttxS0","plus_code":{"compound_code":"HX8X+45 Hamburg","global_code":"9F5FHX8X+45"},"price_level":4,"rating":4.8,"reference":"ChIJBxBWnSaPsUcRaWgkWhttxS0","types":["restaurant","food","point_of_interest","establishment"],"user_ratings_total":53},{"business_status":"OPERATIONAL","formatted_address":"Am Sandtorkai 23, 20457 Hamburg","geometry":{"location":{"lat":53.5434264,"lng":9.9930307},"viewport":{"northeast":{"lat":53.54472537989272,"lng":9.994394579892722},"southwest":{"lat":53.54202572010728,"lng":9.991694920107278}}},"icon":"https://maps.gstatic.com/mapfiles/place_api/icons/v1/png_71/restaurant-71.png","icon_background_color":"#FF9E67","icon_mask_base_uri":"https://maps.gstatic.com/mapfiles/place_api/icons/v2/restaurant_pinlet","name":"La Bella","photos":[{"height":3968,"html_attributions":["<a href=\"https://maps.google.com/maps/contrib/118182949358809609663\">Rüdiger Peters</a>"],"photo_reference":"AeJbb3eKocHSPvVQ4sAN-rXaXpYfPNLznxaRy3FhbSWBMgtGk5qIcanzXh68ytlxwh9q8h852a2Op7h_35_o3K2F3F7K8YnhKTDKKLxbNJQ7VDBarshs4Cbm23iNH5oquhtTUQVzcb2qKH97yGrTUHot74IX_yoLRV-XuDbgmNI544-4LqLz","width":2976}],"place_id":"ChIJ6_22tQOPsUcR4rQAtGGMxyc","plus_code":{"compound_code":"GXVV+96 Hamburg","global_code":"9F5FGXVV+96"},"rating":4.8,"reference":"ChIJ6_22tQOPsUcR4rQAtGGMxyc","types":["restaurant","food","point_of_interest","establishment"],"user_ratings_total":6},{"business_status":"OPERATIONAL","formatted_address":"Neuer Jungfernstieg 9 14, 20354 Hamburg","geometry":{"location":{"lat":53.5556178,"lng":9.9915486},"viewport":{"northeast":{"lat":53.55694392989273,"lng":9.993009629892722},"southwest":{"lat":53.55424427010728,"lng":9.990309970107278}}},"icon":"https://maps.gstatic.com/mapfiles/place_api/icons/v1/png_71/lodging-71.png","icon_background_color":"#909CE1","icon_mask_base_uri":"https://maps.gstatic.com/mapfiles/place_api/icons/v2/hotel_pinlet","name":"Fairmont Hotel Vier Jahreszeiten","photos":[{"height":3838,"html_attributions":["<a href=\"https://maps.google.com/maps/contrib/117308096253947384733\">Fairmont Hotel Vier Jahreszeiten</a>"],"photo_reference":"AeJbb3enGkonobyLpsEo28irfY-xqKrHX4yS09-haICEyumkC5bzrlGUKXzWHzy9yaaAqfAGt0LMnGyqNr1UgHZsWaqhDuuDyVN0f_PxlLXfNYm2HV44qIitcPpM3WH4320uQ0kj2Dv20Q4CU00d1pxQuWO2FaDNaQkV0xsZhEHd2sa-9qWI","width":4649}],"place_id":"ChIJ78O2HRmPsUcRRX8fUCLLmbk","plus_code":{"compound_code":"HX4R+6J Hamburg","global_code":"9F5FHX4R+6J"},"rating":4.7,"reference":"ChIJ78O2HRmPsUcRRX8fUCLLmbk","types":["lodging","restaurant","food","point_of_interest","establishment"],"user_ratings_total":1452},{"business_status":"OPERATIONAL","formatted_address":"Shanghaiallee 15, 20457 Hamburg","geometry":{"location":{"lat":53.542616,"lng":10.0031224},"viewport":{"northeast":{"lat":53.54383282989272,"lng":10.00441247989272},"southwest":{"lat":53.54113317010728,"lng":10.00171282010728}}},"icon":"https://maps.gstatic.com/mapfiles/place_api/icons/v1/png_71/restaurant-71.png","icon_background_color":"#FF9E67","icon_mask_base_uri":"https://maps.gstatic.com/mapfiles/place_api/icons/v2/restaurant_pinlet","name":"The Table","opening_hours":{"open_now":false},"photos":[{"height":3024,"html_attributions":["<a href=\"https://maps.google.com/maps/contrib/110176164570181559024\">John Vincent K.</a>"],"photo_reference":"AeJbb3f8EMJjJBcmP0Jio51prxoYOpy8EUqbbeuHZbsyk_1Br0QFMdhnvWIUPjGDjOcQOH8IcqkE3e-fP2Z9J-lh9XLOhfr2g_nRoZeE-7UpNiM7D5BZuG58TaCg472pCx5mPHDjWF-a6_Yweg70FFMjz2SnYl37Vgies6bkGA2ps3QeAR1a","width":4032}],"place_id":"ChIJY8mKQvyOsUcRA-H7nvNI-L8","plus_code":{"compound_code":"G2V3+26 Hamburg","global_code":"9F5GG2V3+26"},"price_level":4,"rating":4.7,"reference":"ChIJY8mKQvyOsUcRA-H7nvNI-L8","types":["restaurant","food","point_of_interest","establishment"],"user_ratings_total":289},{"business_status":"OPERATIONAL","formatted_address":"Hofweg 50, 22085 Hamburg","geometry":{"location":{"lat":53.5726723,"lng":10.0158083},"viewport":{"northeast":{"lat":53.57396967989273,"lng":10.01736852989272},"southwest":{"lat":53.57127002010728,"lng":10.01466887010728}}},"icon":"https://maps.gstatic.com/mapfiles/place_api/icons/v1/png_71/restaurant-71.png","icon_background_color":"#FF9E67","icon_mask_base_uri":"https://maps.gstatic.com/mapfiles/place_api/icons/v2/restaurant_pinlet","name":"Restaurant La Fee","opening_hours":{"open_now":false},"photos":[{"height":1536,"html_attributions":["<a href=\"https://maps.google.com/maps/contrib/108788923011230983556\">A Google User</a>"],"photo_reference":"AeJbb3f47rfbSVeoc2ShcWUPWi-EsBtXp8Un-A3SyzTg70HU7XPiw11JR3IC7ZJDTMOOILvhdbLZ-QixH8v--6mN38IlpiSuUpfG5vf2Oe4HdByLlboQWwO1pz1LlqBqysC6o4s_HRm-wWM1hBkFmg3QLxQbMIDdwhqVLpR6ytSZvXQfzXdq","width":2048}],"place_id":"ChIJVQiWVdGOsUcRMNjbpCndzQM","plus_code":{"compound_code":"H2F8+38 Hamburg","global_code":"9F5GH2F8+38"},"price_level":2,"rating":4.7,"reference":"ChIJVQiWVdGOsUcRMNjbpCndzQM","types":["restaurant","food","point_of_interest","establishment"],"user_ratings_total":207},{"business_status":"OPERATIONAL","formatted_address":"Neuer Jungfernstieg 9-14, 20354 Hamburg","geometry":{"location":{"lat":53.5556557,"lng":9.9914572},"viewport":{"northeast":{"lat":53.55696102989272,"lng":9.992962279892721},"southwest":{"lat":53.55426137010728,"lng":9.990262620107277}}},"icon":"https://maps.gstatic.com/mapfiles/place_api/icons/v1/png_71/restaurant-71.png","icon_background_color":"#FF9E67","icon_mask_base_uri":"https://maps.gstatic.com/mapfiles/place_api/icons/v2/restaurant_pinlet","name":"Haerlin Restaurant","opening_hours":{"open_now":false},"photos":[{"height":3840,"html_attributions":["<a href=\"https://maps.google.com/maps/contrib/117764933379007257604\">Restaurant Haerlin im Fairmont Hotel Vier Jahreszeiten</a>"],"photo_reference":"AeJbb3fA6p6jAr6qnNz0wGacdFdEoMwZ2D3GWKrYlUV8SQh-43EDdhTMmxlfHcjyepHCxJeAwWOxbC2Qcor8WSlrdoKc2scH9i0z2DoxWUWVMLZ0q4NIB3zMRp1JCCjvoqJNi4Limvg5GT-OPM5-ViMN1tQo61o-a-S-WE5Clp8nRFSdaBwL","width":5760}],"place_id":"ChIJXetoHRmPsUcRO9lASc7qR3U","plus_code":{"compound_code":"HX4R+7H Hamburg","global_code":"9F5FHX4R+7H"},"price_level":4,"rating":4.7,"reference":"ChIJXetoHRmPsUcRO9lASc7qR3U","types":["restaurant","food","point_of_interest","establishment"],"user_ratings_total":198},{"business_status":"OPERATIONAL","formatted_address":"Alter Wall 12, 20457 Hamburg","geometry":{"location":{"lat":53.5509724,"lng":9.9909555},"viewport":{"northeast":{"lat":53.55217457989271,"lng":9.992484379892723},"southwest":{"lat":53.54947492010727,"lng":9.989784720107279}}},"icon":"https://maps.gstatic.com/mapfiles/place_api/icons/v1/png_71/restaurant-71.png","icon_background_color":"#FF9E67","icon_mask_base_uri":"https://maps.gstatic.com/mapfiles/place_api/icons/v2/restaurant_pinlet","name":"Wallter's Restaurant - Hamburg","opening_hours":{"open_now":false},"photos":[{"height":2245,"html_attributions":["<a href=\"https://maps.google.com/maps/contrib/115479200103192317081\">A Google User</a>"],"photo_reference":"AeJbb3eF6ZFzV6HiyMAE8rZtwJU0WKJcL9ooQ84a2M3mgZuor5nQH0GMa4lFRnHAx9FybJKSM4HvD28SJqdh2t32XWrDjpGemVWFQWjRFvVkhbh8dxSjZyN9zoIzwX-4k0dHq6avLFjQkkhvrw0h4oJTrbq-E1Iats8XsNn5m5wxfiJFLb3_","width":3500}],"place_id":"ChIJM02uAZqPsUcRnBeD7TGZS0A","plus_code":{"compound_code":"HX2R+99 Hamburg","global_code":"9F5FHX2R+99"},"rating":4.7,"reference":"ChIJM02uAZqPsUcRnBeD7TGZS0A","types":["restaurant","bar","food","point_of_interest","establishment"],"user_ratings_total":109},{"business_status":"OPERATIONAL","formatted_address":"Spritzenpl. 11, 22765 Hamburg","geometry":{"location":{"lat":53.5514136,"lng":9.9310747},"viewport":{"northeast":{"lat":53.55270487989272,"lng":9.932477929892721},"southwest":{"lat":53.55000522010727,"lng":9.929778270107278}}},"icon":"https://maps.gstatic.com/mapfiles/place_api/icons/v1/png_71/restaurant-71.png","icon_background_color":"#FF9E67","icon_mask_base_uri":"https://maps.gstatic.com/mapfiles/place_api/icons/v2/restaurant_pinlet","name":"Petit Amour","opening_hours":{"open_now":false},"photos":[{"height":3648,"html_attributions":["<a href=\"https://maps.google.com/maps/contrib/112524593440209774419\">Petit Amour</a>"],"photo_reference":"AeJbb3dZAK0qSVo8yX9ORtghpkRnzDXFrhOS5LPKppa-r5FrW21Cgtddk-EkBD0F1Nb1sbqwXzuhg2GhP1fCQJdlTyfL3p9Kzh78jwIsjIdUdWOdTpyWOu2PljpsSEyfyD4r0jHyIP6cg30ysD0sMuBgy3cE6URa3yQ-6Ny-mY74bdGnqmUs","width":5472}],"place_id":"ChIJr7up6YWFsUcRdD7M3YrquGY","plus_code":{"compound_code":"HW2J+HC Hamburg","global_code":"9F5FHW2J+HC"},"price_level":4,"rating":4.7,"reference":"ChIJr7up6YWFsUcRdD7M3YrquGY","types":["restaurant","food","point_of_interest","establishment"],"user_ratings_total":107},{"business_status":"OPERATIONAL","formatted_address":"Drehbahn 49, 20354 Hamburg","geometry":{"location":{"lat":53.556613,"lng":9.986829199999999},"viewport":{"northeast":{"lat":53.55796502989273,"lng":9.98828882989272},"southwest":{"lat":53.55526537010728,"lng":9.985589170107277}}},"icon":"https://maps.gstatic.com/mapfiles/place_api/icons/v1/png_71/restaurant-71.png","icon_background_color":"#FF9E67","icon_mask_base_uri":"https://maps.gstatic.com/mapfiles/place_api/icons/v2/restaurant_pinlet","name":"[m]eatery bar + restaurant Hamburg","opening_hours":{"open_now":false},"photos":[{"height":1334,"html_attributions":["<a href=\"https://maps.google.com/maps/contrib/103187153062464472763\">[m]eatery</a>"],"photo_reference":"AeJbb3fxvGTWRmiE2Y-1XGexUJjnOYoTPl_Xx4DFKn0kyXOx_sagqdjWxSCecfW6AY12fiWs_WqMTAnjEP18Gcd1kV0kiahNDWbOhLSNCDKxjafOIpp_4eFyNZkBK_GbL6fAOV9Z_LaXkkk0oT7EvvDQOadyxrO_3nqiNrWQ2uQZjSJ7A1Lb","width":2000}],"place_id":"ChIJM_-dhxePsUcRtdAjbH-zlb8","plus_code":{"compound_code":"HX4P+JP Hamburg","global_code":"9F5FHX4P+JP"},"price_level":4,"rating":4.6,"reference":"ChIJM_-dhxePsUcRtdAjbH-zlb8","types":["restaurant","food","point_of_interest","establishment"],"user_ratings_total":1447},{"business_status":"OPERATIONAL","formatted_address":"Neuer Pferdemarkt 5, 20359 Hamburg","geometry":{"location":{"lat":53.5563055,"lng":9.9632747},"viewport":{"northeast":{"lat":53.55769732989273,"lng":9.964639129892722},"southwest":{"lat":53.55499767010728,"lng":9.961939470107279}}},"icon":"https://maps.gstatic.com/mapfiles/place_api/icons/v1/png_71/restaurant-71.png","icon_background_color":"#FF9E67","icon_mask_base_uri":"https://maps.gstatic.com/mapfiles/place_api/icons/v2/restaurant_pinlet","name":"Restaurant Nil","opening_hours":{"open_now":false},"photos":[{"height":3001,"html_attributions":["<a href=\"https://maps.google.com/maps/contrib/100367706868947715966\">Dirk Luetzelberger</a>"],"photo_reference":"AeJbb3dyvaIPWfe-7eg-tSjeidFf15SgrO9ClwZ-Lhi3o_eX9mxpQegA_yQvbgv1l6ZD-0GR3FE2prbNeBMdArOXpEeWSLOS0bBu-LjJEYaXHj0ZgfQN3Dg-Iua8oHQP0g2QoDGW5N8ewSVrlvz6M7nNKr4RSvlhY8pFZhdIgmgVzIcyWm8K","width":5331}],"place_id":"ChIJS1pUW2mPsUcR0BfCHkb8lxo","plus_code":{"compound_code":"HX47+G8 Hamburg","global_code":"9F5FHX47+G8"},"price_level":3,"rating":4.6,"reference":"ChIJS1pUW2mPsUcR0BfCHkb8lxo","types":["restaurant","food","point_of_interest","establishment"],"user_ratings_total":595},{"business_status":"OPERATIONAL","formatted_address":"Rentzelstraße 50, 20146 Hamburg","geometry":{"location":{"lat":53.565044,"lng":9.9776341},"viewport":{"northeast":{"lat":53.56643542989272,"lng":9.978986279892723},"southwest":{"lat":53.56373577010728,"lng":9.97628662010728}}},"icon":"https://maps.gstatic.com/mapfiles/place_api/icons/v1/png_71/restaurant-71.png","icon_background_color":"#FF9E67","icon_mask_base_uri":"https://maps.gstatic.com/mapfiles/place_api/icons/v2/restaurant_pinlet","name":"Restaurant Békaa","opening_hours":{"open_now":false},"photos":[{"height":3024,"html_attributions":["<a href=\"https://maps.google.com/maps/contrib/104625146699274886789\">Max Thrane</a>"],"photo_reference":"AeJbb3e4DiWQVmRa4u0VXtLknCijC-Za3DXi41jqyMqT9tTiO3qXtsqbT7CMBux7RKk8YMWEBotjT2kmdMvrSVD3zvMnVqaDpcLH9HNbWFIA-4Rx32srfdkLxRxMms-idTa8tTCb19CkUpW2pLTIwjIEhVyv-jJeh0VN6xnOwBdkfds-fgif","width":4032}],"place_id":"ChIJNX_IMj-PsUcRCDg1QQlfGog","plus_code":{"compound_code":"HX8H+23 Hamburg","global_code":"9F5FHX8H+23"},"price_level":2,"rating":4.6,"reference":"ChIJNX_IMj-PsUcRCDg1QQlfGog","types":["restaurant","food","point_of_interest","establishment"],"user_ratings_total":362},{"business_status":"OPERATIONAL","formatted_address":"Elbchaussee 130, 22763 Hamburg","geometry":{"location":{"lat":53.5461111,"lng":9.9166666},"viewport":{"northeast":{"lat":53.54764217989272,"lng":9.918052229892721},"southwest":{"lat":53.54494252010728,"lng":9.915352570107277}}},"icon":"https://maps.gstatic.com/mapfiles/place_api/icons/v1/png_71/restaurant-71.png","icon_background_color":"#FF9E67","icon_mask_base_uri":"https://maps.gstatic.com/mapfiles/place_api/icons/v2/restaurant_pinlet","name":"Landhaus Scherrer","opening_hours":{"open_now":true},"photos":[{"height":3024,"html_attributions":["<a href=\"https://maps.google.com/maps/contrib/102008177814830313417\">wolfgang</a>"],"photo_reference":"AeJbb3cNs_q6i5izwZPE_kTJgUpREUabweANDsq_pyk2ttOznyIqGJQS-xQ-Aa94V7o-CAgj0sYISgP_plLAqUBQEm1Wfm5hYFMSHyux-1gT_cAcQWaQL4IG1nYPDdiyivWtS7lIFH2Q-zi-1t9s8p0P0m5erHv7jjmUfmwMZdCzxGCCknWF","width":4032}],"place_id":"ChIJ5ysjNpyFsUcRPCWBm4c4T9U","plus_code":{"compound_code":"GWW8+CM Hamburg","global_code":"9F5FGWW8+CM"},"price_level":4,"rating":4.6,"reference":"ChIJ5ysjNpyFsUcRPCWBm4c4T9U","types":["restaurant","food","point_of_interest","establishment"],"user_ratings_total":297},{"business_status":"OPERATIONAL","formatted_address":"Colonnaden 3, 20354 Hamburg","geometry":{"location":{"lat":53.5547993,"lng":9.990543599999999},"viewport":{"northeast":{"lat":53.55608627989272,"lng":9.991901579892723},"southwest":{"lat":53.55338662010728,"lng":9.989201920107279}}},"icon":"https://maps.gstatic.com/mapfiles/place_api/icons/v1/png_71/restaurant-71.png","icon_background_color":"#FF9E67","icon_mask_base_uri":"https://maps.gstatic.com/mapfiles/place_api/icons/v2/restaurant_pinlet","name":"Ukitchen","opening_hours":{"open_now":false},"photos":[{"height":5600,"html_attributions":["<a href=\"https://maps.google.com/maps/contrib/116161479074199225711\">A Google User</a>"],"photo_reference":"AeJbb3eKqBgSQyUL3KGYVSWOgqkns0i5XpRhEeUgfX9Mo_Xs_TdYWC3k3gJJixbXo_GSnDXZUgQWNsGA1OKXvHNDF-j7xXRO_t-gdZy6I2sXDaGcdYB8-NBktC1pyue1Qy7uSMiF31KOjFbc8VxLoD0uCNYhqO8I0uIbdKsKuW6UMmmMeG4e","width":4480}],"place_id":"ChIJaUCfDhmPsUcRpNEs9SwJMDk","plus_code":{"compound_code":"HX3R+W6 Hamburg","global_code":"9F5FHX3R+W6"},"rating":4.6,"reference":"ChIJaUCfDhmPsUcRpNEs9SwJMDk","types":["restaurant","food","point_of_interest","establishment"],"user_ratings_total":272},{"business_status":"OPERATIONAL","formatted_address":"Bugenhagenstraße 8, 20095 Hamburg","geometry":{"location":{"lat":53.55086859999999,"lng":10.0030238},"viewport":{"northeast":{"lat":53.55211532989271,"lng":10.00439182989272},"southwest":{"lat":53.54941567010727,"lng":10.00169217010728}}},"icon":"https://maps.gstatic.com/mapfiles/place_api/icons/v1/png_71/restaurant-71.png","icon_background_color":"#FF9E67","icon_mask_base_uri":"https://maps.gstatic.com/mapfiles/place_api/icons/v2/restaurant_pinlet","name":"Apples Restaurant & Bar","opening_hours":{"open_now":false},"photos":[{"height":2713,"html_attributions":["<a href=\"https://maps.google.com/maps/contrib/108105705768963732597\">Apples Restaurant &amp; Bar Hamburg</a>"],"photo_reference":"AeJbb3ebgbKPHOFitz3bxgnDNijKwk5C2DEofCqtl6k3KgJt1pUtuy9zVncO_T1nsTBUMUPSz0Cx3yjhUDQuP5PTvdfFGTEd6L_JCWg-As_abQVlhuAORYheBxVOv-OgRn-e2bW1QAEbc98u766Om4bbMcz76LFoyzXeWKs1YXr120aVhdbM","width":4724}],"place_id":"ChIJKXZ1M-KOsUcRpR1ixANHLKA","plus_code":{"compound_code":"H223+86 Hamburg","global_code":"9F5GH223+86"},"rating":4.6,"reference":"ChIJKXZ1M-KOsUcRpR1ixANHLKA","types":["bar","restaurant","food","point_of_interest","establishment"],"user_ratings_total":265},{"business_status":"OPERATIONAL","formatted_address":"Brandshofer Deich 68, 20539 Hamburg","geometry":{"location":{"lat":53.53772069999999,"lng":10.0283143},"viewport":{"northeast":{"lat":53.53910242989271,"lng":10.02974062989272},"southwest":{"lat":53.53640277010727,"lng":10.02704097010728}}},"icon":"https://maps.gstatic.com/mapfiles/place_api/icons/v1/png_71/restaurant-71.png","icon_background_color":"#FF9E67","icon_mask_base_uri":"https://maps.gstatic.com/mapfiles/place_api/icons/v2/restaurant_pinlet","name":"100/200 Kitchen","opening_hours":{"open_now":false},"photos":[{"height":3464,"html_attributions":["<a href=\"https://maps.google.com/maps/contrib/108615234749259190079\">Hannes</a>"],"photo_reference":"AeJbb3dwi8hxXiQOTvFXwsaIwS6V3oAbS6I_fZs7_ihoHsQ6euHF3tx8Tw3d_I6X1JEwAx0OOB-1tTGKP-mnBMkHos_2vShrMwVdZvw9CbnO7w-K2jNZ89AOptWnmJosaYq9etCHVKR9FmitH7bIsGar1XA7k08fXoZPijXP0ACqzkauMsXu","width":4618}],"place_id":"ChIJSW4gcouOsUcRAONgvMCx-eo","plus_code":{"compound_code":"G2QH+38 Hamburg","global_code":"9F5GG2QH+38"},"price_level":4,"rating":4.6,"reference":"ChIJSW4gcouOsUcRAONgvMCx-eo","types":["restaurant","food","point_of_interest","establishment"],"user_ratings_total":228},{"business_status":"OPERATIONAL","formatted_address":"Lehmweg 29, 20251 Hamburg","geometry":{"location":{"lat":53.5821049,"lng":9.9794596},"viewport":{"northeast":{"lat":53.58343297989272,"lng":9.980952479892721},"southwest":{"lat":53.58073332010727,"lng":9.978252820107278}}},"icon":"https://maps.gstatic.com/mapfiles/place_api/icons/v1/png_71/restaurant-71.png","icon_background_color":"#FF9E67","icon_mask_base_uri":"https://maps.gstatic.com/mapfiles/place_api/icons/v2/restaurant_pinlet","name":"Restaurant Piment","opening_hours":{"open_now":false},"photos":[{"height":4032,"html_attributions":["<a href=\"https://maps.google.com/maps/contrib/105863797799565274944\">Snir Yarom</a>"],"photo_reference":"AeJbb3esgThIvoCXsizMWw_crF_j3C-l3lQ2fpObJlvmVRvlx4CwHDapDrWTR50odNidS3Wu6S9A6GEGfBTRXivZMtCiKZtHIOnH8wn5T-LbtQjb08tV4UEjHWT5RDWQKwVofAiNeQu_04I6lVoHXezguJ5vwvwPyT5hx1qSUcwCxnjQ9BoI","width":1908}],"place_id":"ChIJee-pR7WIsUcReZ7J4BAjEcA","plus_code":{"compound_code":"HXJH+RQ Hamburg","global_code":"9F5FHXJH+RQ"},"price_level":4,"rating":4.6,"reference":"ChIJee-pR7WIsUcReZ7J4BAjEcA","types":["restaurant","food","point_of_interest","establishment"],"user_ratings_total":195},{"business_status":"OPERATIONAL","formatted_address":"Papenhuder Str. 35, 22087 Hamburg","geometry":{"location":{"lat":53.56718470000001,"lng":10.0186163},"viewport":{"northeast":{"lat":53.56851477989272,"lng":10.02014562989272},"southwest":{"lat":53.56581512010728,"lng":10.01744597010728}}},"icon":"https://maps.gstatic.com/mapfiles/place_api/icons/v1/png_71/restaurant-71.png","icon_background_color":"#FF9E67","icon_mask_base_uri":"https://maps.gstatic.com/mapfiles/place_api/icons/v2/restaurant_pinlet","name":"Restaurant Rexrodt Hamburg","opening_hours":{"open_now":false},"photos":[{"height":1836,"html_attributions":["<a href=\"https://maps.google.com/maps/contrib/110563681015582780679\">Valeria Sheina</a>"],"photo_reference":"AeJbb3f8PF43C1TYo694UUclhDGEuybgSt5zLbXBKgJ1z5eKyuxdz4-UGxp3lzSgecNGUH-SQLuZsGFJIA6P1J12t4YJ8LC9y20pcvuNqis8B8e5a6G_AbVnb0Bw-xWFx_SMGaAilcuiiZG15otR_FVF0EX7D2XrxYptG8le2sR2OkGR8-zL","width":3264}],"place_id":"ChIJcastoNqOsUcRDkPVrfw1kBQ","plus_code":{"compound_code":"H289+VC Hamburg","global_code":"9F5GH289+VC"},"price_level":3,"rating":4.6,"reference":"ChIJcastoNqOsUcRDkPVrfw1kBQ","types":["restaurant","food","point_of_interest","establishment"],"user_ratings_total":181},{"business_status":"OPERATIONAL","formatted_address":"Elbchaussee 401, 22609 Hamburg","geometry":{"location":{"lat":53.5503774,"lng":9.8437319},"viewport":{"northeast":{"lat":53.55183352989272,"lng":9.845115179892723},"southwest":{"lat":53.54913387010728,"lng":9.842415520107279}}},"icon":"https://maps.gstatic.com/mapfiles/place_api/icons/v1/png_71/restaurant-71.png","icon_background_color":"#FF9E67","icon_mask_base_uri":"https://maps.gstatic.com/mapfiles/place_api/icons/v2/restaurant_pinlet","name":"Jacobs Restaurant","opening_hours":{"open_now":false},"photos":[{"height":1402,"html_attributions":["<a href=\"https://maps.google.com/maps/contrib/103423980874454972121\">A Google User</a>"],"photo_reference":"AeJbb3ffONK5IeE5VcXCTzKBVQ4RMVheHYXjS3h5l5nyDohehuOBG2jZdNvN2LTmX0p6OeiUuK0vXjuhQVsce-cA_Vl-tuBPx7Ena2DmW32HddBV8AI067gGgS6NPw7i81wWYbIL4DxAnl7JQnujRBJApArEAsNIoP4aYjlyy5qeVWG68u8g","width":2048}],"place_id":"ChIJq6jOuWGEsUcRAexub8wgNVY","plus_code":{"compound_code":"HR2V+5F Hamburg","global_code":"9F5FHR2V+5F"},"price_level":4,"rating":4.6,"reference":"ChIJq6jOuWGEsUcRAexub8wgNVY","types":["restaurant","food","point_of_interest","establishment"],"user_ratings_total":176},{"business_status":"OPERATIONAL","formatted_address":"Clemens-Schultz-Straße 18, 20359 Hamburg","geometry":{"location":{"lat":53.5520331,"lng":9.9646671},"viewport":{"northeast":{"lat":53.55347112989272,"lng":9.966048579892721},"southwest":{"lat":53.55077147010728,"lng":9.963348920107277}}},"icon":"https://maps.gstatic.com/mapfiles/place_api/icons/v1/png_71/restaurant-71.png","icon_background_color":"#FF9E67","icon_mask_base_uri":"https://maps.gstatic.com/mapfiles/place_api/icons/v2/restaurant_pinlet","name":"Restaurant HACO","opening_hours":{"open_now":false},"photos":[{"height":3024,"html_attributions":["<a href=\"https://maps.google.com/maps/contrib/116831031223137159130\">Fredrik Keerberg</a>"],"photo_reference":"AeJbb3caaEIlzKVaHNcXrB0SOP1hSWZG3uVpQnA3NQGK7JCvRdB7G-MKwgmA9dpGAg3jkEM4kvcqobOw77xWMt5tTmfveykScrs9WMdpB55RQuFW9iMbIuCEY6haw-MuE0bpXgZ2_Rf1FFsv4SWhsseVzk_x9vXGWtWZ1ZzNInsr65mpBG0E","width":4032}],"place_id":"ChIJAQBQtm2PsUcRDy0LpF2GgJQ","plus_code":{"compound_code":"HX27+RV Hamburg","global_code":"9F5FHX27+RV"},"rating":4.6,"reference":"ChIJAQBQtm2PsUcRDy0LpF2GgJQ","types":["restaurant","food","point_of_interest","establishment"],"user_ratings_total":147},{"business_status":"OPERATIONAL","formatted_address":"Maria-Louisen-Straße 3, 22301 Hamburg","geometry":{"location":{"lat":53.58429,"lng":9.996559999999999},"viewport":{"northeast":{"lat":53.58556137989272,"lng":9.997990079892721},"southwest":{"lat":53.58286172010727,"lng":9.995290420107278}}},"icon":"https://maps.gstatic.com/mapfiles/place_api/icons/v1/png_71/restaurant-71.png","icon_background_color":"#FF9E67","icon_mask_base_uri":"https://maps.gstatic.com/mapfiles/place_api/icons/v2/restaurant_pinlet","name":"Restaurant Louise","opening_hours":{"open_now":false},"photos":[{"height":2988,"html_attributions":["<a href=\"https://maps.google.com/maps/contrib/100469202531800416780\">Herbert.0 Ulonska</a>"],"photo_reference":"AeJbb3eOEoScxpmh2gAvWvNaFXFJelPuYrmb-fZJP3vzJn-WIdY5ecko4gBIPcIQK5cZXzrZ6gFLx5Pags3ZV7KzkeoIHNlmgK2P4KliCZIjdy0KP1QnPA4rnCFO8P3yJJYY8x-LRqFlLrVeJIm6IUhaEGqmM1vCQGfqILKxCllW4OKSN14L","width":5312}],"place_id":"ChIJk-3tks2IsUcRaQXZHGRttzQ","plus_code":{"compound_code":"HXMW+PJ Hamburg","global_code":"9F5FHXMW+PJ"},"price_level":3,"rating":4.6,"reference":"ChIJk-3tks2IsUcRaQXZHGRttzQ","types":["restaurant","food","point_of_interest","establishment"],"user_ratings_total":122},{"business_status":"OPERATIONAL","formatted_address":"Kleiner Schäferkamp 16, 20357 Hamburg","geometry":{"location":{"lat":53.56718739999999,"lng":9.968831},"viewport":{"northeast":{"lat":53.56851707989271,"lng":9.97017852989272},"southwest":{"lat":53.56581742010727,"lng":9.967478870107277}}},"icon":"https://maps.gstatic.com/mapfiles/place_api/icons/v1/png_71/restaurant-71.png","icon_background_color":"#FF9E67","icon_mask_base_uri":"https://maps.gstatic.com/mapfiles/place_api/icons/v2/restaurant_pinlet","name":"Williamine","opening_hours":{"open_now":false},"photos":[{"height":747,"html_attributions":["<a href=\"https://maps.google.com/maps/contrib/106601469639759060475\">A Google User</a>"],"photo_reference":"AeJbb3fOwCYPtsF8w3VCi_bBUe01nFZ45zftaJoVeg4Ra_HmU4HeQ-55PFovzHiq4xgiI3R9dPCFj5DdGKKVaiMPrmbq7SJnJyWrjJRHkQWArGZm_07Z6sT01l4uhM8Wlj8uwq18mecNVm2bm2uMrVxwec3TuJcgbu40FMWCmk96xjAdBlTt","width":1328}],"place_id":"ChIJb2iEokaPsUcRqvxwZ6bg6ts","plus_code":{"compound_code":"HX89+VH Hamburg","global_code":"9F5FHX89+VH"},"price_level":2,"rating":4.6,"reference":"ChIJb2iEokaPsUcRqvxwZ6bg6ts","types":["restaurant","food","point_of_interest","establishment"],"user_ratings_total":55},{"business_status":"OPERATIONAL","formatted_address":"Sternstraße 98, 20357 Hamburg","geometry":{"location":{"lat":53.5610516,"lng":9.9674917},"viewport":{"northeast":{"lat":53.56242477989272,"lng":9.968795929892723},"southwest":{"lat":53.55972512010727,"lng":9.966096270107279}}},"icon":"https://maps.gstatic.com/mapfiles/place_api/icons/v1/png_71/restaurant-71.png","icon_background_color":"#FF9E67","icon_mask_base_uri":"https://maps.gstatic.com/mapfiles/place_api/icons/v2/restaurant_pinlet","name":"Erika's Eck","opening_hours":{"open_now":true},"photos":[{"height":3024,"html_attributions":["<a href=\"https://maps.google.com/maps/contrib/114187917979937270134\">Jacob Matheson</a>"],"photo_reference":"AeJbb3epZkUCz_Dh7xBS7itqc06YvGP3H-d7fHzFnn5LJlk_tfPkWN2U6_AsH89307a9nBW3Cj2dmOGb4PtbEGl7NipybQoDDuk9i7yGZ_Bfm4d0czLFRe8RyWTogspa6sOcK4h0tkzVxe887lIJI0VVLAGiaHJNMrGYa9g1QRc3qppYTWGh","width":4032}],"place_id":"ChIJSzMf5kGPsUcRxTOaoFbvfeo","plus_code":{"compound_code":"HX68+CX Hamburg","global_code":"9F5FHX68+CX"},"price_level":1,"rating":4.5,"reference":"ChIJSzMf5kGPsUcRxTOaoFbvfeo","types":["restaurant","food","point_of_interest","establishment"],"user_ratings_total":2636},{"business_status":"OPERATIONAL","formatted_address":"Ernst-Merck-Straße 10, 20099 Hamburg","geometry":{"location":{"lat":53.5550746,"lng":10.0072043},"viewport":{"northeast":{"lat":53.55633682989271,"lng":10.00858702989272},"southwest":{"lat":53.55363717010727,"lng":10.00588737010728}}},"icon":"https://maps.gstatic.com/mapfiles/place_api/icons/v1/png_71/restaurant-71.png","icon_background_color":"#FF9E67","icon_mask_base_uri":"https://maps.gstatic.com/mapfiles/place_api/icons/v2/restaurant_pinlet","name":"Restaurant Herr He","opening_hours":{"open_now":false},"photos":[{"height":2048,"html_attributions":["<a href=\"https://maps.google.com/maps/contrib/118169977282144313950\">J Hu</a>"],"photo_reference":"AeJbb3dwevHYCfZGva-3QGybZiJ8tX6BLn4RMGYKHV1dFpzO_wOJAaRwFWjGPo2DrUMcTQEaNjPbiJ0SoGtLjSH9MfO6f65zn5gFdhZUyLip97ObEQY3Bm9pZhdUX_GPQe2qAumLRBjA3q7f_OUtXA0ilLw6wL91NnKIQFdvwbA_DZXt32Js","width":1536}],"place_id":"ChIJv0lw6OCOsUcRfyFtxfiVmGM","plus_code":{"compound_code":"H244+2V Hamburg","global_code":"9F5GH244+2V"},"price_level":2,"rating":4.5,"reference":"ChIJv0lw6OCOsUcRfyFtxfiVmGM","types":["restaurant","food","point_of_interest","establishment"],"user_ratings_total":960},{"business_status":"OPERATIONAL","formatted_address":"Karpfangerstraße 16, 20459 Hamburg","geometry":{"location":{"lat":53.54538849999999,"lng":9.9766433},"viewport":{"northeast":{"lat":53.54672657989272,"lng":9.977991329892722},"southwest":{"lat":53.54402692010728,"lng":9.975291670107278}}},"icon":"https://maps.gstatic.com/mapfiles/place_api/icons/v1/png_71/restaurant-71.png","icon_background_color":"#FF9E67","icon_mask_base_uri":"https://maps.gstatic.com/mapfiles/place_api/icons/v2/restaurant_pinlet","name":"Gaststätte A'Varina","opening_hours":{"open_now":false},"photos":[{"height":1836,"html_attributions":["<a href=\"https://maps.google.com/maps/contrib/118053073186090408087\">Niko Schmuck</a>"],"photo_reference":"AeJbb3cWXKtoctdqmhkI0os3bWsx8jcYTu7Hq4rfLsDSP5IFNgL4p0Qi8h9j269q54zndyU86n62Kc-za-_iwLGiTbLKKI0hOqatPkpRMbN5uytfZdMkGI_eCLyUkwb2J6f5gRDxRZfKlcO_S89nxOcgrOx2MRQ3_sC15YXkPk4UA2wE3Y2H","width":3264}],"place_id":"ChIJ-Zocjg6PsUcRpqFBFbK7nlE","plus_code":{"compound_code":"GXWG+5M Hamburg","global_code":"9F5FGXWG+5M"},"price_level":2,"rating":4.5,"reference":"ChIJ-Zocjg6PsUcRpqFBFbK7nlE","types":["restaurant","food","point_of_interest","establishment"],"user_ratings_total":702},{"business_status":"OPERATIONAL","formatted_address":"Dornbusch 4, 20095 Hamburg","geometry":{"location":{"lat":53.54911,"lng":9.99439},"viewport":{"northeast":{"lat":53.55035692989272,"lng":9.99562427989272},"southwest":{"lat":53.54765727010728,"lng":9.992924620107276}}},"icon":"https://maps.gstatic.com/mapfiles/place_api/icons/v1/png_71/restaurant-71.png","icon_background_color":"#FF9E67","icon_mask_base_uri":"https://maps.gstatic.com/mapfiles/place_api/icons/v2/restaurant_pinlet","name":"Le Plat du Jour","opening_hours":{"open_now":false},"photos":[{"height":1908,"html_attributions":["<a href=\"https://maps.google.com/maps/contrib/105511900383442778969\">Roland Petry</a>"],"photo_reference":"AeJbb3eW4UoQE4wU2L9eUd3qTJybWQR4G7l3_tFcYW1cjF85fYxeGAmpy1EbR6UqgE5ElSEzD8GKJ9m97Uq63tXln_1DLIFmsC1kGgwvXGm7EUEN_9eKFIN9GwSCZQJFi8Q3NSYd5Tn37NGkdeyPWR5mr32Z5v47EDPPDPKZxw-h0naPAmAZ","width":4032}],"place_id":"ChIJ60Qx7xyPsUcRGl1OXLENM2w","plus_code":{"compound_code":"GXXV+JQ Hamburg","global_code":"9F5FGXXV+JQ"},"price_level":2,"rating":4.5,"reference":"ChIJ60Qx7xyPsUcRGl1OXLENM2w","types":["restaurant","cafe","food","point_of_interest","establishment"],"user_ratings_total":631},{"business_status":"OPERATIONAL","formatted_address":"An d. Alster 52, 20099 Hamburg","geometry":{"location":{"lat":53.5585072,"lng":10.0077495},"viewport":{"northeast":{"lat":53.55989457989273,"lng":10.00904142989272},"southwest":{"lat":53.55719492010729,"lng":10.00634177010728}}},"icon":"https://maps.gstatic.com/mapfiles/place_api/icons/v1/png_71/restaurant-71.png","icon_background_color":"#FF9E67","icon_mask_base_uri":"https://maps.gstatic.com/mapfiles/place_api/icons/v2/restaurant_pinlet","name":"HERITAGE Hamburg","opening_hours":{"open_now":false},"photos":[{"height":4255,"html_attributions":["<a href=\"https://maps.google.com/maps/contrib/100873189482007244161\">A Google User</a>"],"photo_reference":"AeJbb3fN7s-vJiB3TYy9xQLY_BbJ3QBFZctFHXh6bm93xbhFJY5daOPmiiqONl38j2fYOkRrtA2F_AA0J_7NbldUmzp3RcXQFiXwYGzSQUOUTnNfgYX6JoED0HSsruira_0Jp3Mz88c2H41lRfagBV2XiTwFEgFWUhpqi0Oc2oWNekF71fXe","width":6383}],"place_id":"ChIJa6xt2ySPsUcREWy9jeTKL30","plus_code":{"compound_code":"H255+C3 Hamburg","global_code":"9F5GH255+C3"},"rating":4.5,"reference":"ChIJa6xt2ySPsUcREWy9jeTKL30","types":["restaurant","food","point_of_interest","establishment"],"user_ratings_total":524},{"business_status":"OPERATIONAL","formatted_address":"Lange Reihe 68, Greifswalder Str. 43, 20099 Hamburg","geometry":{"location":{"lat":53.5575752,"lng":10.0117122},"viewport":{"northeast":{"lat":53.55892802989272,"lng":10.01292037989272},"southwest":{"lat":53.55622837010727,"lng":10.01022072010728}}},"icon":"https://maps.gstatic.com/mapfiles/place_api/icons/v1/png_71/restaurant-71.png","icon_background_color":"#FF9E67","icon_mask_base_uri":"https://maps.gstatic.com/mapfiles/place_api/icons/v2/restaurant_pinlet","name":"Restaurant Cox","opening_hours":{"open_now":false},"photos":[{"height":3024,"html_attributions":["<a href=\"https://maps.google.com/maps/contrib/116363277899260070754\">Alexander Palm</a>"],"photo_reference":"AeJbb3e5cNqmPWB6d0hHKdE5FcRIh1PPeT5Ezz6GOgoMyywwKb1dvRvVhnvCDG0gLAALl0KtkV1WHqNF2l1R9Drm8C9gG87Ydx07JH3A_brNLj1puuIdMRLuTq7sLAfN4EvSDys3I3lnb-0lxWA3KEf1cMKykNyoErlpUzz4WKhgbp_LYwwf","width":4032}],"place_id":"ChIJ_xdJkt2OsUcR5tJAWzP4y64","plus_code":{"compound_code":"H256+2M Hamburg","global_code":"9F5GH256+2M"},"price_level":3,"rating":4.5,"reference":"ChIJ_xdJkt2OsUcR5tJAWzP4y64","types":["restaurant","food","point_of_interest","establishment"],"user_ratings_total":440},{"business_status":"OPERATIONAL","formatted_address":"Hütten 85-86, 20355 Hamburg","geometry":{"location":{"lat":53.5504316,"lng":9.9755456},"viewport":{"northeast":{"lat":53.55179632989272,"lng":9.97684972989272},"southwest":{"lat":53.54909667010728,"lng":9.974150070107276}}},"icon":"https://maps.gstatic.com/mapfiles/place_api/icons/v1/png_71/restaurant-71.png","icon_background_color":"#FF9E67","icon_mask_base_uri":"https://maps.gstatic.com/mapfiles/place_api/icons/v2/restaurant_pinlet","name":"Petit Bonheur","opening_hours":{"open_now":false},"photos":[{"height":3024,"html_attributions":["<a href=\"https://maps.google.com/maps/contrib/116268214307990322063\">A Google User</a>"],"photo_reference":"AeJbb3eJTpF8PDLKTLhBUr5c6JB9W4zupcRnyR4rfdCHe1Kb-5Wvtvs509NFSLDqopp-w0lmu6c0-GxjH606cOf51NhQWwnvp98UdtLVKuB8X50YQh_2A8sq8Tvd_mIb7u8cauw7uJarfXTc5FN-FywGV9Uz2tAZEDIUR43MyTd-IFxscCPY","width":4032}],"place_id":"ChIJ8XZaPhKPsUcRshm_NBc9rVs","plus_code":{"compound_code":"HX2G+56 Hamburg","global_code":"9F5FHX2G+56"},"price_level":3,"rating":4.5,"reference":"ChIJ8XZaPhKPsUcRshm_NBc9rVs","types":["restaurant","food","point_of_interest","establishment"],"user_ratings_total":361},{"business_status":"OPERATIONAL","formatted_address":"Schützenstraße 9A, 22761 Hamburg","geometry":{"location":{"lat":53.5609821,"lng":9.9273425},"viewport":{"northeast":{"lat":53.56242317989272,"lng":9.92879412989272},"southwest":{"lat":53.55972352010727,"lng":9.926094470107277}}},"icon":"https://maps.gstatic.com/mapfiles/place_api/icons/v1/png_71/restaurant-71.png","icon_background_color":"#FF9E67","icon_mask_base_uri":"https://maps.gstatic.com/mapfiles/place_api/icons/v2/restaurant_pinlet","name":"ATLAS Restaurant & Kochsalon","opening_hours":{"open_now":true},"photos":[{"height":968,"html_attributions":["<a href=\"https://maps.google.com/maps/contrib/110323818004401527678\">Atlas Restaurant</a>"],"photo_reference":"AeJbb3eranNFzu1g0kyzfvkE-So5hf19hE8IvvAYxGlXOMGTlJYFEjBMCMMDrij-okQSkq_cBcq5Apdw4r0fTro-NFLHo2bJyL9L6xFLIVzaUwsacgFOD_p1eX8srFeip8aKLD9luD4cQ1StpxBxCg-6QXTjUTO686YoBpTVHQp7Hk79a8sB","width":1296}],"place_id":"ChIJy70UeJKFsUcR1KUV-ysQVS4","plus_code":{"compound_code":"HW6G+9W Hamburg","global_code":"9F5FHW6G+9W"},"price_level":2,"rating":4.5,"reference":"ChIJy70UeJKFsUcR1KUV-ysQVS4","types":["restaurant","food","point_of_interest","establishment"],"user_ratings_total":344},{"business_status":"OPERATIONAL","formatted_address":"Valentinskamp 18, 20354 Hamburg","geometry":{"location":{"lat":53.5555083,"lng":9.986125699999999},"viewport":{"northeast":{"lat":53.55693772989272,"lng":9.987521779892722},"southwest":{"lat":53.55423807010727,"lng":9.984822120107278}}},"icon":"https://maps.gstatic.com/mapfiles/place_api/icons/v1/png_71/restaurant-71.png","icon_background_color":"#FF9E67","icon_mask_base_uri":"https://maps.gstatic.com/mapfiles/place_api/icons/v2/restaurant_pinlet","name":"Hokkai Sushi","opening_hours":{"open_now":true},"photos":[{"height":758,"html_attributions":["<a href=\"https://maps.google.com/maps/contrib/105036408913271010725\">A Google User</a>"],"photo_reference":"AeJbb3c9P-nVDDVGU1_jpr3x0xltPzNjC3vmv0wF_iXKwVH-SiPK_ephtFkg8Mxh-jLG3-Udd3p_ii1DDZA4ErhJ6Q4brIkq9FjZe-KxRg5h5akuMNrR_WTGU1IkTx7SO1Gn3-hcCAy6L8ATHTADAj19k6sx0AN4LJW2tMxvqz5IGYMVTWoc","width":1599}],"place_id":"ChIJBQxIYxePsUcRjYi3oSQjEag","plus_code":{"compound_code":"HX4P+6F Hamburg","global_code":"9F5FHX4P+6F"},"price_level":2,"rating":4.5,"reference":"ChIJBQxIYxePsUcRjYi3oSQjEag","types":["meal_takeaway","restaurant","food","point_of_interest","establishment"],"user_ratings_total":284},{"business_status":"OPERATIONAL","formatted_address":"Rödingsmarkt 2, 20459 Hamburg","geometry":{"location":{"lat":53.54832829999999,"lng":9.9863956},"viewport":{"northeast":{"lat":53.54947607989271,"lng":9.98759122989272},"southwest":{"lat":53.54677642010727,"lng":9.984891570107276}}},"icon":"https://maps.gstatic.com/mapfiles/place_api/icons/v1/png_71/restaurant-71.png","icon_background_color":"#FF9E67","icon_mask_base_uri":"https://maps.gstatic.com/mapfiles/place_api/icons/v2/restaurant_pinlet","name":"THE DINING RooM","opening_hours":{"open_now":true},"photos":[{"height":4032,"html_attributions":["<a href=\"https://maps.google.com/maps/contrib/105641687870741729211\">Yuliya Marnat</a>"],"photo_reference":"AeJbb3cIiNbgo9F-P5mKAk_tbUeLGtRrnREMi9wpsDBqfpuRBgri5ABfx3ZdMpa6-pOgqrfoioSFrMqNYZyLMDti0vKMS2yQs0cKeGHYW7faW9G0ZVwHpWWih5RjxgKP_nR2S45TwEbWbkkKNLekRIqNfHbF0rOaJGDeN_xpthAPjr-iZphf","width":3024}],"place_id":"ChIJFaTueiuPsUcRYQWepMMDrB8","plus_code":{"compound_code":"GXXP+8H Hamburg","global_code":"9F5FGXXP+8H"},"rating":4.5,"reference":"ChIJFaTueiuPsUcRYQWepMMDrB8","types":["restaurant","bar","food","point_of_interest","establishment"],"user_ratings_total":239},{"business_status":"OPERATIONAL","formatted_address":"Neuer Jungfernstieg 9 -14, 20354 Hamburg","geometry":{"location":{"lat":53.5555864,"lng":9.9915956},"viewport":{"northeast":{"lat":53.55692167989272,"lng":9.993019429892723},"southwest":{"lat":53.55422202010728,"lng":9.990319770107277}}},"icon":"https://maps.gstatic.com/mapfiles/place_api/icons/v1/png_71/restaurant-71.png","icon_background_color":"#FF9E67","icon_mask_base_uri":"https://maps.gstatic.com/mapfiles/place_api/icons/v2/restaurant_pinlet","name":"Jahreszeiten Grill","opening_hours":{"open_now":false},"photos":[{"height":1080,"html_attributions":["<a href=\"https://maps.google.com/maps/contrib/110385593453265591220\">Jahreszeiten Grill</a>"],"photo_reference":"AeJbb3ezzjNDKVYc65vTxjlnV61cFzZFOKibJ4TBqE-N1lzXHXZRxdihTJeoGnSuaZX7GOgEF8LutLd-iDwU89LRT7uRShDDMuD9lk_6Kvxm0BnC5iG2o9GAtmXnefFOh3uhKShWwxXZtlxlUYmSZz99CA_k5UqIBAs1rWEKoE7CPZ_dgJTY","width":1619}],"place_id":"ChIJXetoHRmPsUcRuiSuCPkoZhI","plus_code":{"compound_code":"HX4R+6J Hamburg","global_code":"9F5FHX4R+6J"},"price_level":4,"rating":4.5,"reference":"ChIJXetoHRmPsUcRuiSuCPkoZhI","types":["restaurant","food","point_of_interest","establishment"],"user_ratings_total":62},{"business_status":"OPERATIONAL","formatted_address":"Gerhofstraße 18, 20354 Hamburg","geometry":{"location":{"lat":53.5543914,"lng":9.9894354},"viewport":{"northeast":{"lat":53.55550772989272,"lng":9.990668129892724},"southwest":{"lat":53.55280807010728,"lng":9.98796847010728}}},"icon":"https://maps.gstatic.com/mapfiles/place_api/icons/v1/png_71/restaurant-71.png","icon_background_color":"#FF9E67","icon_mask_base_uri":"https://maps.gstatic.com/mapfiles/place_api/icons/v2/restaurant_pinlet","name":"Eat","opening_hours":{"open_now":true},"photos":[{"height":720,"html_attributions":["<a href=\"https://maps.google.com/maps/contrib/110764195197476000976\">Mika Lobix</a>"],"photo_reference":"AeJbb3c7_OMFssKNwcbztF6djTYEROCGfjyPuJFunVRfaj4mlVxjYlTZhkHZ62wCU46MlmZ9z4iTOgPigF5HEnYHrPEv6vg7ilEr4lMIWJiTuvHuKMRcy28aXmnyMXALdoRNKXKgUgxQLPvjzf0EoJEbmZfs1tce9As090wGkDQM_pONYv5N","width":1280}],"place_id":"ChIJbaTwnhmPsUcRkGtm6gb52Ec","plus_code":{"compound_code":"HX3Q+QQ Hamburg","global_code":"9F5FHX3Q+QQ"},"price_level":1,"rating":4.4,"reference":"ChIJbaTwnhmPsUcRkGtm6gb52Ec","types":["restaurant","food","point_of_interest","establishment"],"user_ratings_total":779},{"business_status":"OPERATIONAL","formatted_address":"Am Sandtorkai 23-24, 20457 Hamburg","geometry":{"location":{"lat":53.5435318,"lng":9.9930025},"viewport":{"northeast":{"lat":53.54477777989273,"lng":9.99438047989272},"southwest":{"lat":53.54207812010728,"lng":9.991680820107277}}},"icon":"https://maps.gstatic.com/mapfiles/place_api/icons/v1/png_71/restaurant-71.png","icon_background_color":"#FF9E67","icon_mask_base_uri":"https://maps.gstatic.com/mapfiles/place_api/icons/v2/restaurant_pinlet","name":"VLET in der Speicherstadt","opening_hours":{"open_now":false},"photos":[{"height":1080,"html_attributions":["<a href=\"https://maps.google.com/maps/contrib/115973690373827149180\">A Google User</a>"],"photo_reference":"AeJbb3dglY3Pk0-5mm0YnGCg5cTUOrNw94flfPhpTP6_zj2A8ckqNaLgVJjedY5E48Xd6xMFp4p0eBZaqVIn0jOn2HkfZ9mrgWZyRRnR8D5lI7bW4BGjVFIr2PakPVfUJTyz65rul2jHevGQ_WxXPC56cgRNpZmy1EqepGl25kNR4aGhpWkE","width":1920}],"place_id":"ChIJv6umtQOPsUcR8iAvQvi6iGk","plus_code":{"compound_code":"GXVV+C6 Hamburg","global_code":"9F5FGXVV+C6"},"rating":4.4,"reference":"ChIJv6umtQOPsUcR8iAvQvi6iGk","types":["restaurant","food","point_of_interest","establishment"],"user_ratings_total":598},{"business_status":"OPERATIONAL","formatted_address":"ABC-Straße 44-46, 20354 Hamburg","geometry":{"location":{"lat":53.5542428,"lng":9.9854887},"viewport":{"northeast":{"lat":53.55588982989272,"lng":9.987274379892721},"southwest":{"lat":53.55319017010727,"lng":9.984574720107277}}},"icon":"https://maps.gstatic.com/mapfiles/place_api/icons/v1/png_71/restaurant-71.png","icon_background_color":"#FF9E67","icon_mask_base_uri":"https://maps.gstatic.com/mapfiles/place_api/icons/v2/restaurant_pinlet","name":"Casse Croute","opening_hours":{"open_now":false},"photos":[{"height":1363,"html_attributions":["<a href=\"https://maps.google.com/maps/contrib/113407834386008165510\">Casse-Croute</a>"],"photo_reference":"AeJbb3dIe64cuiAreaB_3VT8zFVshn6iUiVWmW1_mPGcEKWbheCidC6Sq0HovFm7giY2_QfsethGrC8DCghL0W8cIVxy1dzgXVr9mkFyvh-8FPjV-f0SebQ0AOp5C3TpMYKjiudoLdvr1gsnInKobq7kOtpgoDGKtnTTyRVX0XOspy2a9Pl1","width":2048}],"place_id":"ChIJT4e2sRmPsUcRcQsAVbxaeQE","plus_code":{"compound_code":"HX3P+M5 Hamburg","global_code":"9F5FHX3P+M5"},"price_level":3,"rating":4.4,"reference":"ChIJT4e2sRmPsUcRcQsAVbxaeQE","types":["restaurant","food","point_of_interest","establishment"],"user_ratings_total":259},{"business_status":"OPERATIONAL","formatted_address":"Schanzenstraße 2-4, 20357 Hamburg","geometry":{"location":{"lat":53.5593901,"lng":9.964526099999999},"viewport":{"northeast":{"lat":53.56077292989272,"lng":9.965803229892721},"southwest":{"lat":53.55807327010728,"lng":9.963103570107277}}},"icon":"https://maps.gstatic.com/mapfiles/place_api/icons/v1/png_71/restaurant-71.png","icon_background_color":"#FF9E67","icon_mask_base_uri":"https://maps.gstatic.com/mapfiles/place_api/icons/v2/restaurant_pinlet","name":"Hatari Pfälzer Stube","opening_hours":{"open_now":false},"photos":[{"height":1080,"html_attributions":["<a href=\"https://maps.google.com/maps/contrib/116712050117559885313\">Mario Chavarría</a>"],"photo_reference":"AeJbb3eROBx5xd7DrqexchNgih7Q0eP4IYqwMg38PLocEw4jlddUkzHNjsyxTHD-LwgUrIt5GyqmreKifccwYoNE18DQEKHoO4tuzgeKAe2o6x_Z1hixe8_eGKmyL67CG5-uwVEQtLj71MnfnRMaW8usMDVJrzLoUY-fQldIKBvKhQ__x0Dl","width":1920}],"place_id":"ChIJsbba7mmPsUcROT0R6RG4oeQ","plus_code":{"compound_code":"HX57+QR Hamburg","global_code":"9F5FHX57+QR"},"price_level":2,"rating":4.3,"reference":"ChIJsbba7mmPsUcROT0R6RG4oeQ","types":["restaurant","food","point_of_interest","establishment"],"user_ratings_total":1189},{"business_status":"OPERATIONAL","formatted_address":"Simon-von-Utrecht-Straße 31, 20359 Hamburg","geometry":{"location":{"lat":53.5511865,"lng":9.9658716},"viewport":{"northeast":{"lat":53.55246857989272,"lng":9.96729232989272},"southwest":{"lat":53.54976892010728,"lng":9.964592670107276}}},"icon":"https://maps.gstatic.com/mapfiles/place_api/icons/v1/png_71/restaurant-71.png","icon_background_color":"#FF9E67","icon_mask_base_uri":"https://maps.gstatic.com/mapfiles/place_api/icons/v2/restaurant_pinlet","name":"east Restaurant","opening_hours":{"open_now":false},"photos":[{"height":1437,"html_attributions":["<a href=\"https://maps.google.com/maps/contrib/116232906516608328761\">A Google User</a>"],"photo_reference":"AeJbb3fFN-HpMMkDcK6VhKOWmw9LbHPz9D1LR1PeEyAjLadiGIZu4Zeakht_QpjMPdNsp0CpvBGLEVL6ZF6R9bnJdKdgjzuShN8BcD9prPo0tgqhPGubUbwh_Z49yrCwOupPZfzoPyvuibZkAoHGIYSMx1emEJ1oQ3tm-CbsMQK_ryEvLe_G","width":2560}],"place_id":"ChIJ0fCwoW2PsUcRDftLG4WA6lI","plus_code":{"compound_code":"HX28+F8 Hamburg","global_code":"9F5FHX28+F8"},"price_level":3,"rating":4.3,"reference":"ChIJ0fCwoW2PsUcRDftLG4WA6lI","types":["bar","restaurant","food","point_of_interest","establishment"],"user_ratings_total":701},{"business_status":"OPERATIONAL","formatted_address":"Isekai 12, 20249 Hamburg","geometry":{"location":{"lat":53.58535920000001,"lng":9.992659200000002},"viewport":{"northeast":{"lat":53.58684037989272,"lng":9.993989479892724},"southwest":{"lat":53.58414072010728,"lng":9.99128982010728}}},"icon":"https://maps.gstatic.com/mapfiles/place_api/icons/v1/png_71/restaurant-71.png","icon_background_color":"#FF9E67","icon_mask_base_uri":"https://maps.gstatic.com/mapfiles/place_api/icons/v2/restaurant_pinlet","name":"Speisekai","opening_hours":{"open_now":false},"photos":[{"height":2136,"html_attributions":["<a href=\"https://maps.google.com/maps/contrib/112479063215665550162\">Speisekai</a>"],"photo_reference":"AeJbb3c77WM1iKN1-RFvlIZuhtpyZChcZXAIN9ZsvmigCw1ysqhl26ikjmdUu3PKuWOIbKtduThHoQtjgCN2aS5q6XoYaQdofiXg4r_svVpSlBkUZUTljoGFUddcClxT7E1AiTPjxPZ-ex-tKvQLUQOXYz4g2XXcnu2kYn89TCzqWKMJlNxa","width":3200}],"place_id":"ChIJxblLKcyIsUcRiRhOewmTuRs","plus_code":{"compound_code":"HXPV+43 Hamburg","global_code":"9F5FHXPV+43"},"rating":4.3,"reference":"ChIJxblLKcyIsUcRiRhOewmTuRs","types":["restaurant","food","point_of_interest","establishment"],"user_ratings_total":132},{"business_status":"OPERATIONAL","formatted_address":"Steinhöft 11, 20459 Hamburg","geometry":{"location":{"lat":53.5447522,"lng":9.9827243},"viewport":{"northeast":{"lat":53.54598212989272,"lng":9.983992979892722},"southwest":{"lat":53.54328247010728,"lng":9.981293320107278}}},"icon":"https://maps.gstatic.com/mapfiles/place_api/icons/v1/png_71/restaurant-71.png","icon_background_color":"#FF9E67","icon_mask_base_uri":"https://maps.gstatic.com/mapfiles/place_api/icons/v2/restaurant_pinlet","name":"Del Sur","opening_hours":{"open_now":false},"photos":[{"height":3024,"html_attributions":["<a href=\"https://maps.google.com/maps/contrib/111673853135030443991\">Dirk Schwarze</a>"],"photo_reference":"AeJbb3eR4nvwEDfjl4jTpIkF2zh3DZbyWuQt2t0XX-Zy-eDf3fPoA3esUw5BialHvO5PEazSvutkdmYmT4SDydExQWzuXfpZWPYpwUbwRoT9RngGVvw8bRPVukzatcpvAOZFWrcVM1UCYsLYEF6E2TxO5InFVrC39RWq5XZsIL3xZkgBJyE","width":4032}],"place_id":"ChIJeW3jiAWPsUcR6E9fb-_rN44","plus_code":{"compound_code":"GXVM+W3 Hamburg","global_code":"9F5FGXVM+W3"},"price_level":2,"rating":4.3,"reference":"ChIJeW3jiAWPsUcR6E9fb-_rN44","types":["restaurant","food","point_of_interest","establishment"],"user_ratings_total":131},{"business_status":"OPERATIONAL","formatted_address":"Am Sandtorkai 77, 20457 Hamburg","geometry":{"location":{"lat":53.5422095,"lng":9.98216},"viewport":{"northeast":{"lat":53.54369607989271,"lng":9.984008679892721},"southwest":{"lat":53.54099642010727,"lng":9.981309020107277}}},"icon":"https://maps.gstatic.com/mapfiles/place_api/icons/v1/png_71/restaurant-71.png","icon_background_color":"#FF9E67","icon_mask_base_uri":"https://maps.gstatic.com/mapfiles/place_api/icons/v2/restaurant_pinlet","name":"Stricker's Kehr Wieder Spitze","opening_hours":{"open_now":false},"photos":[{"height":1923,"html_attributions":["<a href=\"https://maps.google.com/maps/contrib/106578968384773533706\">Stricker&#39;s Kehr Wieder Spitze</a>"],"photo_reference":"AeJbb3cXm11tQWOLC8D1EAWXBWZZB3ybiVZTD4hLeHQBkSCEvXk_Vcv9KAAWA-R6NCBobh8BZ2kkkhKYLC1rEoSZZSbDLzOUh2j6zU16KSeiHfH7oQIKkd9Y9_-8hc4SLezP6XUJh-AJZH2dWOYlueA-nIrXipEguAhyqw0ElfH2HSBLb9Iy","width":1923}],"place_id":"ChIJdScjBQaPsUcRq-_RhoSx-3w","plus_code":{"compound_code":"GXRJ+VV Hamburg","global_code":"9F5FGXRJ+VV"},"price_level":2,"rating":4.2,"reference":"ChIJdScjBQaPsUcRq-_RhoSx-3w","types":["restaurant","food","point_of_interest","establishment"],"user_ratings_total":519},{"business_status":"OPERATIONAL","formatted_address":"Koreastraße 2, 20457 Hamburg","geometry":{"location":{"lat":53.5430696,"lng":10.0007186},"viewport":{"northeast":{"lat":53.54448282989273,"lng":10.00193287989272},"southwest":{"lat":53.54178317010729,"lng":9.999233220107277}}},"icon":"https://maps.gstatic.com/mapfiles/place_api/icons/v1/png_71/restaurant-71.png","icon_background_color":"#FF9E67","icon_mask_base_uri":"https://maps.gstatic.com/mapfiles/place_api/icons/v2/restaurant_pinlet","name":"STRAUCHS FALCO","opening_hours":{"open_now":false},"photos":[{"height":832,"html_attributions":["<a href=\"https://maps.google.com/maps/contrib/116918143454181172995\">Strauchs Falco</a>"],"photo_reference":"AeJbb3fKvO77yPj8-VzHuod42sRg877qPSbUVyf4gfm0C0wjbBHYh0kQaSZNlFkbr0cu64ubxw_knIK7zGZ6a6_CekX2wLNYPT04WJwu9w5O1NW0WafLXwf-2XQRxcQo3-FDAXSoEM57R10qXyvHy__SCLthsWh1-ySbWZzqiuvrwIsggPp2","width":1250}],"place_id":"ChIJMcPGMfyOsUcRuLwSlg5CdXs","plus_code":{"compound_code":"G2V2+67 Hamburg","global_code":"9F5GG2V2+67"},"price_level":3,"rating":4.2,"reference":"ChIJMcPGMfyOsUcRuLwSlg5CdXs","types":["restaurant","food","point_of_interest","establishment"],"user_ratings_total":376},{"business_status":"OPERATIONAL","formatted_address":"Steindamm 58, 20099 Hamburg","geometry":{"location":{"lat":53.55425589999999,"lng":10.0143626},"viewport":{"northeast":{"lat":53.55556817989272,"lng":10.01545282989272},"southwest":{"lat":53.55286852010727,"lng":10.01275317010728}}},"icon":"https://maps.gstatic.com/mapfiles/place_api/icons/v1/png_71/restaurant-71.png","icon_background_color":"#FF9E67","icon_mask_base_uri":"https://maps.gstatic.com/mapfiles/place_api/icons/v2/restaurant_pinlet","name":"L'Amira Steindamm","opening_hours":{"open_now":true},"photos":[{"height":3024,"html_attributions":["<a href=\"https://maps.google.com/maps/contrib/105441616497127331512\">Abdullah Hawara</a>"],"photo_reference":"AeJbb3fh-g1jW01RSB74V7G-Pfogv8OexyNJ17V3Ybtldp5rrNbTj8dhXwCu2ElPmpilQ7KYil_YZQz9c-3UEUGkDnSsrAXZ1nOfZiqpuEorqOIO8Xt_MrK0hevQy30cMXujrgAwMjFFortauL5ZdjmdSFx1E36tWyWHniA9kxginoHbIUVF","width":4032}],"place_id":"ChIJf_TjyeeOsUcRZkuuYU8Hbdc","plus_code":{"compound_code":"H237+PP Hamburg","global_code":"9F5GH237+PP"},"price_level":1,"rating":4.1,"reference":"ChIJf_TjyeeOsUcRZkuuYU8Hbdc","types":["restaurant","food","point_of_interest","establishment"],"user_ratings_total":1985},{"business_status":"OPERATIONAL","formatted_address":"Harvestehuder Weg 44, 20149 Hamburg","geometry":{"location":{"lat":53.57825,"lng":9.99891},"viewport":{"northeast":{"lat":53.57945782989272,"lng":10.00016327989272},"southwest":{"lat":53.57675817010727,"lng":9.997463620107279}}},"icon":"https://maps.gstatic.com/mapfiles/place_api/icons/v1/png_71/generic_business-71.png","icon_background_color":"#7B9EB0","icon_mask_base_uri":"https://maps.gstatic.com/mapfiles/place_api/icons/v2/generic_pinlet","name":"Gastronomie Pütter im Anglo-German Club e.K.","opening_hours":{"open_now":true},"photos":[{"height":567,"html_attributions":["<a href=\"https://maps.google.com/maps/contrib/109572023846234020893\">Gastronomie Pütter im Anglo-German Club</a>"],"photo_reference":"AeJbb3fjapHz2OWo2IZ3G0exmfoCSnNvnvXEBWb7EsoRlxQ9aUoWCNPynazr6OqKpnqmefhOHlHkReFVntMfSfhr4pQJ_vj8rtrYcx7w2MdlR3mDYc6lP8t8WsjhEIqRxrr8CHW2Pmqj-6VlK0sk9vu0OITpQupv0uXakQa0f0ebUMh-cKFh","width":850}],"place_id":"ChIJHxaK4CyPsUcRzpc1NV6fBfM","plus_code":{"compound_code":"HXHX+7H Hamburg","global_code":"9F5FHXHX+7H"},"rating":4.1,"reference":"ChIJHxaK4CyPsUcRzpc1NV6fBfM","types":["liquor_store","restaurant","food","point_of_interest","store","establishment"],"user_ratings_total":7},{"business_status":"OPERATIONAL","formatted_address":"Alsterdorfer Markt 14, 22297 Hamburg","geometry":{"location":{"lat":53.6128817,"lng":10.0246053},"viewport":{"northeast":{"lat":53.61439767989272,"lng":10.02593447989272},"southwest":{"lat":53.61169802010728,"lng":10.02323482010728}}},"icon":"https://maps.gstatic.com/mapfiles/place_api/icons/v1/png_71/restaurant-71.png","icon_background_color":"#FF9E67","icon_mask_base_uri":"https://maps.gstatic.com/mapfiles/place_api/icons/v2/restaurant_pinlet","name":"Restaurant Kesselhaus","opening_hours":{"open_now":true},"photos":[{"height":3000,"html_attributions":["<a href=\"https://maps.google.com/maps/contrib/110320749049189162498\">Sebastian Jabbusch</a>"],"photo_reference":"AeJbb3d0V--dwUTm_F1obyRba0-JudHWMyviZTlLO6m9khJeiggMmxTvO5LFRbVKi-1D0A7sclFDr0i8ulaAx7_Mav3gVobG6lKqZC45xKZCqYKtnJLj8rUhlpmLmVX4ZNDNCNUO3aSHjqIu7YLyY9R3dp_EhTLByNq-LCbobKx63J8z6bUK","width":5333}],"place_id":"ChIJOzKDiQKJsUcRlf2paMuEVd0","plus_code":{"compound_code":"J27F+5R Hamburg","global_code":"9F5GJ27F+5R"},"price_level":2,"rating":4,"reference":"ChIJOzKDiQKJsUcRlf2paMuEVd0","types":["restaurant","food","point_of_interest","establishment"],"user_ratings_total":257},{"business_status":"OPERATIONAL","formatted_address":"Horner Landstraße 148, 22111 Hamburg","geometry":{"location":{"lat":53.55022,"lng":10.078},"viewport":{"northeast":{"lat":53.55160072989272,"lng":10.07944142989272},"southwest":{"lat":53.54890107010728,"lng":10.07674177010728}}},"icon":"https://maps.gstatic.com/mapfiles/place_api/icons/v1/png_71/restaurant-71.png","icon_background_color":"#FF9E67","icon_mask_base_uri":"https://maps.gstatic.com/mapfiles/place_api/icons/v2/restaurant_pinlet","name":"AdaDöner","opening_hours":{"open_now":true},"photos":[{"height":2268,"html_attributions":["<a href=\"https://maps.google.com/maps/contrib/103707564137435321492\">Nico Bärenfänger</a>"],"photo_reference":"AeJbb3fNbkoTEVIZH1QN8bIgvgbGmF2S3EpEHJf1_PQfwlBlHxLrmsGDNgvouPT93vtZ1wy1ogeLGJFL2OSghP2Z27hOGbmzZ_aWaqv9TYpZ82uAi8SnbSBoSJ7du56FFZVX05K7jUFLOsgFLKb3bH5DpcYckQnZJ-ElXlUD0av3_EB9HAbc","width":4032}],"place_id":"ChIJN6_bcT2MsUcRKASKuTQBSQY","plus_code":{"compound_code":"H32H+36 Hamburg","global_code":"9F5GH32H+36"},"price_level":1,"rating":4,"reference":"ChIJN6_bcT2MsUcRKASKuTQBSQY","types":["restaurant","food","point_of_interest","establishment"],"user_ratings_total":153},{"business_status":"OPERATIONAL","formatted_address":"Pezolddamm 1, 22175 Hamburg","geometry":{"location":{"lat":53.62029399999999,"lng":10.0975912},"viewport":{"northeast":{"lat":53.62161707989272,"lng":10.09902552989272},"southwest":{"lat":53.61891742010728,"lng":10.09632587010728}}},"icon":"https://maps.gstatic.com/mapfiles/place_api/icons/v1/png_71/restaurant-71.png","icon_background_color":"#FF9E67","icon_mask_base_uri":"https://maps.gstatic.com/mapfiles/place_api/icons/v2/restaurant_pinlet","name":"Ristorante Pane E Vino","opening_hours":{"open_now":false},"photos":[{"height":2448,"html_attributions":["<a href=\"https://maps.google.com/maps/contrib/108477834871593689641\">Jens Hans-R.</a>"],"photo_reference":"AeJbb3e2uUOCgFUWbjw1MUuh05ljRe-6-xpgMlNFWUt8yme1ttoMXmK2_FDguYYXGXqEAcbkrL3i2IHZp0kyS7AvMaEf2_t3MJZzrICQHrBV0ZY4MvQA938omLiv3Bgb81R5sGif4Gdp5nKusSHsax1h-mJ3uzuvCPrVkpQfCMl5-vNEaVI","width":3264}],"place_id":"ChIJFy6G0y2KsUcRG3T5blfNY1M","plus_code":{"compound_code":"J3CX+42 Hamburg","global_code":"9F5GJ3CX+42"},"price_level":2,"rating":4,"reference":"ChIJFy6G0y2KsUcRG3T5blfNY1M","types":["restaurant","food","point_of_interest","establishment"],"user_ratings_total":141},{"business_status":"OPERATIONAL","formatted_address":"Ekenknick 5, 22523 Hamburg","geometry":{"location":{"lat":53.6076805,"lng":9.902570899999999},"viewport":{"northeast":{"lat":53.60902072989272,"lng":9.90392062989272},"southwest":{"lat":53.60632107010728,"lng":9.901220970107277}}},"icon":"https://maps.gstatic.com/mapfiles/place_api/icons/v1/png_71/cafe-71.png","icon_background_color":"#FF9E67","icon_mask_base_uri":"https://maps.gstatic.com/mapfiles/place_api/icons/v2/cafe_pinlet","name":"Rüya Grill","opening_hours":{"open_now":true},"photos":[{"height":6936,"html_attributions":["<a href=\"https://maps.google.com/maps/contrib/106761932697528441229\">Bernd Laudi</a>"],"photo_reference":"AeJbb3cpAnuoCN3BVuCa1puq8EaS9diKM0XucJoKr4VBRera8YVcxIUa1HvUnwUZQ0yY1kbON74ROxIcErbP3ifsTpFNwqqvMyYFdO1o8mp9T6YKQ70lS9D2Wke3KeZ3vlWRXUCIFYGqk29KXKuW5zyiEU3k_eXcUrgKCRXyIhIJSbMkgUiG","width":9248}],"place_id":"ChIJpbu8RWCGsUcRPKGKHjBya6I","plus_code":{"compound_code":"JW53+32 Hamburg","global_code":"9F5FJW53+32"},"price_level":1,"rating":3.7,"reference":"ChIJpbu8RWCGsUcRPKGKHjBya6I","types":["cafe","meal_takeaway","restaurant","food","point_of_interest","establishment"],"user_ratings_total":74},{"business_status":"OPERATIONAL","formatted_address":"Wellingsbütteler Landstraße 1, 22337 Hamburg","geometry":{"location":{"lat":53.62614259999999,"lng":10.0305913},"viewport":{"northeast":{"lat":53.62744272989272,"lng":10.03193032989272},"southwest":{"lat":53.62474307010728,"lng":10.02923067010728}}},"icon":"https://maps.gstatic.com/mapfiles/place_api/icons/v1/png_71/restaurant-71.png","icon_background_color":"#FF9E67","icon_mask_base_uri":"https://maps.gstatic.com/mapfiles/place_api/icons/v2/restaurant_pinlet","name":"Thai-China Wok","opening_hours":{"open_now":true},"photos":[{"height":768,"html_attributions":["<a href=\"https://maps.google.com/maps/contrib/102188974670030021433\">Sergej Root</a>"],"photo_reference":"AeJbb3d2x16S59TLBA5yq9A0MHsSzZ7DjWY4O2mqarTIzjL1GknzGarw1xSiek_Hpwp8s-HcQqpByuM3wzHsR1pMf1gyOnmClrv5RPMkCapvpg_DBPm7pte9la8SP0tn5wI7YyvaxfDV8EsUImr-NctEYY75wGbwQt37oUH8UBxjXTzy1pmN","width":1024}],"place_id":"ChIJV6DP9r6JsUcRFWYN9IsEmZ4","plus_code":{"compound_code":"J2GJ+F6 Hamburg","global_code":"9F5GJ2GJ+F6"},"price_level":1,"rating":2.8,"reference":"ChIJV6DP9r6JsUcRFWYN9IsEmZ4","types":["restaurant","food","point_of_interest","establishment"],"user_ratings_total":214},{"business_status":"OPERATIONAL","formatted_address":"Schröderstiftstraße 3, 20146 Hamburg","geometry":{"location":{"lat":53.56466349999999,"lng":9.9773617},"viewport":{"northeast":{"lat":53.56593137989272,"lng":9.978636479892721},"southwest":{"lat":53.56323172010728,"lng":9.975936820107277}}},"icon":"https://maps.gstatic.com/mapfiles/place_api/icons/v1/png_71/restaurant-71.png","icon_background_color":"#FF9E67","icon_mask_base_uri":"https://maps.gstatic.com/mapfiles/place_api/icons/v2/restaurant_pinlet","name":"RESTAURANT","opening_hours":{"open_now":true},"place_id":"ChIJh7ykMD-PsUcRsk0Zh37iLmE","plus_code":{"compound_code":"HX7G+VV Hamburg","global_code":"9F5FHX7G+VV"},"rating":0,"reference":"ChIJh7ykMD-PsUcRsk0Zh37iLmE","types":["restaurant","food","point_of_interest","establishment"],"user_ratings_total":0},{"business_status":"OPERATIONAL","formatted_address":"St Pauli, Hamburg","geometry":{"location":{"lat":53.5589683,"lng":9.963597499999999},"viewport":{"northeast":{"lat":53.56031812989274,"lng":9.964947329892722},"southwest":{"lat":53.55761847010729,"lng":9.962247670107278}}},"icon":"https://maps.gstatic.com/mapfiles/place_api/icons/v1/png_71/restaurant-71.png","icon_background_color":"#FF9E67","icon_mask_base_uri":"https://maps.gstatic.com/mapfiles/place_api/icons/v2/restaurant_pinlet","name":"Café de Paris","place_id":"ChIJFx0JegGPsUcR4DvJH2vqSqY","plus_code":{"compound_code":"HX57+HC Hamburg","global_code":"9F5FHX57+HC"},"rating":0,"reference":"ChIJFx0JegGPsUcR4DvJH2vqSqY","types":["restaurant","food","point_of_interest","establishment"],"user_ratings_total":0},{"business_status":"OPERATIONAL","formatted_address":"Ludwig-Erhard-Straße 18, 20459 Hamburg","geometry":{"location":{"lat":53.5495056,"lng":9.9798312},"viewport":{"northeast":{"lat":53.55069942989272,"lng":9.981148829892723},"southwest":{"lat":53.54799977010727,"lng":9.978449170107279}}},"icon":"https://maps.gstatic.com/mapfiles/place_api/icons/v1/png_71/restaurant-71.png","icon_background_color":"#FF9E67","icon_mask_base_uri":"https://maps.gstatic.com/mapfiles/place_api/icons/v2/restaurant_pinlet","name":"Restaurant","place_id":"ChIJz5L-2dKPsUcRY5JUWNn6Ogc","plus_code":{"compound_code":"GXXH+RW Hamburg","global_code":"9F5FGXXH+RW"},"rating":0,"reference":"ChIJz5L-2dKPsUcRY5JUWNn6Ogc","types":["restaurant","food","point_of_interest","establishment"],"user_ratings_total":0},{"business_status":"OPERATIONAL","formatted_address":"Großmannstraße 195, 20539 Hamburg","geometry":{"location":{"lat":53.5367092,"lng":10.064033},"viewport":{"northeast":{"lat":53.53802312989272,"lng":10.06538157989272},"southwest":{"lat":53.53532347010728,"lng":10.06268192010728}}},"icon":"https://maps.gstatic.com/mapfiles/place_api/icons/v1/png_71/restaurant-71.png","icon_background_color":"#FF9E67","icon_mask_base_uri":"https://maps.gstatic.com/mapfiles/place_api/icons/v2/restaurant_pinlet","name":"Restaurant","place_id":"ChIJv0lw30eNsUcRBbeyci5SQeE","plus_code":{"compound_code":"G3P7+PM Hamburg","global_code":"9F5GG3P7+PM"},"rating":0,"reference":"ChIJv0lw30eNsUcRBbeyci5SQeE","types":["restaurant","food","point_of_interest","establishment"],"user_ratings_total":0},{"business_status":"OPERATIONAL","formatted_address":"Alsterdorfer Str. 483, 22337 Hamburg","geometry":{"location":{"lat":53.6163955,"lng":10.0245943},"viewport":{"northeast":{"lat":53.61768517989272,"lng":10.02602322989272},"southwest":{"lat":53.61498552010728,"lng":10.02332357010728}}},"icon":"https://maps.gstatic.com/mapfiles/place_api/icons/v1/png_71/restaurant-71.png","icon_background_color":"#FF9E67","icon_mask_base_uri":"https://maps.gstatic.com/mapfiles/place_api/icons/v2/restaurant_pinlet","name":"restoranas","place_id":"ChIJDzc8SQGJsUcRUZ86GkhZsqQ","plus_code":{"compound_code":"J28F+HR Hamburg","global_code":"9F5GJ28F+HR"},"rating":0,"reference":"ChIJDzc8SQGJsUcRUZ86GkhZsqQ","types":["restaurant","food","point_of_interest","establishment"],"user_ratings_total":0}]