[{"business_status":"OPERATIONAL","formatted_address":"Bahnhofpl. 10, 82319 Starnberg","geometry":{"location":{"lat":47.99655790000001,"lng":11.341935},"viewport":{"northeast":{"lat":47.99784337989272,"lng":11.34322092989272},"southwest":{"lat":47.99514372010728,"lng":11.34052127010728}}},"icon":"https://maps.gstatic.com/mapfiles/place_api/icons/v1/png_71/restaurant-71.png","icon_background_color":"#FF9E67","icon_mask_base_uri":"https://maps.gstatic.com/mapfiles/place_api/icons/v2/restaurant_pinlet","name":"Manna - Taste & See","opening_hours":{"open_now":false},"photos":[{"height":759,"html_attributions":["<a href=\"https://maps.google.com/maps/contrib/105389332744508688219\">Wegweiser-Medien Buchladen</a>"],"photo_reference":"AeJbb3e16OdVrIoRpwlLDT9UNohNsxIHKMOr7gKFRKm-Q7bKq731y4_7L6amJ7wLl8Cv1JuQushKaWl4MW7zD0a4uHVgAXAvbzsQ8vJgvBW0gk5edT_Gs2_sM1jAn392UndiRpHo0pCIxxt9iEiHV65HVXJObki7QOkFgiCBWTf7x5o3_NX6","width":1242}],"place_id":"ChIJ2ff0PdbPnUcRC3v69rro0cM","plus_code":{"compound_code":"X8WR+JQ Starnberg","global_code":"8FVHX8WR+JQ"},"rating":5,"reference":"ChIJ2ff0PdbPnUcRC3v69rro0cM","types":["book_store","store","restaurant","food","point_of_interest","health","establishment"],"user_ratings_total":45},{"business_status":"OPERATIONAL","formatted_address":"Altheimer Eck 9, 80331 München","geometry":{"location":{"lat":48.1373639,"lng":11.5705699},"viewport":{"northeast":{"lat":48.13874562989272,"lng":11.57192462989272},"southwest":{"lat":48.13604597010728,"lng":11.56922497010728}}},"icon":"https://maps.gstatic.com/mapfiles/place_api/icons/v1/png_71/restaurant-71.png","icon_background_color":"#FF9E67","icon_mask_base_uri":"https://maps.gstatic.com/mapfiles/place_api/icons/v2/restaurant_pinlet","name":"plänty SANDWICHES","opening_hours":{"open_now":false},"photos":[{"height":3024,"html_attributions":["<a href=\"https://maps.google.com/maps/contrib/114417378655813704855\">A Google User</a>"],"photo_reference":"AeJbb3fkLXnRF8seoshsfWh7pVngdgupRdnTQ7NyscjSVwJDZfNqccoYQ1_5x4NoxvU-vnYU1oQ8ak5jsyAJAYapYh26TP2fJR7czth34zhSb5KwfzEker514suvFTFryaxF5Wwkwuf33pSeJiffARmPRgR2Ex-HlPhTtZAwlj1Kvv2j7fxj","width":4032}],"place_id":"ChIJ17EkeC11nkcRWYx7iLY6hjk","plus_code":{"compound_code":"4HPC+W6 Munich","global_code":"8FWH4HPC+W6"},"rating":4.9,"reference":"ChIJ17EkeC11nkcRWYx7iLY6hjk","types":["restaurant","food","point_of_interest","establishment"],"user_ratings_total":134},{"business_status":"OPERATIONAL","formatted_address":"Innere Wiener Straße 18, 81667 München","geometry":{"location":{"lat":48.1332298,"lng":11.5931099},"viewport":{"northeast":{"lat":48.13462057989272,"lng":11.59443102989272},"southwest":{"lat":48.13192092010728,"lng":11.59173137010728}}},"icon":"https://maps.gstatic.com/mapfiles/place_api/icons/v1/png_71/restaurant-71.png","icon_background_color":"#FF9E67","icon_mask_base_uri":"https://maps.gstatic.com/mapfiles/place_api/icons/v2/restaurant_pinlet","name":"MUN Restaurant","opening_hours":{"open_now":false},"photos":[{"height":3530,"html_attributions":["<a href=\"https://maps.google.com/maps/contrib/111568452697566589458\">Mun Restaurant</a>"],"photo_reference":"AeJbb3fgax3d-VfDsgf4BY-QTRNbIlUYGUlJ0-xHgqsqqHWT4wwv7C_GC4MZ4p37HbpX-SgcBtvgLYl6Z0rNU7UfBC1so9NvI8VpNk78c8oCSzvsFYwGrzvfmPyC1eMZcqeQxj_azcxglCQROjBSwFBQRbwYwG0MYQBjcJx5jjJW-2Tc8kWx","width":5289}],"place_id":"ChIJDVO8rIB1nkcRyBe-znfKU74","plus_code":{"compound_code":"4HMV+76 Munich","global_code":"8FWH4HMV+76"},"price_level":4,"rating":4.7,"reference":"ChIJDVO8rIB1nkcRyBe-znfKU74","types":["restaurant","food","point_of_interest","establishment"],"user_ratings_total":357},{"business_status":"OPERATIONAL","formatted_address":"Boulevard Lilienthal 27, 8152 Opfikon, Switzerland","geometry":{"location":{"lat":47.4228704,"lng":8.561513699999999},"viewport":{"northeast":{"lat":47.42441577989272,"lng":8.562958129892722},"southwest":{"lat":47.42171612010727,"lng":8.560258470107279}}},"icon":"https://maps.gstatic.com/mapfiles/place_api/icons/v1/png_71/restaurant-71.png","icon_background_color":"#FF9E67","icon_mask_base_uri":"https://maps.gstatic.com/mapfiles/place_api/icons/v2/restaurant_pinlet","name":"Chipotle Express Burritos","opening_hours":{"open_now":false},"photos":[{"height":450,"html_attributions":["<a href=\"https://maps.google.com/maps/contrib/103605494480830705769\">DANIEL HINDER</a>"],"photo_reference":"AeJbb3cSMt2CNw_Iu6lB2D-D8a50YGqbhMW-TJngAiCxayQJ4jeKcOQGNrqZj7vEdspYrG8jjYQF2AsSG_rz2j01OFzJoe7rMA-N-a6XR1WqachlBqSZi8jHd6aN_PhhZvMxFwUEYSXYSn4JQ4sptgC7S_0mF9PcW_y6iBJu5IrYyFDUO0py","width":800}],"place_id":"ChIJ9aOb13WgmkcRHSk1hpz5kxw","plus_code":{"compound_code":"CHF6+4J Opfikon, Switzerland","global_code":"8FVCCHF6+4J"},"price_level":2,"rating":4.7,"reference":"ChIJ9aOb13WgmkcRHSk1hpz5kxw","types":["cafe","meal_takeaway","restaurant","food","point_of_interest","establishment"],"user_ratings_total":176},{"business_status":"OPERATIONAL","formatted_address":"Münchner Freiheit 6, 80802 München","geometry":{"location":{"lat":48.1622215,"lng":11.5871673},"viewport":{"northeast":{"lat":48.16361262989273,"lng":11.58852687989272},"southwest":{"lat":48.16091297010728,"lng":11.58582722010728}}},"icon":"https://maps.gstatic.com/mapfiles/place_api/icons/v1/png_71/restaurant-71.png","icon_background_color":"#FF9E67","icon_mask_base_uri":"https://maps.gstatic.com/mapfiles/place_api/icons/v2/restaurant_pinlet","name":"CONDESA - Authentic Mexican Taste - Münchner Freiheit","opening_hours":{"open_now":false},"photos":[{"height":4032,"html_attributions":["<a href=\"https://maps.google.com/maps/contrib/107493442119720342880\">Matthias Roell</a>"],"photo_reference":"AeJbb3cnOO18hqVxxWhiQg_GoIE7UhjArEoJg7_uJwfzYLK-ghQ1Tuk-jiBICVxcYsLBZR9iBnIVurRADUbPYVox6VpnwPfEl8WAPzITomdOw2HRO2pe-17IvURbZ3BlqExnEdmSoP4VLv6w5ibZKa0kgfOmM_KeG6l4xE2QbOCYG9JKrh2p","width":3024}],"place_id":"ChIJwUCcQbh1nkcRpT0HcxtOHmU","plus_code":{"compound_code":"5H6P+VV Munich","global_code":"8FWH5H6P+VV"},"price_level":1,"rating":4.5,"reference":"ChIJwUCcQbh1nkcRpT0HcxtOHmU","types":["restaurant","food","point_of_interest","establishment"],"user_ratings_total":2247},{"business_status":"OPERATIONAL","formatted_address":"Lucile-Grahn-Straße 25, 81675 München","geometry":{"location":{"lat":48.1360699,"lng":11.6071526},"viewport":{"northeast":{"lat":48.13742802989272,"lng":11.60859337989272},"southwest":{"lat":48.13472837010728,"lng":11.60589372010728}}},"icon":"https://maps.gstatic.com/mapfiles/place_api/icons/v1/png_71/restaurant-71.png","icon_background_color":"#FF9E67","icon_mask_base_uri":"https://maps.gstatic.com/mapfiles/place_api/icons/v2/restaurant_pinlet","name":"Pequeño Haidhausen","opening_hours":{"open_now":false},"photos":[{"height":3456,"html_attributions":["<a href=\"https://maps.google.com/maps/contrib/109542501720011264125\">Christoph Schade</a>"],"photo_reference":"AeJbb3dG6hOybm0toia7_GFgcTVNPF4Bc-PiIwMtMAhezOsSE3TyEcY01mBwI9-tX5zW5iKRCsIYyjZz_g9yEbWl-Xc-cWwtQJJy5MoheOwtL22_gyr2XavWShgQYKuvXNW00ruXLc5bnSY7_s5y26OMKiFsQ-l1WgLgp10ZNR91LQ3DPPgO","width":4608}],"place_id":"ChIJW9JTqH51nkcRG8J0VEKkFs4","plus_code":{"compound_code":"4JP4+CV Munich","global_code":"8FWH4JP4+CV"},"price_level":2,"rating":4.5,"reference":"ChIJW9JTqH51nkcRG8J0VEKkFs4","types":["bar","restaurant","food","point_of_interest","establishment"],"user_ratings_total":727},{"business_status":"OPERATIONAL","formatted_address":"Baaderstraße 68, 80469 München","geometry":{"location":{"lat":48.1290189,"lng":11.5765854},"viewport":{"northeast":{"lat":48.13035327989272,"lng":11.57797007989272},"southwest":{"lat":48.12765362010728,"lng":11.57527042010728}}},"icon":"https://maps.gstatic.com/mapfiles/place_api/icons/v1/png_71/restaurant-71.png","icon_background_color":"#FF9E67","icon_mask_base_uri":"https://maps.gstatic.com/mapfiles/place_api/icons/v2/restaurant_pinlet","name":"Burrito Company München Glockenbach","opening_hours":{"open_now":false},"photos":[{"height":1080,"html_attributions":["<a href=\"https://maps.google.com/maps/contrib/109365512887681686571\">A Google User</a>"],"photo_reference":"AeJbb3ckru2Vig2-sPZoZLazB-htcYLbMga8h0EVbWBcOF81h9yJPQAsmkwgyr4Eg-a8_4bw-xD2xQA4Hd4LBho1gikt3Gf-ytKgoC5_YM0wv-WHLQum2kGw2TZ6yr5hmAHOOFlO3xFX2YrSTifqRzJspatol2XDK_r5KMBgjlN4Qqgskly1","width":1920}],"place_id":"ChIJrf0XyGbfnUcR_z0dCtYXR8c","plus_code":{"compound_code":"4HHG+JJ Munich","global_code":"8FWH4HHG+JJ"},"rating":4.5,"reference":"ChIJrf0XyGbfnUcR_z0dCtYXR8c","types":["restaurant","food","point_of_interest","establishment"],"user_ratings_total":582},{"business_status":"OPERATIONAL","formatted_address":"Dachauer Str. 153, 80335 München","geometry":{"location":{"lat":48.1538949,"lng":11.5539737},"viewport":{"northeast":{"lat":48.15527802989271,"lng":11.55539882989272},"southwest":{"lat":48.15257837010727,"lng":11.55269917010728}}},"icon":"https://maps.gstatic.com/mapfiles/place_api/icons/v1/png_71/restaurant-71.png","icon_background_color":"#FF9E67","icon_mask_base_uri":"https://maps.gstatic.com/mapfiles/place_api/icons/v2/restaurant_pinlet","name":"Amigos Restaurante Mexicano","opening_hours":{"open_now":false},"photos":[{"height":3446,"html_attributions":["<a href=\"https://maps.google.com/maps/contrib/110590744596300492861\">A Google User</a>"],"photo_reference":"AeJbb3fsv4LjCR9txfzsIjm6YKtEfVxdiGlWriHrG2CYB-2On2m4RnBVSgfeEh13NGrzxBZR1YeZZ2T6YMPCx1kcO6MAcB3CsIjNp8YgXqj_BBYHb9-gop5k4AYwaItiKWZZC6f6K4NBP42K4YilBAVSB3TseYVUl2N3tfL97nQLn3A18VXS","width":2303}],"place_id":"ChIJ8_X4yN93nkcRYZFNCXtg6NU","plus_code":{"compound_code":"5H33+HH Munich","global_code":"8FWH5H33+HH"},"price_level":2,"rating":4.5,"reference":"ChIJ8_X4yN93nkcRYZFNCXtg6NU","types":["restaurant","food","point_of_interest","establishment"],"user_ratings_total":532},{"business_status":"OPERATIONAL","formatted_address":"Richterstraße 23, 70567 Stuttgart","geometry":{"location":{"lat":48.727554,"lng":9.149446},"viewport":{"northeast":{"lat":48.72895347989272,"lng":9.15074597989272},"southwest":{"lat":48.72625382010728,"lng":9.148046320107277}}},"icon":"https://maps.gstatic.com/mapfiles/place_api/icons/v1/png_71/restaurant-71.png","icon_background_color":"#FF9E67","icon_mask_base_uri":"https://maps.gstatic.com/mapfiles/place_api/icons/v2/restaurant_pinlet","name":"Houstons Fine Burrito Company","opening_hours":{"open_now":false},"photos":[{"height":3000,"html_attributions":["<a href=\"https://maps.google.com/maps/contrib/112989939859283898918\">Sarah</a>"],"photo_reference":"AeJbb3dYFUFjL9IIBQW29oBNiUL_7IzObzI3I8jn9ciTvFnB9wr5WXlTC7Y8gCM076Oti7o5TcU8JLKIftovkztNOsexOT4xpz_IQkq6naIFVoi4M1dpL0KSOsR547gI9oPcGGeHXjTEbS7qf_L_hbMKcAwG2iHi3uZ4KOYa7oKRrVs9Anuy","width":4000}],"place_id":"ChIJbbCb1U_cmUcRHjmMFJEQjk8","plus_code":{"compound_code":"P4HX+2Q Stuttgart","global_code":"8FWFP4HX+2Q"},"price_level":2,"rating":4.5,"reference":"ChIJbbCb1U_cmUcRHjmMFJEQjk8","types":["restaurant","bar","meal_takeaway","food","point_of_interest","establishment"],"user_ratings_total":336},{"business_status":"OPERATIONAL","formatted_address":"Occamstraße 7, 80802 München","geometry":{"location":{"lat":48.1619752,"lng":11.5894529},"viewport":{"northeast":{"lat":48.16330577989272,"lng":11.59085837989272},"southwest":{"lat":48.16060612010728,"lng":11.58815872010728}}},"icon":"https://maps.gstatic.com/mapfiles/place_api/icons/v1/png_71/restaurant-71.png","icon_background_color":"#FF9E67","icon_mask_base_uri":"https://maps.gstatic.com/mapfiles/place_api/icons/v2/restaurant_pinlet","name":"La Burrita","opening_hours":{"open_now":false},"photos":[{"height":4032,"html_attributions":["<a href=\"https://maps.google.com/maps/contrib/106187521964962897571\">Manuel Stübinger</a>"],"photo_reference":"AeJbb3dOV_mMinQN0irbuo-2IrQPY60VillJPDab9oK05xN1VyFG-O3RVYo58dU1BaMX8flxUxDDddtcwXHqccsachNWDfbj0wa4AvbyE_WtUMJJ_7kUCqmd0WBRmjSFs0AqQNwhLKJGiDTDlENLeSn3wXwD9ECp_f-XsR8Cs_f3UNh_cAAD","width":3024}],"place_id":"ChIJhaOEfwp1nkcRfcC-JLzRSsE","plus_code":{"compound_code":"5H6Q+QQ Munich","global_code":"8FWH5H6Q+QQ"},"price_level":2,"rating":4.5,"reference":"ChIJhaOEfwp1nkcRfcC-JLzRSsE","types":["restaurant","food","point_of_interest","establishment"],"user_ratings_total":302},{"business_status":"OPERATIONAL","formatted_address":"Oberländerstraße 2, 81371 München","geometry":{"location":{"lat":48.1193603,"lng":11.5511735},"viewport":{"northeast":{"lat":48.12071642989272,"lng":11.55258672989272},"southwest":{"lat":48.11801677010728,"lng":11.54988707010728}}},"icon":"https://maps.gstatic.com/mapfiles/place_api/icons/v1/png_71/restaurant-71.png","icon_background_color":"#FF9E67","icon_mask_base_uri":"https://maps.gstatic.com/mapfiles/place_api/icons/v2/restaurant_pinlet","name":"Condesa Implerstraße","opening_hours":{"open_now":false},"photos":[{"height":4032,"html_attributions":["<a href=\"https://maps.google.com/maps/contrib/100877442430342146517\">Kevin Leslie</a>"],"photo_reference":"AeJbb3d3Vy4F80bNsTtlS7DWZ0OqWcTL0knpnpN2U72tsEmymgB_wJT5Si1p34wgXbz03UGpXTNqH0Ij2njt9wc3R2Hi859i9Ps82glmUgzh5y2nu4wtOU7-SMFskkiid5ySxAWX6WwvjjJpz4G9lCY0qv_73aFUUdUR6A70Vb6a2UyO4CLQ","width":3024}],"place_id":"ChIJG8Q8hhffnUcRinq9dVrxiX0","plus_code":{"compound_code":"4H92+QF Munich","global_code":"8FWH4H92+QF"},"rating":4.5,"reference":"ChIJG8Q8hhffnUcRinq9dVrxiX0","types":["restaurant","food","point_of_interest","establishment"],"user_ratings_total":300},{"business_status":"OPERATIONAL","formatted_address":"Reichenbachstraße 38, 80469 München","geometry":{"location":{"lat":48.129006,"lng":11.5755096},"viewport":{"northeast":{"lat":48.13033512989271,"lng":11.57694177989272},"southwest":{"lat":48.12763547010726,"lng":11.57424212010728}}},"icon":"https://maps.gstatic.com/mapfiles/place_api/icons/v1/png_71/restaurant-71.png","icon_background_color":"#FF9E67","icon_mask_base_uri":"https://maps.gstatic.com/mapfiles/place_api/icons/v2/restaurant_pinlet","name":"Solefood","opening_hours":{"open_now":false},"photos":[{"height":1366,"html_attributions":["<a href=\"https://maps.google.com/maps/contrib/116459912133276031597\">A Google User</a>"],"photo_reference":"AeJbb3c84M0Jv96FUzthkBmDRnmPy17bTkyQ2kgOP5v_MEiXbkzGJhqEYuxudfpQbhYUGvL07gK42XKOeu8S_eJ8o4IxxDyFjyvhS1q_Y0GaYF6weM1ul5mG6KEmFvRYe1kY0oxtFih-Spepkb_qu29yk6a3BF4VhQ_eviNBwnGDGpqIACeo","width":2048}],"place_id":"ChIJUcI6yAPfnUcRl3Tid_4tJXE","plus_code":{"compound_code":"4HHG+J6 Munich","global_code":"8FWH4HHG+J6"},"rating":4.5,"reference":"ChIJUcI6yAPfnUcRl3Tid_4tJXE","types":["meal_takeaway","restaurant","food","point_of_interest","establishment"],"user_ratings_total":140},{"business_status":"OPERATIONAL","formatted_address":"Bahnhofpl. 5, 80335 München","geometry":{"location":{"lat":48.1415833,"lng":11.5609808},"viewport":{"northeast":{"lat":48.14286707989272,"lng":11.56242222989272},"southwest":{"lat":48.14016742010728,"lng":11.55972257010728}}},"icon":"https://maps.gstatic.com/mapfiles/place_api/icons/v1/png_71/restaurant-71.png","icon_background_color":"#FF9E67","icon_mask_base_uri":"https://maps.gstatic.com/mapfiles/place_api/icons/v2/restaurant_pinlet","name":"CONDESA - Authentic Mexican Taste - Bahnhofplatz 5","opening_hours":{"open_now":false},"photos":[{"height":1333,"html_attributions":["<a href=\"https://maps.google.com/maps/contrib/105097637879620549424\">Georg Ebner</a>"],"photo_reference":"AeJbb3eYnbxZaxIdWiWpVfY_TMF_OfLqsueSlB0VB0wK1qlEp4QskkVBqQ5_cCXviMXr8wiRXfjCRGb8e5LEXbe7rgnOCRq3qBP6Dg7MpbMr0HiAdUrM9quaZnapTyAU8DqYL0smegcjq0SHKgdoM01f22fMTMsGejP-8UFqTc0Qm1Q3RzC2","width":2000}],"place_id":"ChIJOQn5CPl1nkcRFsylk6h8X1Q","plus_code":{"compound_code":"4HR6+J9 Munich","global_code":"8FWH4HR6+J9"},"price_level":2,"rating":4.4,"reference":"ChIJOQn5CPl1nkcRFsylk6h8X1Q","types":["restaurant","food","point_of_interest","establishment"],"user_ratings_total":1048},{"business_status":"OPERATIONAL","formatted_address":"Hospitalstraße 19, 70174 Stuttgart","geometry":{"location":{"lat":48.7772005,"lng":9.1730065},"viewport":{"northeast":{"lat":48.77860082989272,"lng":9.17418772989272},"southwest":{"lat":48.77590117010728,"lng":9.171488070107277}}},"icon":"https://maps.gstatic.com/mapfiles/place_api/icons/v1/png_71/restaurant-71.png","icon_background_color":"#FF9E67","icon_mask_base_uri":"https://maps.gstatic.com/mapfiles/place_api/icons/v2/restaurant_pinlet","name":"BURREATOS","opening_hours":{"open_now":false},"photos":[{"height":4032,"html_attributions":["<a href=\"https://maps.google.com/maps/contrib/107856267261599289047\">phyziks09</a>"],"photo_reference":"AeJbb3dwGF5YwIOY2cWs3dn40e8UsHrshnB8Qf-oCAJkrFkgqg7R6eXs2WDc0em0-AhwrBsvEE4b1uFrZnLkk4roAwwuhNq5Ov5RCWb36Mq5-_i5IuQjRWEfktY8U4ICnAFm2b-oXi4cNyf1XSkLncSqyNhargonCYg7bx-fXg_MzdjHJ3Zv","width":3024}],"place_id":"ChIJqVHV1DfbmUcRETrW3bCyfDM","plus_code":{"compound_code":"Q5GF+V6 Stuttgart","global_code":"8FWFQ5GF+V6"},"price_level":1,"rating":4.4,"reference":"ChIJqVHV1DfbmUcRETrW3bCyfDM","types":["restaurant","food","point_of_interest","establishment"],"user_ratings_total":998},{"business_status":"OPERATIONAL","formatted_address":"Augustenstraße 74, 80333 München","geometry":{"location":{"lat":48.1501422,"lng":11.5637438},"viewport":{"northeast":{"lat":48.15150557989272,"lng":11.56502972989272},"southwest":{"lat":48.14880592010728,"lng":11.56233007010728}}},"icon":"https://maps.gstatic.com/mapfiles/place_api/icons/v1/png_71/restaurant-71.png","icon_background_color":"#FF9E67","icon_mask_base_uri":"https://maps.gstatic.com/mapfiles/place_api/icons/v2/restaurant_pinlet","name":"Burrito Company München Maxvorstadt","opening_hours":{"open_now":false},"photos":[{"height":1080,"html_attributions":["<a href=\"https://maps.google.com/maps/contrib/115183932306943020857\">A Google User</a>"],"photo_reference":"AeJbb3cLbWAzPWpP-AbibOyY6fTPTR-yqPlQNcDRKCZMUzfe8gZDNhJzOh_EedpeZ-gs6pLa-7AuET6oFyF_eXnH6isMqze2OV7yPNowgjTEtEVephE3ExYYEhccYMiA8lHqfQZ6UQKIWr5qj7SRsFD6QNH62axedrCwMY9reNvmSmn639Kl","width":1920}],"place_id":"ChIJl5gkzeV1nkcRP_m-l4_qYxA","plus_code":{"compound_code":"5H27+3F Munich","global_code":"8FWH5H27+3F"},"price_level":2,"rating":4.4,"reference":"ChIJl5gkzeV1nkcRP_m-l4_qYxA","types":["restaurant","food","point_of_interest","establishment"],"user_ratings_total":959},{"business_status":"OPERATIONAL","formatted_address":"Rindermarkt 15, 80331 München","geometry":{"location":{"lat":48.1362665,"lng":11.5744204},"viewport":{"northeast":{"lat":48.13758482989272,"lng":11.57580517989272},"southwest":{"lat":48.13488517010727,"lng":11.57310552010728}}},"icon":"https://maps.gstatic.com/mapfiles/place_api/icons/v1/png_71/restaurant-71.png","icon_background_color":"#FF9E67","icon_mask_base_uri":"https://maps.gstatic.com/mapfiles/place_api/icons/v2/restaurant_pinlet","name":"La Burrita","opening_hours":{"open_now":false},"photos":[{"height":3024,"html_attributions":["<a href=\"https://maps.google.com/maps/contrib/116516879513853247886\">Sabrina Fanotto</a>"],"photo_reference":"AeJbb3edT1EbWj-an5SL1j1VfpT_cnNSYZAtq2HSFajo9gSXflFveX2-p4K-0nXoo3ZypmBIVt-UJxXh1Wn_qWswtAIfhTl4yDq0Z0gJWgT44x-GHgWxwgnGBdf0giKAy7NyiiCkkDVx4ar_fP1-Y6rNke-__GwTcIdnikMWKqD_aWN7ZTdp","width":4032}],"place_id":"ChIJV8b2RDB1nkcR1PvhuG3ALQA","plus_code":{"compound_code":"4HPF+GQ Munich","global_code":"8FWH4HPF+GQ"},"price_level":2,"rating":4.4,"reference":"ChIJV8b2RDB1nkcR1PvhuG3ALQA","types":["restaurant","food","point_of_interest","establishment"],"user_ratings_total":667},{"business_status":"OPERATIONAL","formatted_address":"Willy-Brandt-Platz 5, 81829 München","geometry":{"location":{"lat":48.1322468,"lng":11.6905719},"viewport":{"northeast":{"lat":48.13367657989272,"lng":11.6913913},"southwest":{"lat":48.13097692010727,"lng":11.6881325}}},"icon":"https://maps.gstatic.com/mapfiles/place_api/icons/v1/png_71/restaurant-71.png","icon_background_color":"#FF9E67","icon_mask_base_uri":"https://maps.gstatic.com/mapfiles/place_api/icons/v2/restaurant_pinlet","name":"Burrito Company München Riem","opening_hours":{"open_now":false},"photos":[{"height":1080,"html_attributions":["<a href=\"https://maps.google.com/maps/contrib/105245382528638494417\">A Google User</a>"],"photo_reference":"AeJbb3dvm_ORwhe792Kzzqy6foZY0KzEvHE1jCFD7tLa99-utEPns5jivXIiCKe47J2l4o42xqRBkbF5sJIbaSVC-u5zrh50UejhRRXf4D5nXXSprHmX_33oPhgcWiS3AUHa9813-chvHQhrla8i1CYdOLKW9Lb3YM5VISq1mciORk8wMsKa","width":1920}],"place_id":"ChIJlc1hY3oLnkcRM7h685102TA","plus_code":{"compound_code":"4MJR+V6 Munich","global_code":"8FWH4MJR+V6"},"price_level":2,"rating":4.4,"reference":"ChIJlc1hY3oLnkcRM7h685102TA","types":["restaurant","food","point_of_interest","establishment"],"user_ratings_total":411},{"business_status":"OPERATIONAL","formatted_address":"Atelierstraße 14, Werk 3, 81671 München","geometry":{"location":{"lat":48.1247417,"lng":11.6059177},"viewport":{"northeast":{"lat":48.12624287989273,"lng":11.60748782989272},"southwest":{"lat":48.12354322010728,"lng":11.60478817010728}}},"icon":"https://maps.gstatic.com/mapfiles/place_api/icons/v1/png_71/restaurant-71.png","icon_background_color":"#FF9E67","icon_mask_base_uri":"https://maps.gstatic.com/mapfiles/place_api/icons/v2/restaurant_pinlet","name":"pureburrito IV","opening_hours":{"open_now":false},"photos":[{"height":1080,"html_attributions":["<a href=\"https://maps.google.com/maps/contrib/101564423901899284508\">A Google User</a>"],"photo_reference":"AeJbb3cUMfyOqXRvMWcKpy2dv5zIhcJIRPXglUDJOglwW_wmwTGAS9VszInJUbZx0_Mph3H3c884HlI0cBKD6r3aNOomgjAvUOln-oUf2lRjH_gQHZbOJfNMJs_VF4ONbc2aRivX0t6E-_uKDS39XIGyKcot0u_5HJeSoAc7CmxmxyBXcl9m","width":1080}],"place_id":"ChIJh-dsTYTfnUcRczs1bI39QAk","plus_code":{"compound_code":"4JF4+V9 Munich","global_code":"8FWH4JF4+V9"},"rating":4.4,"reference":"ChIJh-dsTYTfnUcRczs1bI39QAk","types":["restaurant","food","point_of_interest","establishment"],"user_ratings_total":66},{"business_status":"OPERATIONAL","formatted_address":"Bayreuther Str. 36, 10789 Berlin","geometry":{"location":{"lat":52.5012611,"lng":13.3437825},"viewport":{"northeast":{"lat":52.50259837989272,"lng":13.34502027989272},"southwest":{"lat":52.49989872010728,"lng":13.34232062010728}}},"icon":"https://maps.gstatic.com/mapfiles/place_api/icons/v1/png_71/restaurant-71.png","icon_background_color":"#FF9E67","icon_mask_base_uri":"https://maps.gstatic.com/mapfiles/place_api/icons/v2/restaurant_pinlet","name":"Dolores Wittenbergplatz","opening_hours":{"open_now":false},"photos":[{"height":2359,"html_attributions":["<a href=\"https://maps.google.com/maps/contrib/107438924998660010170\">A Google User</a>"],"photo_reference":"AeJbb3d3llehjJ6v4KYkBoEYaakG84s8BFlA7P6KQBfkmvmh2VEfuHngUXnq2XnQvf33jYUGbovEEXogW6BmKJx6jxCRhHuKYQQoSzupL77U2BCE8E1TDWFEpG8Yvro8gQavj0is11veAHh_HXK69MKNNd92JHqWc1mLFQAjJKb_7G50d86h","width":4192}],"place_id":"ChIJB8tz_VNQqEcRooYgIoiHhOI","plus_code":{"compound_code":"G82V+GG Berlin","global_code":"9F4MG82V+GG"},"price_level":2,"rating":4.3,"reference":"ChIJB8tz_VNQqEcRooYgIoiHhOI","types":["restaurant","food","point_of_interest","establishment"],"user_ratings_total":2442},{"business_status":"OPERATIONAL","formatted_address":"Guldeinstraße 35, 80339 München","geometry":{"location":{"lat":48.13868360000001,"lng":11.531309},"viewport":{"northeast":{"lat":48.14007132989273,"lng":11.53266472989272},"southwest":{"lat":48.13737167010729,"lng":11.52996507010728}}},"icon":"https://maps.gstatic.com/mapfiles/place_api/icons/v1/png_71/restaurant-71.png","icon_background_color":"#FF9E67","icon_mask_base_uri":"https://maps.gstatic.com/mapfiles/place_api/icons/v2/restaurant_pinlet","name":"Red Pepper","opening_hours":{"open_now":false},"photos":[{"height":2268,"html_attributions":["<a href=\"https://maps.google.com/maps/contrib/103457668540231502975\">A Google User</a>"],"photo_reference":"AeJbb3dAS842cFY96VmMo92SH6GZcf6pVM9X6lWl_F9Oh4kErlBKcNuuEO0X4yiN2__6v2mNaUsu6uMbMAEeAwxFlLPQ_kNJm0rIWnEHPmhwrLkF44_ODldNQHWSaRmuCMluviSWTc_WbS8AF_uVDZwk49PgJmHlNy_mGdeuJ_ej-2XalDXA","width":4032}],"place_id":"ChIJjetfZqfYnUcRsbnX0jE3UPc","plus_code":{"compound_code":"4GQJ+FG Munich","global_code":"8FWH4GQJ+FG"},"price_level":2,"rating":4.3,"reference":"ChIJjetfZqfYnUcRsbnX0jE3UPc","types":["restaurant","bar","food","point_of_interest","establishment"],"user_ratings_total":830},{"business_status":"OPERATIONAL","formatted_address":"Türkenstraße 55, 80799 München","geometry":{"location":{"lat":48.1507784,"lng":11.5761231},"viewport":{"northeast":{"lat":48.15208492989272,"lng":11.57752397989272},"southwest":{"lat":48.14938527010728,"lng":11.57482432010728}}},"icon":"https://maps.gstatic.com/mapfiles/place_api/icons/v1/png_71/restaurant-71.png","icon_background_color":"#FF9E67","icon_mask_base_uri":"https://maps.gstatic.com/mapfiles/place_api/icons/v2/restaurant_pinlet","name":"The Gratitude","opening_hours":{"open_now":false},"photos":[{"height":2448,"html_attributions":["<a href=\"https://maps.google.com/maps/contrib/111568546100530414470\">A Google User</a>"],"photo_reference":"AeJbb3ebFZ01sP467V_K82fRBZdo2x3i5K7HE29r88Qn9bPsDnCrTlKBYcNlXNNsBv2eu1crGIZRcxin0TSOE5_MWSPYkca7x8NB5tMb2-78De6wfJmMQjm2xhYSwaLYKO2tU4zXx_5XSURg0Wlgw-A4WaRbRCKfL3FL8V2HGrxQbfnDSbgl","width":3264}],"place_id":"ChIJPWvtlut1nkcR7BEDN298rog","plus_code":{"compound_code":"5H2G+8C Munich","global_code":"8FWH5H2G+8C"},"price_level":2,"rating":4.3,"reference":"ChIJPWvtlut1nkcR7BEDN298rog","types":["restaurant","food","point_of_interest","establishment"],"user_ratings_total":826},{"business_status":"OPERATIONAL","formatted_address":"Kaigasse 15, 5020 Salzburg, Austria","geometry":{"location":{"lat":47.7977105,"lng":13.0490507},"viewport":{"northeast":{"lat":47.79905922989271,"lng":13.05037052989272},"southwest":{"lat":47.79635957010726,"lng":13.04767087010728}}},"icon":"https://maps.gstatic.com/mapfiles/place_api/icons/v1/png_71/restaurant-71.png","icon_background_color":"#FF9E67","icon_mask_base_uri":"https://maps.gstatic.com/mapfiles/place_api/icons/v2/restaurant_pinlet","name":"Burrito Factory","opening_hours":{"open_now":false},"photos":[{"height":2268,"html_attributions":["<a href=\"https://maps.google.com/maps/contrib/107999670461443154701\">zora debrunner</a>"],"photo_reference":"AeJbb3fbhVWqakusZ6pspJY1hbsOIud_-6nNAssRkuK1UF0HvGLEAJKz75h6raPiJx4LFpiCQaqr1hMZkvsH9fll0cHKVQenQG_qKnGCZ-EhemRHvWS697kYFgP4GB0UHGM7LTvLRt2UjVbM5W4oJM8GXwfUFo9MbxjxrdZqJhq88B_Xq8hX","width":4032}],"place_id":"ChIJ0YAcE4qQdkcRnQIPpPGxyY0","plus_code":{"compound_code":"Q2XX+3J Salzburg, Austria","global_code":"8FVMQ2XX+3J"},"price_level":1,"rating":4.3,"reference":"ChIJ0YAcE4qQdkcRnQIPpPGxyY0","types":["restaurant","food","point_of_interest","establishment"],"user_ratings_total":448},{"business_status":"OPERATIONAL","formatted_address":"Herzogstraße 88, 80796 München","geometry":{"location":{"lat":48.1630121,"lng":11.5719308},"viewport":{"northeast":{"lat":48.16427822989273,"lng":11.57318252989272},"southwest":{"lat":48.16157857010728,"lng":11.57048287010728}}},"icon":"https://maps.gstatic.com/mapfiles/place_api/icons/v1/png_71/restaurant-71.png","icon_background_color":"#FF9E67","icon_mask_base_uri":"https://maps.gstatic.com/mapfiles/place_api/icons/v2/restaurant_pinlet","name":"El Patio","opening_hours":{"open_now":false},"photos":[{"height":5312,"html_attributions":["<a href=\"https://maps.google.com/maps/contrib/110036470889015911127\">Maribel Morenate Jaimez</a>"],"photo_reference":"AeJbb3dKZ3yBN-3xFPVxlg0hK3FdnuPhCfpVv7cwLaRhFKLMlqxX-gPHcKg3d3iKeAEql20b2rD0qpKluQggboRuwtmlJCfupTDMQorMI9bwbOt9wwNCQGiAo7WC5J1tzssbxFUbZwdiKvHsFarQPxOy81ivhekmFXMIoE7S5PKNrqaKCga6","width":2988}],"place_id":"ChIJr-vN1tp1nkcRNjVlTrP2qKE","plus_code":{"compound_code":"5H7C+6Q Munich","global_code":"8FWH5H7C+6Q"},"price_level":2,"rating":4.3,"reference":"ChIJr-vN1tp1nkcRNjVlTrP2qKE","types":["restaurant","food","point_of_interest","establishment"],"user_ratings_total":283},{"business_status":"OPERATIONAL","formatted_address":"Gröbenzeller Str. 40, 80997 München","geometry":{"location":{"lat":48.1828504,"lng":11.5078719},"viewport":{"northeast":{"lat":48.18424047989272,"lng":11.50917167989272},"southwest":{"lat":48.18154082010728,"lng":11.50647202010728}}},"icon":"https://maps.gstatic.com/mapfiles/place_api/icons/v1/png_71/bar-71.png","icon_background_color":"#FF9E67","icon_mask_base_uri":"https://maps.gstatic.com/mapfiles/place_api/icons/v2/bar_pinlet","name":"Dillinger Chicago Bar´n Grill","opening_hours":{"open_now":false},"photos":[{"height":4032,"html_attributions":["<a href=\"https://maps.google.com/maps/contrib/103911487374433530895\">A Google User</a>"],"photo_reference":"AeJbb3dvJJ6ssUyMoqiON2Xn55GtKYbogZVsxhVwFlgmarNIdzRroeA304y3WPlQoMOnDS3I1O1F3hzoLnxP1NmxjL4Eul441sRkKLwWZ_TX1sydV5olH8LOnM9MgpEtzDvkERY4xepfl6DLS37pRpVpdlqlDG-ZFhhnXfsCNoqrU00bfMZT","width":3024}],"place_id":"ChIJ7zHnSgd3nkcRZhwGfMXJsgk","plus_code":{"compound_code":"5GM5+44 Munich","global_code":"8FWH5GM5+44"},"price_level":2,"rating":4.2,"reference":"ChIJ7zHnSgd3nkcRZhwGfMXJsgk","types":["bar","restaurant","food","point_of_interest","establishment"],"user_ratings_total":1471},{"business_status":"OPERATIONAL","formatted_address":"Lochhamer Str. 4, 82166 Gräfelfing","geometry":{"location":{"lat":48.1255193,"lng":11.4459946},"viewport":{"northeast":{"lat":48.12681102989272,"lng":11.44734917989272},"southwest":{"lat":48.12411137010728,"lng":11.44464952010728}}},"icon":"https://maps.gstatic.com/mapfiles/place_api/icons/v1/png_71/restaurant-71.png","icon_background_color":"#FF9E67","icon_mask_base_uri":"https://maps.gstatic.com/mapfiles/place_api/icons/v2/restaurant_pinlet","name":"Lochhamer's El Diablo","opening_hours":{"open_now":false},"photos":[{"height":2268,"html_attributions":["<a href=\"https://maps.google.com/maps/contrib/104941984055463302347\">Michaela Becker</a>"],"photo_reference":"AeJbb3ePie8bESei3eo8eb4nDSikOUw28Ay6Gl_TFAOPYdQzUdUkAW0t5tc5q0MKYYKX7ZX6GwEDhfpo07pwBZ_q9qpnWCbLxELnqDoxpDlHfth7dhCe5qJPWOWTNX8-LYxEsVH0CCkEPxxpTkAZ6lI1d6r5N3SuKnFnO-3aC_KMikc7gi8J","width":4032}],"place_id":"ChIJCVlGqiHYnUcRNmktpkjuD5U","plus_code":{"compound_code":"4CGW+69 Gräfelfing","global_code":"8FWH4CGW+69"},"price_level":2,"rating":4.2,"reference":"ChIJCVlGqiHYnUcRNmktpkjuD5U","types":["restaurant","food","point_of_interest","establishment"],"user_ratings_total":981},{"business_status":"OPERATIONAL","formatted_address":"Kastanienallee 59, 10119 Berlin","geometry":{"location":{"lat":52.5337806,"lng":13.4051596},"viewport":{"northeast":{"lat":52.53514527989272,"lng":13.40646362989272},"southwest":{"lat":52.53244562010728,"lng":13.40376397010728}}},"icon":"https://maps.gstatic.com/mapfiles/place_api/icons/v1/png_71/restaurant-71.png","icon_background_color":"#FF9E67","icon_mask_base_uri":"https://maps.gstatic.com/mapfiles/place_api/icons/v2/restaurant_pinlet","name":"Berlin Burrito Company","opening_hours":{"open_now":false},"photos":[{"height":2456,"html_attributions":["<a href=\"https://maps.google.com/maps/contrib/106350520267228167047\">Berlin Burrito Company</a>"],"photo_reference":"AeJbb3dkMP2F6qTM0tJDRjpS06zFYL03q_81i2y2bWZayipSg-jyiP7GMc9PL4HB8aluXSrCHfqA54iMuDtfB1XQieWAntPHnkc8lkzViAIW8ijxSlRdzeUmpy_0owb4HplBYuBWwYl6odo4uPch2Eelb3Km-wA_wpyJt9Fc9DgNvFpB7tye","width":3680}],"place_id":"ChIJoba4YftRqEcRnJ-fwvVhPa8","plus_code":{"compound_code":"GCM4+G3 Berlin","global_code":"9F4MGCM4+G3"},"price_level":1,"rating":4.2,"reference":"ChIJoba4YftRqEcRnJ-fwvVhPa8","types":["restaurant","food","point_of_interest","establishment"],"user_ratings_total":880},{"business_status":"OPERATIONAL","formatted_address":"Obergrashof 1A, 85221 Dachau","geometry":{"location":{"lat":48.2549775,"lng":11.4907786},"viewport":{"northeast":{"lat":48.25622487989273,"lng":11.49239342989272},"southwest":{"lat":48.25352522010728,"lng":11.48969377010728}}},"icon":"https://maps.gstatic.com/mapfiles/place_api/icons/v1/png_71/restaurant-71.png","icon_background_color":"#FF9E67","icon_mask_base_uri":"https://maps.gstatic.com/mapfiles/place_api/icons/v2/restaurant_pinlet","name":"LatinAmericana","opening_hours":{"open_now":false},"photos":[{"height":1512,"html_attributions":["<a href=\"https://maps.google.com/maps/contrib/102206429211183299917\">Yorck Zhou</a>"],"photo_reference":"AeJbb3cWANEQ8q5IxpdPLF8mKqDHvcTfhOWsNNFnddoMsWIsraRLkuOQZLj5WNmb36NPou46cK_lNWUnzMp5irDXqQfP6-xu3BxRoYWzQNl2iKeCgXYySgY3it-sqzZPqHvUrAz8iLv1zUuhylNHwh74RFudUUVHDF3YYpDBASdYbaRsLjko","width":2688}],"place_id":"ChIJO1VOn4JwnkcRJKJ_AccTdYA","plus_code":{"compound_code":"7F3R+X8 Dachau","global_code":"8FWH7F3R+X8"},"price_level":2,"rating":4.2,"reference":"ChIJO1VOn4JwnkcRJKJ_AccTdYA","types":["restaurant","food","point_of_interest","establishment"],"user_ratings_total":841},{"business_status":"OPERATIONAL","formatted_address":"Rosenheimer Str. 98, 81669 München","geometry":{"location":{"lat":48.1259573,"lng":11.597931},"viewport":{"northeast":{"lat":48.12731427989272,"lng":11.59943417989272},"southwest":{"lat":48.12461462010728,"lng":11.59673452010728}}},"icon":"https://maps.gstatic.com/mapfiles/place_api/icons/v1/png_71/restaurant-71.png","icon_background_color":"#FF9E67","icon_mask_base_uri":"https://maps.gstatic.com/mapfiles/place_api/icons/v2/restaurant_pinlet","name":"Leo`s Lounge Restaurant Happy Hour Cocktailbar München","opening_hours":{"open_now":false},"photos":[{"height":4640,"html_attributions":["<a href=\"https://maps.google.com/maps/contrib/102710693650771329903\">Natasa Misic</a>"],"photo_reference":"AeJbb3cxiTTqVL91MBpPGqjZDn5i67q1yWoEmxC6aj44Pc3-1LQ_eaXoDAe7FBpsg2OlZc0qLbeTsJ17GqXD6HHm8RcC68dpxChnOu4mFqsp6bhewKy8xiwAOTOFVLiimmoQGHyisAYZ5AuAXLJ1Y1hvAOnKDg_5fS3dYf0cgV40KTK4-teN","width":3480}],"place_id":"ChIJf4H2aoLfnUcRTkLFVO4Gl1w","plus_code":{"compound_code":"4HGX+95 Munich","global_code":"8FWH4HGX+95"},"price_level":2,"rating":4.2,"reference":"ChIJf4H2aoLfnUcRTkLFVO4Gl1w","types":["restaurant","meal_delivery","bar","food","point_of_interest","establishment"],"user_ratings_total":826},{"business_status":"OPERATIONAL","formatted_address":"Münchner Str. 140, 85757 Karlsfeld","geometry":{"location":{"lat":48.2271161,"lng":11.4639002},"viewport":{"northeast":{"lat":48.22843162989273,"lng":11.46507397989272},"southwest":{"lat":48.22573197010728,"lng":11.46237432010728}}},"icon":"https://maps.gstatic.com/mapfiles/place_api/icons/v1/png_71/restaurant-71.png","icon_background_color":"#FF9E67","icon_mask_base_uri":"https://maps.gstatic.com/mapfiles/place_api/icons/v2/restaurant_pinlet","name":"Leonhard Diner","opening_hours":{"open_now":false},"photos":[{"height":3024,"html_attributions":["<a href=\"https://maps.google.com/maps/contrib/106796610051059231823\">Herbert H.</a>"],"photo_reference":"AeJbb3ec-rJHFsznPY5tbIaquwtRNcFWPKwziTBDYUnV9FF3gXySti5A-ydHZHG2-YX0tk4kpbzk0mIQEJRkRVzaMnn_ITb2xcsz23PNVa6Qdhj2_cnKGtNNVtvX9O0kq0qvSjugYDLc_l1RfEsk5A1xQEnLgfvyUGvRSGJukynI0Em9NrE7","width":4032}],"place_id":"ChIJrfL0eR16nkcR4PoXMKvTt30","plus_code":{"compound_code":"6FG7+RH Karlsfeld","global_code":"8FWH6FG7+RH"},"price_level":2,"rating":4.2,"reference":"ChIJrfL0eR16nkcR4PoXMKvTt30","types":["meal_takeaway","restaurant","food","point_of_interest","establishment"],"user_ratings_total":705},{"business_status":"OPERATIONAL","formatted_address":"Herzogstraße 93, 80796 München","geometry":{"location":{"lat":48.16273289999999,"lng":11.5718621},"viewport":{"northeast":{"lat":48.16410862989272,"lng":11.57321082989272},"southwest":{"lat":48.16140897010727,"lng":11.57051117010728}}},"icon":"https://maps.gstatic.com/mapfiles/place_api/icons/v1/png_71/restaurant-71.png","icon_background_color":"#FF9E67","icon_mask_base_uri":"https://maps.gstatic.com/mapfiles/place_api/icons/v2/restaurant_pinlet","name":"Tacos y Tequila","opening_hours":{"open_now":false},"photos":[{"height":1960,"html_attributions":["<a href=\"https://maps.google.com/maps/contrib/106675903225994849332\">Julia Harenz</a>"],"photo_reference":"AeJbb3cdski-hf_eZKSUiT0Pfnsd24ELwEdz9OYYf6DYmI1czHgsW10-0i934C6M8dkQWLcGhnTjDqDeHKjMVBmP1gtq71T8jOL9Yw4uKmEkKYeQOKa-uyTFKm8jXM_TlKb5KM79Wf2sTfhyU3ZD3yGtWPKEt5S2jWM2fZfY3B2xPNrcLhcy","width":4032}],"place_id":"ChIJpXUu1tp1nkcRzN-Z7vh77Ns","plus_code":{"compound_code":"5H7C+3Q Munich","global_code":"8FWH5H7C+3Q"},"price_level":2,"rating":4.2,"reference":"ChIJpXUu1tp1nkcRzN-Z7vh77Ns","types":["restaurant","food","point_of_interest","establishment"],"user_ratings_total":637},{"business_status":"OPERATIONAL","formatted_address":"Lindwurmstraße 57, 80337 München","geometry":{"location":{"lat":48.1302443,"lng":11.5603016},"viewport":{"northeast":{"lat":48.13160812989272,"lng":11.56152912989272},"southwest":{"lat":48.12890847010728,"lng":11.55882947010728}}},"icon":"https://maps.gstatic.com/mapfiles/place_api/icons/v1/png_71/restaurant-71.png","icon_background_color":"#FF9E67","icon_mask_base_uri":"https://maps.gstatic.com/mapfiles/place_api/icons/v2/restaurant_pinlet","name":"pureburrito I","opening_hours":{"open_now":false},"photos":[{"height":683,"html_attributions":["<a href=\"https://maps.google.com/maps/contrib/115449645385308009940\">pureburrito</a>"],"photo_reference":"AeJbb3c6THJBbv3ikJIs0biIs0ZKbiGB4PzaotzOEm5cAgyM7oPZjzuAdCbl-wNFeTYPqqtCcbFlCN0QPhmhvXFwLGfJAOOFlLQz4Q24FBsU5pY7KFRlGNkYv-8l29hYn_PEgdiZeqSa5fg5nwkF828_cWx9KuX2T27t_hG4wXDtFgTybLCN","width":684}],"place_id":"ChIJfwDOFVrfnUcRb5dZuSMKUww","plus_code":{"compound_code":"4HJ6+34 Munich","global_code":"8FWH4HJ6+34"},"price_level":1,"rating":4.2,"reference":"ChIJfwDOFVrfnUcRb5dZuSMKUww","types":["restaurant","cafe","food","point_of_interest","establishment"],"user_ratings_total":626},{"business_status":"OPERATIONAL","formatted_address":"Schellingstraße 104, 80798 München","geometry":{"location":{"lat":48.1534221,"lng":11.5654242},"viewport":{"northeast":{"lat":48.15469082989271,"lng":11.56680862989272},"southwest":{"lat":48.15199117010727,"lng":11.56410897010728}}},"icon":"https://maps.gstatic.com/mapfiles/place_api/icons/v1/png_71/restaurant-71.png","icon_background_color":"#FF9E67","icon_mask_base_uri":"https://maps.gstatic.com/mapfiles/place_api/icons/v2/restaurant_pinlet","name":"pureburrito II","opening_hours":{"open_now":false},"photos":[{"height":1080,"html_attributions":["<a href=\"https://maps.google.com/maps/contrib/106315457674712811857\">pureburrito (Mueller &amp; Wallendorf GbR)</a>"],"photo_reference":"AeJbb3df8YUMwrpJSZFHBawKH3-aAjRdF9EZO9GjSKOOzOLDqNOS_lxe3COk65y2Sb2y2ttzkSAlgDkrLORP28TLVq-hs_1LJdah8trvW6tH1nD_wUY2EjNigJ2oe2BxK1Xwi6Ba2bGrbDgBjzAKftvwc6djKa5R-DYy8WAvhZxAHfkU7rST","width":1080}],"place_id":"ChIJ7VQ_q-d1nkcRB1Q8Grg7W8U","plus_code":{"compound_code":"5H38+95 Munich","global_code":"8FWH5H38+95"},"price_level":1,"rating":4.2,"reference":"ChIJ7VQ_q-d1nkcRB1Q8Grg7W8U","types":["restaurant","food","point_of_interest","establishment"],"user_ratings_total":570},{"business_status":"OPERATIONAL","formatted_address":"2 Grand'Rue, 67000 Strasbourg, France","geometry":{"location":{"lat":48.582632,"lng":7.738970999999999},"viewport":{"northeast":{"lat":48.58401972989272,"lng":7.740420329892721},"southwest":{"lat":48.58132007010727,"lng":7.737720670107277}}},"icon":"https://maps.gstatic.com/mapfiles/place_api/icons/v1/png_71/restaurant-71.png","icon_background_color":"#FF9E67","icon_mask_base_uri":"https://maps.gstatic.com/mapfiles/place_api/icons/v2/restaurant_pinlet","name":"Lacocina","opening_hours":{"open_now":false},"photos":[{"height":2988,"html_attributions":["<a href=\"https://maps.google.com/maps/contrib/110502809009790846306\">Luan TRAN</a>"],"photo_reference":"AeJbb3euaZgrl0a4YdWtVqRix4Q0uUXKj6joTM-c9ZDaLcFpAfi5gYL6J67fyCJoqfwIGKJuHxMDPKk8u_xvDWpvT5A7Qk5L8WbbAo2zOCGsDZ7EcBPec1wFY8LKegudpYh5osLJmdbJyymZHBzT-x9kuj07QOrMga7p1LQPc63ooXArZ0nI","width":5312}],"place_id":"ChIJe9TT-ODIlkcRZF_fD4n_h6c","plus_code":{"compound_code":"HPMQ+3H Strasbourg, France","global_code":"8FW9HPMQ+3H"},"price_level":1,"rating":4.2,"reference":"ChIJe9TT-ODIlkcRZF_fD4n_h6c","types":["restaurant","food","point_of_interest","establishment"],"user_ratings_total":430},{"business_status":"OPERATIONAL","formatted_address":"Zweibrückenstraße 9, 80331 München","geometry":{"location":{"lat":48.133232,"lng":11.583598},"viewport":{"northeast":{"lat":48.13454972989271,"lng":11.58489922989272},"southwest":{"lat":48.13185007010727,"lng":11.58219957010728}}},"icon":"https://maps.gstatic.com/mapfiles/place_api/icons/v1/png_71/restaurant-71.png","icon_background_color":"#FF9E67","icon_mask_base_uri":"https://maps.gstatic.com/mapfiles/place_api/icons/v2/restaurant_pinlet","name":"La Taquería by Cometa","opening_hours":{"open_now":false},"photos":[{"height":3527,"html_attributions":["<a href=\"https://maps.google.com/maps/contrib/108977148825273334097\">A Google User</a>"],"photo_reference":"AeJbb3cnX5jJVGSYjN30Dtsm65fZs0CDcBIyhcvQkEsZJTLSZTeILG2Ktb0nCzg0G056Wncu_vdfVzZ81oGBcwjUTA_LDzrW0Z6vXZjvlQUS6gfCho3HOdxCWnCWyobr2zBk7uYuOYnJs6dpgt6tcdbVNNZzZ1kmszjWArOlkCVPspxuhU64","width":5291}],"place_id":"ChIJ-9GniGLfnUcRwLXKGbZzdik","plus_code":{"compound_code":"4HMM+7C Munich","global_code":"8FWH4HMM+7C"},"price_level":2,"rating":4.1,"reference":"ChIJ-9GniGLfnUcRwLXKGbZzdik","types":["restaurant","food","point_of_interest","establishment"],"user_ratings_total":1365},{"business_status":"OPERATIONAL","formatted_address":"Breisacher Str. 19, 81667 München","geometry":{"location":{"lat":48.13051590000001,"lng":11.6048196},"viewport":{"northeast":{"lat":48.13183582989272,"lng":11.60622497989272},"southwest":{"lat":48.12913617010728,"lng":11.60352532010728}}},"icon":"https://maps.gstatic.com/mapfiles/place_api/icons/v1/png_71/restaurant-71.png","icon_background_color":"#FF9E67","icon_mask_base_uri":"https://maps.gstatic.com/mapfiles/place_api/icons/v2/restaurant_pinlet","name":"EscoBar","opening_hours":{"open_now":false},"photos":[{"height":3000,"html_attributions":["<a href=\"https://maps.google.com/maps/contrib/101153392533075093513\">Thomas Stöhr</a>"],"photo_reference":"AeJbb3efzapd0pTELVwlMepVcumA3PPLo6HtrjOAAX611bGosKEIzgGevXNnNK-ey5juLSPvZquD66fk8uzhmu76D674xNJgb_f1UqQC6CVJ7OHgB7Bkdsl9biiNjZKsWw4jUMM-VMVHxwSmLyeUO4C-MKIHD_TAXXNJcrxU9RuZ70n1FVHW","width":4000}],"place_id":"ChIJvVuCtYDfnUcRiHCEosSM_eQ","plus_code":{"compound_code":"4JJ3+6W Munich","global_code":"8FWH4JJ3+6W"},"price_level":2,"rating":4.1,"reference":"ChIJvVuCtYDfnUcRiHCEosSM_eQ","types":["bar","restaurant","food","point_of_interest","establishment"],"user_ratings_total":1052},{"business_status":"OPERATIONAL","formatted_address":"Wilderich-Lang-Straße 4, 80634 München","geometry":{"location":{"lat":48.1482706,"lng":11.5355701},"viewport":{"northeast":{"lat":48.14960927989272,"lng":11.53686967989272},"southwest":{"lat":48.14690962010727,"lng":11.53417002010728}}},"icon":"https://maps.gstatic.com/mapfiles/place_api/icons/v1/png_71/restaurant-71.png","icon_background_color":"#FF9E67","icon_mask_base_uri":"https://maps.gstatic.com/mapfiles/place_api/icons/v2/restaurant_pinlet","name":"ZAPATA","opening_hours":{"open_now":false},"photos":[{"height":4000,"html_attributions":["<a href=\"https://maps.google.com/maps/contrib/100046577266572912730\">Thomas Liebhart</a>"],"photo_reference":"AeJbb3c6RBn8db9L4Zz5TkV_k6P2X5CRSUVykbfwFl4tUXUj-SnVPbZ5vwFoQbgO0qjyG4Z3fUH2AQX7HuvmWmtKUaECDDIpWhehpwO84gcE88tT4Htzhf8NrYPK6OTT9LMk-e0eGSWYbdwUbEh4ui52q2P-8HPKnPxHj2dVnUr0NJbG8rIL","width":3000}],"place_id":"ChIJCY7Cehp2nkcRZwRXuifQ0Og","plus_code":{"compound_code":"4GXP+86 Munich","global_code":"8FWH4GXP+86"},"price_level":2,"rating":4.1,"reference":"ChIJCY7Cehp2nkcRZwRXuifQ0Og","types":["bar","restaurant","food","point_of_interest","establishment"],"user_ratings_total":886},{"business_status":"OPERATIONAL","formatted_address":"Nymphenburger Str. 21, 80335 München","geometry":{"location":{"lat":48.1479923,"lng":11.5544798},"viewport":{"northeast":{"lat":48.14948717989272,"lng":11.55581967989272},"southwest":{"lat":48.14678752010727,"lng":11.55312002010728}}},"icon":"https://maps.gstatic.com/mapfiles/place_api/icons/v1/png_71/restaurant-71.png","icon_background_color":"#FF9E67","icon_mask_base_uri":"https://maps.gstatic.com/mapfiles/place_api/icons/v2/restaurant_pinlet","name":"GYM COOK","opening_hours":{"open_now":false},"photos":[{"height":3648,"html_attributions":["<a href=\"https://maps.google.com/maps/contrib/102944721827438861964\">Maximilian Salcher</a>"],"photo_reference":"AeJbb3c6_A_RFVtayEB9DwLPqQyGWdiU8jfrlIJrebYsfisVwRS2qUCKggwK8rf6By9-dxzFINwJtCaKa00fROd7tdnuFpzaKURPus8PVHoG1VgyTEy6WTkICfzOcCHyX7vFgnIYPBhvFBVazEnPaP5fVfDEjbEnKBLRlbn0acYHURdOO1zT","width":2736}],"place_id":"ChIJMafvouJ1nkcR9Bs2Nl8wfOo","plus_code":{"compound_code":"4HX3+5Q Munich","global_code":"8FWH4HX3+5Q"},"rating":4.1,"reference":"ChIJMafvouJ1nkcR9Bs2Nl8wfOo","types":["restaurant","food","point_of_interest","establishment"],"user_ratings_total":751},{"business_status":"OPERATIONAL","formatted_address":"Museumsinsel 1, Access via Ludwigsbrücke, 80538 München","geometry":{"location":{"lat":48.1314303,"lng":11.5860991},"viewport":{"northeast":{"lat":48.13294062989272,"lng":11.58721497989272},"southwest":{"lat":48.13024097010727,"lng":11.58451532010728}}},"icon":"https://maps.gstatic.com/mapfiles/place_api/icons/v1/png_71/restaurant-71.png","icon_background_color":"#FF9E67","icon_mask_base_uri":"https://maps.gstatic.com/mapfiles/place_api/icons/v2/restaurant_pinlet","name":"BLITZ Restaurant","opening_hours":{"open_now":false},"photos":[{"height":1632,"html_attributions":["<a href=\"https://maps.google.com/maps/contrib/109496983659120096533\">marion uschold</a>"],"photo_reference":"AeJbb3cBXe4o7gjeC7Z70xIsnKehXG8uQ4t4lkE0g2gvPsXuQzWCwP4yL1TRklVMn039svOyzJQMNI9XXxuu44TzUIOewci1ZMsic3es0OH94PrU4YMDoNpfEP2RZkdPw35YzcEXGBFiWo16K0_L3r8wsH5mBD_X8UPiqwOJumF4_kFwC1Wn","width":1224}],"place_id":"ChIJh7UfK33fnUcRYeRtXxLsbGI","plus_code":{"compound_code":"4HJP+HC Munich","global_code":"8FWH4HJP+HC"},"price_level":2,"rating":4.1,"reference":"ChIJh7UfK33fnUcRYeRtXxLsbGI","types":["restaurant","food","point_of_interest","establishment"],"user_ratings_total":333},{"business_status":"OPERATIONAL","formatted_address":"Schellingstraße 16, 80799 München","geometry":{"location":{"lat":48.149884,"lng":11.5777425},"viewport":{"northeast":{"lat":48.15119242989272,"lng":11.57904512989272},"southwest":{"lat":48.14849277010727,"lng":11.57634547010728}}},"icon":"https://maps.gstatic.com/mapfiles/place_api/icons/v1/png_71/restaurant-71.png","icon_background_color":"#FF9E67","icon_mask_base_uri":"https://maps.gstatic.com/mapfiles/place_api/icons/v2/restaurant_pinlet","name":"Pureburrito III","opening_hours":{"open_now":false},"photos":[{"height":4032,"html_attributions":["<a href=\"https://maps.google.com/maps/contrib/101222582204750860894\">A Google User</a>"],"photo_reference":"AeJbb3c7CUN-ybtq7-skyg4duWpKlPHJ2d3EgNf_jJO5cTdONRfMZLuBTYuL-IDjIVFctjY4W2bqKAcm2MTpp0AFUx_Zi2PeFI51UaPOnuI6QTGNT4GAhz_DcsHjwR0R4iqnwzsUdg_P-PDfSiBdVvjok3pwenbN9SoVZSyeo5YeOkZwCZL5","width":3024}],"place_id":"ChIJ7ZG1ZOt1nkcRNKJPxM1cS7Y","plus_code":{"compound_code":"4HXH+X3 Munich","global_code":"8FWH4HXH+X3"},"price_level":2,"rating":4.1,"reference":"ChIJ7ZG1ZOt1nkcRNKJPxM1cS7Y","types":["cafe","restaurant","food","point_of_interest","establishment"],"user_ratings_total":246},{"business_status":"OPERATIONAL","formatted_address":"Centre Commercial Rivetoile, 3 Pl. Dauphine, 67100 Strasbourg, France","geometry":{"location":{"lat":48.573518,"lng":7.7601595},"viewport":{"northeast":{"lat":48.57457272989272,"lng":7.761986379892721},"southwest":{"lat":48.57187307010728,"lng":7.759286720107277}}},"icon":"https://maps.gstatic.com/mapfiles/place_api/icons/v1/png_71/restaurant-71.png","icon_background_color":"#FF9E67","icon_mask_base_uri":"https://maps.gstatic.com/mapfiles/place_api/icons/v2/restaurant_pinlet","name":"Fresh Burritos","opening_hours":{"open_now":false},"photos":[{"height":1394,"html_attributions":["<a href=\"https://maps.google.com/maps/contrib/110898394321005860591\">A Google User</a>"],"photo_reference":"AeJbb3eV0qCeMVcqEYVaj3r8fy8T1uqliuhOcLdMBO1_ZCKRITgam76cm7brogx1ut_NfycD7eejm0cIKcUgrMn9EZi3XU9EQxUttIiaPG9db38rjFgWxjxkOxyxBkdZbvizA5h95UMuoZYT8CVTO7NICNYmxyZPGL1DRHCmxSkmeIZLCCYp","width":2106}],"place_id":"ChIJ5e9GdczJlkcRLkZq-Q-DnWA","plus_code":{"compound_code":"HQF6+C3 Strasbourg, France","global_code":"8FW9HQF6+C3"},"rating":4.1,"reference":"ChIJ5e9GdczJlkcRLkZq-Q-DnWA","types":["restaurant","food","point_of_interest","establishment"],"user_ratings_total":151},{"business_status":"OPERATIONAL","formatted_address":"Forstenrieder Allee 74, 81476 München","geometry":{"location":{"lat":48.09573899999999,"lng":11.497595},"viewport":{"northeast":{"lat":48.09703497989271,"lng":11.49922017989272},"southwest":{"lat":48.09433532010726,"lng":11.49652052010728}}},"icon":"https://maps.gstatic.com/mapfiles/place_api/icons/v1/png_71/restaurant-71.png","icon_background_color":"#FF9E67","icon_mask_base_uri":"https://maps.gstatic.com/mapfiles/place_api/icons/v2/restaurant_pinlet","name":"Marielitas München","opening_hours":{"open_now":false},"photos":[{"height":750,"html_attributions":["<a href=\"https://maps.google.com/maps/contrib/113843309685083845511\">Sonja Muenchen</a>"],"photo_reference":"AeJbb3cd65xAgYjoJPhtP3En2_cNxlVkjHqMJydDJzoRtje-erDA77lMcsCmV29sgW0ny2Ji0YjaHyh2_WvhPv5bppoXMABevaonqYcRedafexswU21aia-swzJJY73hJJGfK5Pire07sNSiraP_ggidfVDxN99bT-egpbayt1qZ7xQsIQBp","width":1000}],"place_id":"ChIJCwI33RvZnUcR5A6LxJDN4kQ","plus_code":{"compound_code":"3FWX+72 Munich","global_code":"8FWH3FWX+72"},"price_level":2,"rating":4.1,"reference":"ChIJCwI33RvZnUcR5A6LxJDN4kQ","types":["bar","meal_takeaway","restaurant","food","point_of_interest","establishment"],"user_ratings_total":65},{"business_status":"OPERATIONAL","formatted_address":"Leopoldstraße 42, 80802 München","geometry":{"location":{"lat":48.1568312,"lng":11.5848076},"viewport":{"northeast":{"lat":48.15822852989272,"lng":11.58593332989272},"southwest":{"lat":48.15552887010728,"lng":11.58323367010728}}},"icon":"https://maps.gstatic.com/mapfiles/place_api/icons/v1/png_71/restaurant-71.png","icon_background_color":"#FF9E67","icon_mask_base_uri":"https://maps.gstatic.com/mapfiles/place_api/icons/v2/restaurant_pinlet","name":"BENTO BOX - München","opening_hours":{"open_now":false},"photos":[{"height":2268,"html_attributions":["<a href=\"https://maps.google.com/maps/contrib/116516790328995402735\">Nathanael Kronski</a>"],"photo_reference":"AeJbb3cTbjDxkTJaRYV_0SR4bqCgOmSN6BIgrTyNB2hJWYo_UZL8CqLfcpr6A_y4w3ahafjVkA8Z6O5GL_LjFGQGCVggdCoOJZ8gtjoib2s9T-YhF_a0-EGKGo6BfGQPSE082cyDye13QpGLbGLpWbjzdRvweQem2UtfThPOTMmMEp5O5UDf","width":4032}],"place_id":"ChIJUWFHDb91nkcRs5VWZB5ZGd4","plus_code":{"compound_code":"5H4M+PW Munich","global_code":"8FWH5H4M+PW"},"price_level":2,"rating":4,"reference":"ChIJUWFHDb91nkcRs5VWZB5ZGd4","types":["restaurant","food","point_of_interest","establishment"],"user_ratings_total":880},{"business_status":"OPERATIONAL","formatted_address":"Häberlstraße 15, 80337 München","geometry":{"location":{"lat":48.1276796,"lng":11.5585705},"viewport":{"northeast":{"lat":48.12900972989272,"lng":11.55984682989272},"southwest":{"lat":48.12631007010727,"lng":11.55714717010728}}},"icon":"https://maps.gstatic.com/mapfiles/place_api/icons/v1/png_71/restaurant-71.png","icon_background_color":"#FF9E67","icon_mask_base_uri":"https://maps.gstatic.com/mapfiles/place_api/icons/v2/restaurant_pinlet","name":"Olé Madrid","opening_hours":{"open_now":false},"photos":[{"height":3024,"html_attributions":["<a href=\"https://maps.google.com/maps/contrib/115389648423447178634\">Alban Fazliu</a>"],"photo_reference":"AeJbb3eajEH3aK_vGYg3yb3wDXO5He8jx5qG_6tlDiu5yyUV1LXyPZVrfNNfaJPsKiymrVhxW9vlsqyyxo23Q2X8hRF6n1UQFjruWUTLc82fc9fNiRaMGHINaGV6sU7PoeEbTmgpvylr8f34iZhI9UE20vl-ke60rQlhhcGhwfvbZbngRR3z","width":4032}],"place_id":"ChIJw2Y5o1rfnUcRbXiNefpWvsg","plus_code":{"compound_code":"4HH5+3C Munich","global_code":"8FWH4HH5+3C"},"price_level":2,"rating":4,"reference":"ChIJw2Y5o1rfnUcRbXiNefpWvsg","types":["bar","restaurant","food","point_of_interest","establishment"],"user_ratings_total":483},{"business_status":"OPERATIONAL","formatted_address":"Tal 16, 80331 München","geometry":{"location":{"lat":48.1358611,"lng":11.5788646},"viewport":{"northeast":{"lat":48.13731692989272,"lng":11.58027502989272},"southwest":{"lat":48.13461727010728,"lng":11.57757537010728}}},"icon":"https://maps.gstatic.com/mapfiles/place_api/icons/v1/png_71/bar-71.png","icon_background_color":"#FF9E67","icon_mask_base_uri":"https://maps.gstatic.com/mapfiles/place_api/icons/v2/bar_pinlet","name":"Sausalitos","opening_hours":{"open_now":false},"photos":[{"height":3456,"html_attributions":["<a href=\"https://maps.google.com/maps/contrib/106319307634182505889\">Juliana Schnelldorfer</a>"],"photo_reference":"AeJbb3dl-Pn_tFL-7n76Pi0BTCuSg9PtMyMoSxe9rnRrRqeAV8HtaRRYbGgLojf9c5KVYOnCIV9WP4HiQIx3VS2JiGsd3u4K-SutdQRZXdvC4Z8790RKxfGUJdzIO8g-DoiSwB8jPw6JrG7umNRBj15q1ooMtQOk-mr1h9K1t-G5DsbfUCV_","width":3456}],"place_id":"ChIJiw01Qop1nkcRvZRx8z-Unbo","plus_code":{"compound_code":"4HPH+8G Munich","global_code":"8FWH4HPH+8G"},"price_level":2,"rating":3.9,"reference":"ChIJiw01Qop1nkcRvZRx8z-Unbo","types":["bar","restaurant","food","point_of_interest","establishment"],"user_ratings_total":3620},{"business_status":"OPERATIONAL","formatted_address":"Thalkirchner Str. 71, 80337 München","geometry":{"location":{"lat":48.1211355,"lng":11.5573089},"viewport":{"northeast":{"lat":48.12252627989272,"lng":11.55857177989272},"southwest":{"lat":48.11982662010728,"lng":11.55587212010728}}},"icon":"https://maps.gstatic.com/mapfiles/place_api/icons/v1/png_71/restaurant-71.png","icon_background_color":"#FF9E67","icon_mask_base_uri":"https://maps.gstatic.com/mapfiles/place_api/icons/v2/restaurant_pinlet","name":"Los Bandidos München","opening_hours":{"open_now":false},"photos":[{"height":2240,"html_attributions":["<a href=\"https://maps.google.com/maps/contrib/117301088520216431415\">Faisal Abdullah</a>"],"photo_reference":"AeJbb3cg_uJhmVfma9HmRPLyeJtDpkvIcPfhJxH8gODUOyJl9BhcOAsGqAy6S3JQDtg-i2dgvZckBWh5LTzCzyGtquVjsALUMJglmqcFfl5yDN0hFIMAY621vGOGvomuXYAju6UaZtrVsUGal2Hm4eJC4AB2gKUJdmVrGGzJpWyfqxwxu-q3","width":4000}],"place_id":"ChIJy0uYc0bfnUcRTA_fHmGBVwU","plus_code":{"compound_code":"4HC4+FW Munich","global_code":"8FWH4HC4+FW"},"price_level":2,"rating":3.9,"reference":"ChIJy0uYc0bfnUcRTA_fHmGBVwU","types":["restaurant","food","point_of_interest","establishment"],"user_ratings_total":827},{"business_status":"OPERATIONAL","formatted_address":"Amalienstraße 69, 80799 München","geometry":{"location":{"lat":48.1503982,"lng":11.5783367},"viewport":{"northeast":{"lat":48.15171037989272,"lng":11.57974537989272},"southwest":{"lat":48.14901072010728,"lng":11.57704572010728}}},"icon":"https://maps.gstatic.com/mapfiles/place_api/icons/v1/png_71/restaurant-71.png","icon_background_color":"#FF9E67","icon_mask_base_uri":"https://maps.gstatic.com/mapfiles/place_api/icons/v2/restaurant_pinlet","name":"Taco Company","opening_hours":{"open_now":false},"photos":[{"height":3024,"html_attributions":["<a href=\"https://maps.google.com/maps/contrib/114096850521907914257\">Sebastian Thauer</a>"],"photo_reference":"AeJbb3cWYPOuyfvwYfiaG3M_gGcyspq-DaFl4ZYfAwkWpOkZlq_CvHH7Aw7-MtDTpS1OmQPlWs28q4T93LDYXwkhchs9rgJH-5GONlL290kQrFUg5TK8Jtv-1_lRTa8csZjxdy0o_xrAV2jnxYTXcKe3J2gO6Hx01yJ0bRrlDbLIe6gPGPho","width":4032}],"place_id":"ChIJrRDU35R1nkcRL24g7x0s5Aw","plus_code":{"compound_code":"5H2H+58 Munich","global_code":"8FWH5H2H+58"},"rating":3.9,"reference":"ChIJrRDU35R1nkcRL24g7x0s5Aw","types":["meal_takeaway","restaurant","food","point_of_interest","establishment"],"user_ratings_total":287},{"business_status":"OPERATIONAL","formatted_address":"Schloßstraße 24, 85256 Vierkirchen","geometry":{"location":{"lat":48.3610552,"lng":11.4446083},"viewport":{"northeast":{"lat":48.36238942989272,"lng":11.44607107989272},"southwest":{"lat":48.35968977010728,"lng":11.44337142010728}}},"icon":"https://maps.gstatic.com/mapfiles/place_api/icons/v1/png_71/restaurant-71.png","icon_background_color":"#FF9E67","icon_mask_base_uri":"https://maps.gstatic.com/mapfiles/place_api/icons/v2/restaurant_pinlet","name":"La Vida Mexicana Vierkirchen","opening_hours":{"open_now":false},"photos":[{"height":575,"html_attributions":["<a href=\"https://maps.google.com/maps/contrib/111365310070504429606\">A Google User</a>"],"photo_reference":"AeJbb3eQ4PumCYzVReFmmsZdmkgQuZQxN8BY7SJP0ey5u5gsO3kX5Sg7fozFjiumBYWyxyTg8zKJVOkJDzu-AEWMDkxmrYb9LWe5YNqq9T19H9BZiJpRD3_ORBRpV_NqIgWcbos1za-ko3RM5yYZ6uPXCeeUzsKj14dVitoCuEKbkHVN2Ncn","width":1024}],"place_id":"ChIJ2wF35QdlnkcRHLWmIdRpPMQ","plus_code":{"compound_code":"9C6V+CR Vierkirchen","global_code":"8FWH9C6V+CR"},"price_level":1,"rating":3.9,"reference":"ChIJ2wF35QdlnkcRHLWmIdRpPMQ","types":["bar","meal_takeaway","restaurant","food","point_of_interest","establishment"],"user_ratings_total":97},{"business_status":"OPERATIONAL","formatted_address":"Karlsplatz 1. UG Stachus Passagen, 80335 München","geometry":{"location":{"lat":48.1392287,"lng":11.5659314},"viewport":{"northeast":{"lat":48.14061472989272,"lng":11.56714557989272},"southwest":{"lat":48.13791507010728,"lng":11.56444592010728}}},"icon":"https://maps.gstatic.com/mapfiles/place_api/icons/v1/png_71/restaurant-71.png","icon_background_color":"#FF9E67","icon_mask_base_uri":"https://maps.gstatic.com/mapfiles/place_api/icons/v2/restaurant_pinlet","name":"pureburrito V","opening_hours":{"open_now":false},"photos":[{"height":2667,"html_attributions":["<a href=\"https://maps.google.com/maps/contrib/118084492484698441166\">A Google User</a>"],"photo_reference":"AeJbb3dkhMtCix6hEyAczWq9V32baJ-tpu9nkZAf3nLML3ZzWxLphvaVu1SThyLG93bRxi423H_Q2VYoJISlo8SS_eQbmyhYQ8Wvfn5QX1ib9eqytzregMGcarYcafORyfyiD-NrS--yNogfcEqlPdgQKEaSlps9er2FyluFCzU8skbZvz7C","width":4000}],"place_id":"ChIJu3RthmJ1nkcRAjNwcZ2tH6I","plus_code":{"compound_code":"4HQ8+M9 Munich","global_code":"8FWH4HQ8+M9"},"rating":3.9,"reference":"ChIJu3RthmJ1nkcRAjNwcZ2tH6I","types":["meal_takeaway","restaurant","food","point_of_interest","establishment"],"user_ratings_total":33},{"business_status":"OPERATIONAL","formatted_address":"Schwanthalerstraße 3, 80336 München","geometry":{"location":{"lat":48.1372868,"lng":11.5637665},"viewport":{"northeast":{"lat":48.13869307989272,"lng":11.56511662989272},"southwest":{"lat":48.13599342010728,"lng":11.56241697010728}}},"icon":"https://maps.gstatic.com/mapfiles/place_api/icons/v1/png_71/restaurant-71.png","icon_background_color":"#FF9E67","icon_mask_base_uri":"https://maps.gstatic.com/mapfiles/place_api/icons/v2/restaurant_pinlet","name":"La Fiesta Muenchen Cantina y Bar Mexicano","opening_hours":{"open_now":false},"photos":[{"height":3024,"html_attributions":["<a href=\"https://maps.google.com/maps/contrib/111993804775028424311\">Udo von Schlegel</a>"],"photo_reference":"AeJbb3dTVCsvlgHb556AaJQCEqDMW7cLPlGODFoR-lgOkSmgJQSTLS-ZniWg6Z5tV-BXM0jjX9eRHzVct5iPq8dPKKb7Wq3hW2jS0zzIdzTIzKleYdrlyMwAu5AfC-xGLIOHXJkND71PwSrVrIfcHc94u9yk0R9fhaFBqHRCO9w5-aAtyptr","width":4032}],"place_id":"ChIJ9Tfpvvd1nkcR7OBLWawUFDU","plus_code":{"compound_code":"4HP7+WG Munich","global_code":"8FWH4HP7+WG"},"price_level":2,"rating":3.8,"reference":"ChIJ9Tfpvvd1nkcR7OBLWawUFDU","types":["restaurant","food","point_of_interest","establishment"],"user_ratings_total":1423},{"business_status":"OPERATIONAL","formatted_address":"6 Rue des Grandes Arcades, 67000 Strasbourg, France","geometry":{"location":{"lat":48.5829653,"lng":7.7467449},"viewport":{"northeast":{"lat":48.58436767989271,"lng":7.748571479892721},"southwest":{"lat":48.58166802010727,"lng":7.745871820107277}}},"icon":"https://maps.gstatic.com/mapfiles/place_api/icons/v1/png_71/restaurant-71.png","icon_background_color":"#FF9E67","icon_mask_base_uri":"https://maps.gstatic.com/mapfiles/place_api/icons/v2/restaurant_pinlet","name":"Fresh Burritos Strasbourg","opening_hours":{"open_now":false},"photos":[{"height":3456,"html_attributions":["<a href=\"https://maps.google.com/maps/contrib/113607742556205889813\">Fresh Burritos Strasbourg</a>"],"photo_reference":"AeJbb3cMGIsyrPqxPHDYMH4AayaT7RsKrpfxW2A23CL49p-ZmHaEsFOHvpc4IfpEYeDD8bEVACfLBydtTDcCZMPUduHoNFxzocPc9bGwpkIaWyGR6XMlDKHupchgRcvgMV_NvWRcGo9U026dJuNx_Mn2ATBnNv6Us1xKtjGHkDpLtHEjNZRp","width":5184}],"place_id":"ChIJg3wBYkzIlkcRO60orv1wSNc","plus_code":{"compound_code":"HPMW+5M Strasbourg, France","global_code":"8FW9HPMW+5M"},"price_level":1,"rating":3.8,"reference":"ChIJg3wBYkzIlkcRO60orv1wSNc","types":["restaurant","food","point_of_interest","establishment"],"user_ratings_total":778},{"business_status":"OPERATIONAL","formatted_address":"Starnberger Weg 56, 82110 Germering","geometry":{"location":{"lat":48.1143978,"lng":11.3504829},"viewport":{"northeast":{"lat":48.11589622989272,"lng":11.35216742989272},"southwest":{"lat":48.11319657010728,"lng":11.34946777010728}}},"icon":"https://maps.gstatic.com/mapfiles/place_api/icons/v1/png_71/restaurant-71.png","icon_background_color":"#FF9E67","icon_mask_base_uri":"https://maps.gstatic.com/mapfiles/place_api/icons/v2/restaurant_pinlet","name":"El Diablo","opening_hours":{"open_now":false},"photos":[{"height":900,"html_attributions":["<a href=\"https://maps.google.com/maps/contrib/104407157257874834654\">A Google User</a>"],"photo_reference":"AeJbb3dus9jEtk7VmOY1mi0X0mryW_Ujbrc_yfDO_-AR0DsGjRHT4VTqfuNNSZhwussP5vUJNGKbo3j8KGSqw95_OGe3cA7mGM9RzESbd9nn9qfzZESZt4SAoKPj-blsh6BWj6xZmJzCbcObtS7PFAfM7JGW5OkJwnjJsUVGSo5IXWXr84Ft","width":1600}],"place_id":"ChIJ3V_LsovWnUcRTH866VUgLV8","plus_code":{"compound_code":"4972+Q5 Germering","global_code":"8FWH4972+Q5"},"price_level":2,"rating":3.8,"reference":"ChIJ3V_LsovWnUcRTH866VUgLV8","types":["restaurant","food","point_of_interest","establishment"],"user_ratings_total":275},{"business_status":"OPERATIONAL","formatted_address":"Leopoldstraße 44, 80802 München","geometry":{"location":{"lat":48.157003,"lng":11.584972},"viewport":{"northeast":{"lat":48.15847352989271,"lng":11.58611402989272},"southwest":{"lat":48.15577387010727,"lng":11.58341437010728}}},"icon":"https://maps.gstatic.com/mapfiles/place_api/icons/v1/png_71/restaurant-71.png","icon_background_color":"#FF9E67","icon_mask_base_uri":"https://maps.gstatic.com/mapfiles/place_api/icons/v2/restaurant_pinlet","name":"Don Luca","opening_hours":{"open_now":false},"photos":[{"height":3024,"html_attributions":["<a href=\"https://maps.google.com/maps/contrib/113940539661905250932\">A Google User</a>"],"photo_reference":"AeJbb3dyUTiSUsYE2W4ZPDlAXsJRwIkXxFyjP6F3kzokAj3DqOCavKaU0SE0NPM-6McXkkiKtJlx5TX60NrMw23VNMA6iYrwFw5lOspXGTNpZg4hogxkqVak7gtHeQXFoAIDtDiBjyIx75-gDdYgRmdKeZuIPWO5K-_dwdcvk-3SCLLzlL4M","width":4032}],"place_id":"ChIJpWq5bb91nkcRI0b_AjAvh5E","plus_code":{"compound_code":"5H4M+RX Munich","global_code":"8FWH5H4M+RX"},"price_level":2,"rating":3.6,"reference":"ChIJpWq5bb91nkcRI0b_AjAvh5E","types":["bar","restaurant","food","point_of_interest","establishment"],"user_ratings_total":1321},{"business_status":"OPERATIONAL","formatted_address":"Orleanspl. 10, 81667 München","geometry":{"location":{"lat":48.1279176,"lng":11.60477},"viewport":{"northeast":{"lat":48.12934462989273,"lng":11.60590892989272},"southwest":{"lat":48.12664497010729,"lng":11.60320927010727}}},"icon":"https://maps.gstatic.com/mapfiles/place_api/icons/v1/png_71/restaurant-71.png","icon_background_color":"#FF9E67","icon_mask_base_uri":"https://maps.gstatic.com/mapfiles/place_api/icons/v2/restaurant_pinlet","name":"Mishba","opening_hours":{"open_now":false},"photos":[{"height":3648,"html_attributions":["<a href=\"https://maps.google.com/maps/contrib/112250467418607756906\">A Google User</a>"],"photo_reference":"AeJbb3dCLy-mAhCtmiiYqYqScQNVCeIoh12Y3tzUcZBpfBxFciQCEf3chizx-1ewr58bdgmxRVCi9WjwDLY7kd0KxJiVTV90G9hTFlt-zeiRE448ui-bLpToKAg26JyV2PSUmnnFwauiAV_jftUmkFXTZWC0-RVwS_hwJtU_vaqk7HxdvsrR","width":5472}],"place_id":"ChIJU2batobfnUcRFmrPxab68QM","plus_code":{"compound_code":"4JH3+5W Munich","global_code":"8FWH4JH3+5W"},"price_level":1,"rating":3.4,"reference":"ChIJU2batobfnUcRFmrPxab68QM","types":["restaurant","food","point_of_interest","establishment"],"user_ratings_total":179},{"business_status":"OPERATIONAL","formatted_address":"Leopoldstraße 13A, 80802 München","geometry":{"location":{"lat":48.1558687,"lng":11.5832352},"viewport":{"northeast":{"lat":48.15716797989272,"lng":11.58480057989272},"southwest":{"lat":48.15446832010728,"lng":11.58210092010728}}},"icon":"https://maps.gstatic.com/mapfiles/place_api/icons/v1/png_71/restaurant-71.png","icon_background_color":"#FF9E67","icon_mask_base_uri":"https://maps.gstatic.com/mapfiles/place_api/icons/v2/restaurant_pinlet","name":"TIJUANA Café","opening_hours":{"open_now":false},"photos":[{"height":2448,"html_attributions":["<a href=\"https://maps.google.com/maps/contrib/110584393543543816458\">Basko Damalia</a>"],"photo_reference":"AeJbb3d2qNFmbVbqhspQClbB_d87FmeFnl6nEV_fnJxDiAIOK7DVDsd2DwQ1nm7dkUOzcjOMrIEzFCCzCKPHr7uFKrKaL9JAU4rJiYaSj07Svj8wm522CUILudeb_q5kDTqStKTT_SnHW54pYuK4XqAUjIFT33QAmJdIcw7GzudU_GixVhAl","width":3264}],"place_id":"ChIJI9FJdMB1nkcRC32DTqPXMFw","plus_code":{"compound_code":"5H4M+87 Munich","global_code":"8FWH5H4M+87"},"price_level":2,"rating":3.2,"reference":"ChIJI9FJdMB1nkcRC32DTqPXMFw","types":["restaurant","bar","food","point_of_interest","establishment"],"user_ratings_total":367},{"business_status":"OPERATIONAL","formatted_address":"Martiusstraße, 80802 München","geometry":{"location":{"lat":48.1570675,"lng":11.5848857},"viewport":{"northeast":{"lat":48.15849772989272,"lng":11.58607087989272},"southwest":{"lat":48.15579807010727,"lng":11.58337122010728}}},"icon":"https://maps.gstatic.com/mapfiles/place_api/icons/v1/png_71/restaurant-71.png","icon_background_color":"#FF9E67","icon_mask_base_uri":"https://maps.gstatic.com/mapfiles/place_api/icons/v2/restaurant_pinlet","name":"Cantina Mexicana","photos":[{"height":2736,"html_attributions":["<a href=\"https://maps.google.com/maps/contrib/115666869349792476683\">Matheus Queiroz</a>"],"photo_reference":"AeJbb3cxhzNWbY5_ERNeAj9mA2crLPiZAZ1G4Nvx_7JVRCN43GZaB1mgg0D7GYsRB_74SFSz5gDoTzjK0jRaHBvRynMp_M733w6ELoENyyVTWx8DRMpoTWSCFSUa3tkSsQnzjTZJdrqnECtPb7dMwlO5NFR6g9iHy7QY7S-CFNWo9QlWt6n0","width":3648}],"place_id":"ChIJeaO-Er91nkcRJqbdWA0ElKM","plus_code":{"compound_code":"5H4M+RX Munich","global_code":"8FWH5H4M+RX"},"rating":3.2,"reference":"ChIJeaO-Er91nkcRJqbdWA0ElKM","types":["restaurant","food","point_of_interest","establishment"],"user_ratings_total":34},{"business_status":"OPERATIONAL","formatted_address":"Drygalski-Allee 117, 81477 München","geometry":{"location":{"lat":48.0822776,"lng":11.5043221},"viewport":{"northeast":{"lat":48.08351612989272,"lng":11.50562167989272},"southwest":{"lat":48.08081647010728,"lng":11.50292202010728}}},"icon":"https://maps.gstatic.com/mapfiles/place_api/icons/v1/png_71/restaurant-71.png","icon_background_color":"#FF9E67","icon_mask_base_uri":"https://maps.gstatic.com/mapfiles/place_api/icons/v2/restaurant_pinlet","name":"Pizzeria Jalapenos München","opening_hours":{"open_now":false},"photos":[{"height":1920,"html_attributions":["<a href=\"https://maps.google.com/maps/contrib/108867637879437151166\">Arinna luu</a>"],"photo_reference":"AeJbb3cyBfvwXwW0CHAT3aRQWASchD_9vMJWdzWhvIu6JKi2mzDWv0dk9JU_hHNEmjiJToXaZWAOq8W1RM2EKe-Bo48bgY-eZX2Ua7O9kQ9khoLTDBiCk62nKQ6GgQisd3okUG8mMWkTpdpDigbSaaEEPsEpwWF-xY93ROc-Q99MbyBdbepo","width":1080}],"place_id":"ChIJrdrHaD_ZnUcRJwDWvVY46uE","plus_code":{"compound_code":"3GJ3+WP Munich","global_code":"8FWH3GJ3+WP"},"rating":3.1,"reference":"ChIJrdrHaD_ZnUcRJwDWvVY46uE","types":["meal_delivery","meal_takeaway","restaurant","food","point_of_interest","establishment"],"user_ratings_total":13},{"business_status":"OPERATIONAL","formatted_address":"Nymphenburger Str. 25, 80335 München","geometry":{"location":{"lat":48.1481565,"lng":11.5537717},"viewport":{"northeast":{"lat":48.14960232989272,"lng":11.55513102989272},"southwest":{"lat":48.14690267010728,"lng":11.55243137010728}}},"icon":"https://maps.gstatic.com/mapfiles/place_api/icons/v1/png_71/restaurant-71.png","icon_background_color":"#FF9E67","icon_mask_base_uri":"https://maps.gstatic.com/mapfiles/place_api/icons/v2/restaurant_pinlet","name":"Corazon - Mexican Streetfood","place_id":"ChIJO_P2nN51nkcRUt_VgaFB__4","plus_code":{"compound_code":"4HX3+6F Munich","global_code":"8FWH4HX3+6F"},"rating":2.6,"reference":"ChIJO_P2nN51nkcRUt_VgaFB__4","types":["restaurant","food","point_of_interest","establishment"],"user_ratings_total":11},{"business_status":"OPERATIONAL","formatted_address":"Frauenstraße 15, 80469 München","geometry":{"location":{"lat":48.1346222,"lng":11.5786481},"viewport":{"northeast":{"lat":48.13591247989272,"lng":11.58000867989272},"southwest":{"lat":48.13321282010728,"lng":11.57730902010728}}},"icon":"https://maps.gstatic.com/mapfiles/place_api/icons/v1/png_71/restaurant-71.png","icon_background_color":"#FF9E67","icon_mask_base_uri":"https://maps.gstatic.com/mapfiles/place_api/icons/v2/restaurant_pinlet","name":"Burrito Company München Viktualienmarkt","place_id":"ChIJWXtVmKN1nkcRze6FwhRIrhc","plus_code":{"compound_code":"4HMH+RF Munich","global_code":"8FWH4HMH+RF"},"rating":0,"reference":"ChIJWXtVmKN1nkcRze6FwhRIrhc","types":["restaurant","food","point_of_interest","establishment"],"user_ratings_total":0},{"business_status":"OPERATIONAL","formatted_address":"Agnesstraße 54, 80798 München","geometry":{"location":{"lat":48.1584107,"lng":11.5635759},"viewport":{"northeast":{"lat":48.15966577989272,"lng":11.56491277989272},"southwest":{"lat":48.15696612010728,"lng":11.56221312010728}}},"icon":"https://maps.gstatic.com/mapfiles/place_api/icons/v1/png_71/restaurant-71.png","icon_background_color":"#FF9E67","icon_mask_base_uri":"https://maps.gstatic.com/mapfiles/place_api/icons/v2/restaurant_pinlet","name":"Burrito Company München Neuschwabing","place_id":"ChIJjaT8D5p1nkcRlvEU-rJCs4s","plus_code":{"compound_code":"5H57+9C Munich","global_code":"8FWH5H57+9C"},"rating":0,"reference":"ChIJjaT8D5p1nkcRlvEU-rJCs4s","types":["restaurant","food","point_of_interest","establishment"],"user_ratings_total":0},{"business_status":"OPERATIONAL","formatted_address":"Floßhafenstraße 7, 97318 Kitzingen","geometry":{"location":{"lat":49.7235463,"lng":10.1564705},"viewport":{"northeast":{"lat":49.72490437989272,"lng":10.15783402989272},"southwest":{"lat":49.72220472010728,"lng":10.15513437010728}}},"icon":"https://maps.gstatic.com/mapfiles/place_api/icons/v1/png_71/restaurant-71.png","icon_background_color":"#FF9E67","icon_mask_base_uri":"https://maps.gstatic.com/mapfiles/place_api/icons/v2/restaurant_pinlet","name":"Los Burritos Kitzingen","opening_hours":{"open_now":false},"photos":[{"height":1920,"html_attributions":["<a href=\"https://maps.google.com/maps/contrib/117239493542328340220\">Fli Warschi</a>"],"photo_reference":"AeJbb3d8j6f4OTHDIXY1cK-_qOAzspFfvfZ5C6uouvVBbvepOvizKquf6OgNPQWwxTxU3tFDn5-TXQPOgkJ4tjRm6I-jVFz4EnPeCJUpmbIidUG_IEH2s_UmBXLSkQFIfwI6htod_5gxpAW243Wk2AUZjOwNncFN2kWspsiEu0L5ZBK3D4nf","width":1080}],"place_id":"ChIJG8gtij99okcRTBwt1YJ6Ihk","plus_code":{"compound_code":"P5F4+CH Kitzingen","global_code":"8FXGP5F4+CH"},"rating":0,"reference":"ChIJG8gtij99okcRTBwt1YJ6Ihk","types":["restaurant","food","point_of_interest","establishment"],"user_ratings_total":0}]