[{"business_status":"OPERATIONAL","formatted_address":"Altheimer Eck 9, 80331 München","geometry":{"location":{"lat":48.1373639,"lng":11.5705699},"viewport":{"northeast":{"lat":48.13874737989273,"lng":11.57192527989272},"southwest":{"lat":48.13604772010728,"lng":11.56922562010728}}},"icon":"https://maps.gstatic.com/mapfiles/place_api/icons/v1/png_71/restaurant-71.png","icon_background_color":"#FF9E67","icon_mask_base_uri":"https://maps.gstatic.com/mapfiles/place_api/icons/v2/restaurant_pinlet","name":"plänty SANDWICHES","opening_hours":{"open_now":true},"photos":[{"height":3024,"html_attributions":["<a href=\"https://maps.google.com/maps/contrib/114417378655813704855\">A Google User</a>"],"photo_reference":"AeJbb3f5FWajIAw95Uq4vQfe5FQ_FX0fFR5-ExSr_1ZlprWamF265KLCmyk_NGByVQ6d-RFn1I0T3JnXrful9DEGrIMtljD_r2bFUIUghkEt5PDD5LawBrq8nzDwg0hz85BkRThdqMcxmfdj0UH08m_zJf7zvp970h1Tte4trVWLtAZo5oV9","width":4032}],"place_id":"ChIJ17EkeC11nkcRWYx7iLY6hjk","plus_code":{"compound_code":"4HPC+W6 Munich","global_code":"8FWH4HPC+W6"},"rating":4.9,"reference":"ChIJ17EkeC11nkcRWYx7iLY6hjk","types":["restaurant","food","point_of_interest","establishment"],"user_ratings_total":143},{"business_status":"OPERATIONAL","formatted_address":"Münchner Freiheit 6, 80802 München","geometry":{"location":{"lat":48.1622215,"lng":11.5871673},"viewport":{"northeast":{"lat":48.16361262989273,"lng":11.58852687989272},"southwest":{"lat":48.16091297010728,"lng":11.58582722010728}}},"icon":"https://maps.gstatic.com/mapfiles/place_api/icons/v1/png_71/restaurant-71.png","icon_background_color":"#FF9E67","icon_mask_base_uri":"https://maps.gstatic.com/mapfiles/place_api/icons/v2/restaurant_pinlet","name":"CONDESA - Authentic Mexican Taste - Münchner Freiheit","opening_hours":{"open_now":true},"photos":[{"height":4032,"html_attributions":["<a href=\"https://maps.google.com/maps/contrib/107493442119720342880\">Matthias Roell</a>"],"photo_reference":"AeJbb3eXQSBXl-wJaLewNake3sLbStPCLdwXx9imCvA0h978C78ACfNhYGSrT-aebUEh97qxk2IZ2rge9yXrw6Tmq5-f0uZdLbKZJ51T7i4ejdY_pudiG3KZeRfIJLT-71bI7yX90nHuQm8GB2Amu7qkW4D001Ht4Lu5akllrhJqsl5LL5pI","width":3024}],"place_id":"ChIJwUCcQbh1nkcRpT0HcxtOHmU","plus_code":{"compound_code":"5H6P+VV Munich","global_code":"8FWH5H6P+VV"},"price_level":1,"rating":4.5,"reference":"ChIJwUCcQbh1nkcRpT0HcxtOHmU","types":["restaurant","food","point_of_interest","establishment"],"user_ratings_total":2250},{"business_status":"OPERATIONAL","formatted_address":"Atelierstraße 1, 81671 München","geometry":{"location":{"lat":48.1256108,"lng":11.6056787},"viewport":{"northeast":{"lat":48.12689757989272,"lng":11.60691817989272},"southwest":{"lat":48.12419792010728,"lng":11.60421852010728}}},"icon":"https://maps.gstatic.com/mapfiles/place_api/icons/v1/png_71/generic_business-71.png","icon_background_color":"#7B9EB0","icon_mask_base_uri":"https://maps.gstatic.com/mapfiles/place_api/icons/v2/generic_pinlet","name":"Werksviertel-Mitte","opening_hours":{"open_now":true},"photos":[{"height":1280,"html_attributions":["<a href=\"https://maps.google.com/maps/contrib/117860006123644657922\">A Google User</a>"],"photo_reference":"AeJbb3fY4Lv3WioBFFy5Au5Wwh0X3qH6ceLVY6CUpbiYyGpDtRVel2qCIOS8cs-3IptUrG2c9iW_tcsCCOoEql80hBZSI1AFeALjomMwDxELHtjD-bej9fzdFUfgekgKErfD7TamdyINMLWoZmL6j5r9h8UwrBgJEwzLjciJH2bCy5_pYmp0","width":1920}],"place_id":"ChIJ8R4_N4TfnUcRTo4ikL77OEI","plus_code":{"compound_code":"4JG4+67 Munich","global_code":"8FWH4JG4+67"},"rating":4.5,"reference":"ChIJ8R4_N4TfnUcRTo4ikL77OEI","types":["bar","meal_takeaway","restaurant","food","point_of_interest","establishment"],"user_ratings_total":1572},{"business_status":"OPERATIONAL","formatted_address":"Baaderstraße 68, 80469 München","geometry":{"location":{"lat":48.1290189,"lng":11.5765854},"viewport":{"northeast":{"lat":48.13035327989272,"lng":11.57797007989272},"southwest":{"lat":48.12765362010728,"lng":11.57527042010728}}},"icon":"https://maps.gstatic.com/mapfiles/place_api/icons/v1/png_71/restaurant-71.png","icon_background_color":"#FF9E67","icon_mask_base_uri":"https://maps.gstatic.com/mapfiles/place_api/icons/v2/restaurant_pinlet","name":"Burrito Company München Glockenbach","opening_hours":{"open_now":false},"photos":[{"height":1080,"html_attributions":["<a href=\"https://maps.google.com/maps/contrib/109365512887681686571\">A Google User</a>"],"photo_reference":"AeJbb3fvWrH5uS42pZiSxmxVRhT7O6VZv1XH1G3aZBnPBVxrsoJ38eoOFr784iVsZ1yMUdc_ignXhkcTpvaD7ACIVZnITfXXs3PAIZd_IkbGBgPULaIuSmBemZEbJsd8sQ7SM-4exhYQa_W_3B3TyWsTAZ-99ugFmfb7WZp267O-3DhelabS","width":1920}],"place_id":"ChIJrf0XyGbfnUcR_z0dCtYXR8c","plus_code":{"compound_code":"4HHG+JJ Munich","global_code":"8FWH4HHG+JJ"},"rating":4.5,"reference":"ChIJrf0XyGbfnUcR_z0dCtYXR8c","types":["restaurant","food","point_of_interest","establishment"],"user_ratings_total":588},{"business_status":"OPERATIONAL","formatted_address":"Dachauer Str. 153, 80335 München","geometry":{"location":{"lat":48.1538949,"lng":11.5539737},"viewport":{"northeast":{"lat":48.15527802989271,"lng":11.55539882989272},"southwest":{"lat":48.15257837010727,"lng":11.55269917010728}}},"icon":"https://maps.gstatic.com/mapfiles/place_api/icons/v1/png_71/restaurant-71.png","icon_background_color":"#FF9E67","icon_mask_base_uri":"https://maps.gstatic.com/mapfiles/place_api/icons/v2/restaurant_pinlet","name":"Amigos Restaurante Mexicano","opening_hours":{"open_now":true},"photos":[{"height":3446,"html_attributions":["<a href=\"https://maps.google.com/maps/contrib/110590744596300492861\">A Google User</a>"],"photo_reference":"AeJbb3eOsIV_1CDyxqfhxYL1xNypAgHScPJIrXfvyMcWOwLs7KzDRoPsNmHX7m_T_MolGClmBDJBsmPlsdr0CiI77643LDiBVWr__StfCAHkDZYLN2sNOrNDMwMAKeloI9AKAgDpT7dCvqy9ivQ4rudiFeyim8n19OT5omHAG081BgAP4i_S","width":2303}],"place_id":"ChIJ8_X4yN93nkcRYZFNCXtg6NU","plus_code":{"compound_code":"5H33+HH Munich","global_code":"8FWH5H33+HH"},"price_level":2,"rating":4.5,"reference":"ChIJ8_X4yN93nkcRYZFNCXtg6NU","types":["restaurant","food","point_of_interest","establishment"],"user_ratings_total":534},{"business_status":"OPERATIONAL","formatted_address":"Willy-Brandt-Platz 5, 81829 München","geometry":{"location":{"lat":48.1322468,"lng":11.6905719},"viewport":{"northeast":{"lat":48.13367657989272,"lng":11.6913913},"southwest":{"lat":48.13097692010727,"lng":11.6881325}}},"icon":"https://maps.gstatic.com/mapfiles/place_api/icons/v1/png_71/restaurant-71.png","icon_background_color":"#FF9E67","icon_mask_base_uri":"https://maps.gstatic.com/mapfiles/place_api/icons/v2/restaurant_pinlet","name":"Burrito Company München Riem","opening_hours":{"open_now":true},"photos":[{"height":1080,"html_attributions":["<a href=\"https://maps.google.com/maps/contrib/105245382528638494417\">A Google User</a>"],"photo_reference":"AeJbb3dKaLYYFoaIV0TpzTgR0SiWYQzRy9MB0DNzDjfA_xpRUmOvxpNfBoMCY2Tlbm4ZKD1-TI5qOPNj8fE6yrUxzlAiN4nIU6Iquo7msrBpBJQfai1fp8hqkjXdA5ZMwqmB5evPxXe4Zx2wjLswhdQyjMAje5f4lQxNu1-ZYrOirxvKo91N","width":1920}],"place_id":"ChIJlc1hY3oLnkcRM7h685102TA","plus_code":{"compound_code":"4MJR+V6 Munich","global_code":"8FWH4MJR+V6"},"price_level":2,"rating":4.5,"reference":"ChIJlc1hY3oLnkcRM7h685102TA","types":["restaurant","food","point_of_interest","establishment"],"user_ratings_total":421},{"business_status":"OPERATIONAL","formatted_address":"Occamstraße 7, 80802 München","geometry":{"location":{"lat":48.1619752,"lng":11.5894529},"viewport":{"northeast":{"lat":48.16330577989272,"lng":11.59085837989272},"southwest":{"lat":48.16060612010728,"lng":11.58815872010728}}},"icon":"https://maps.gstatic.com/mapfiles/place_api/icons/v1/png_71/restaurant-71.png","icon_background_color":"#FF9E67","icon_mask_base_uri":"https://maps.gstatic.com/mapfiles/place_api/icons/v2/restaurant_pinlet","name":"La Burrita","opening_hours":{"open_now":false},"photos":[{"height":3024,"html_attributions":["<a href=\"https://maps.google.com/maps/contrib/113554244663466126587\">Noah Fuchs</a>"],"photo_reference":"AeJbb3dibjS2M0rAm8qNpKpNgtUGVnaLOblwz0GaCn3-q_9JObhE7duDhXsf4jmhGIfg7VKXAUJfCRPGsMkhGTxJo190xE02VlBOZxnE2cb1p6oJzBn_GcCovf_vNDn6V2D-XPMTORC-HZ1Mxvrc_pR1BZvl35_qA8a_3o_lMzozzPk4u4tb","width":3024}],"place_id":"ChIJhaOEfwp1nkcRfcC-JLzRSsE","plus_code":{"compound_code":"5H6Q+QQ Munich","global_code":"8FWH5H6Q+QQ"},"price_level":2,"rating":4.5,"reference":"ChIJhaOEfwp1nkcRfcC-JLzRSsE","types":["restaurant","food","point_of_interest","establishment"],"user_ratings_total":304},{"business_status":"CLOSED_TEMPORARILY","formatted_address":"Oberländerstraße 2, 81371 München","geometry":{"location":{"lat":48.1193603,"lng":11.5511735},"viewport":{"northeast":{"lat":48.12071642989272,"lng":11.55258672989272},"southwest":{"lat":48.11801677010728,"lng":11.54988707010728}}},"icon":"https://maps.gstatic.com/mapfiles/place_api/icons/v1/png_71/restaurant-71.png","icon_background_color":"#FF9E67","icon_mask_base_uri":"https://maps.gstatic.com/mapfiles/place_api/icons/v2/restaurant_pinlet","name":"Condesa Implerstraße","permanently_closed":true,"photos":[{"height":4032,"html_attributions":["<a href=\"https://maps.google.com/maps/contrib/100877442430342146517\">Kevin Leslie</a>"],"photo_reference":"AeJbb3d-w0iarZKTW5nUAj3PKZm5hrIxJHK4NFs7fGbRE-h0-5sjar0OZtyuhVNwLhwUhmG2YwhUzykNzCq-OLoeGHj_z_a51EVOH0eeXOgN37xr5JyKD2WaQLB9lBA-JRqbGSORJsGcvsF1U3VZEMND0wkjPARd3Swip19I7yVlV0PmUDk7","width":3024}],"place_id":"ChIJG8Q8hhffnUcRinq9dVrxiX0","plus_code":{"compound_code":"4H92+QF Munich","global_code":"8FWH4H92+QF"},"rating":4.5,"reference":"ChIJG8Q8hhffnUcRinq9dVrxiX0","types":["restaurant","food","point_of_interest","establishment"],"user_ratings_total":301},{"business_status":"OPERATIONAL","formatted_address":"Bahnhofpl. 5, 80335 München","geometry":{"location":{"lat":48.1415849,"lng":11.5609675},"viewport":{"northeast":{"lat":48.14286707989272,"lng":11.56242222989272},"southwest":{"lat":48.14016742010728,"lng":11.55972257010728}}},"icon":"https://maps.gstatic.com/mapfiles/place_api/icons/v1/png_71/restaurant-71.png","icon_background_color":"#FF9E67","icon_mask_base_uri":"https://maps.gstatic.com/mapfiles/place_api/icons/v2/restaurant_pinlet","name":"CONDESA - Authentic Mexican Taste - Bahnhofplatz 5","opening_hours":{"open_now":true},"photos":[{"height":1333,"html_attributions":["<a href=\"https://maps.google.com/maps/contrib/105097637879620549424\">Georg Ebner</a>"],"photo_reference":"AeJbb3fDNW3rYbYY14XAt3kO0-81MG-zzPqoExi6McBj9EL2IVM8K1QZpkBFJM-XJCi7HutDoEvdzZrEua3mydLvvSV42h4ocRetigIxHB9cGYt4h00yHafjWperUN044ShsIPKa2lLc5CeNOeXVUmtOukKxSxsJDHhCu-GlhEol-wxqp2NI","width":2000}],"place_id":"ChIJOQn5CPl1nkcRFsylk6h8X1Q","plus_code":{"compound_code":"4HR6+J9 Munich","global_code":"8FWH4HR6+J9"},"price_level":2,"rating":4.4,"reference":"ChIJOQn5CPl1nkcRFsylk6h8X1Q","types":["restaurant","food","point_of_interest","establishment"],"user_ratings_total":1053},{"business_status":"OPERATIONAL","formatted_address":"Augustenstraße 74, 80333 München","geometry":{"location":{"lat":48.1501422,"lng":11.5637438},"viewport":{"northeast":{"lat":48.15150557989272,"lng":11.56502972989272},"southwest":{"lat":48.14880592010728,"lng":11.56233007010728}}},"icon":"https://maps.gstatic.com/mapfiles/place_api/icons/v1/png_71/restaurant-71.png","icon_background_color":"#FF9E67","icon_mask_base_uri":"https://maps.gstatic.com/mapfiles/place_api/icons/v2/restaurant_pinlet","name":"Burrito Company München Maxvorstadt","opening_hours":{"open_now":false},"photos":[{"height":1080,"html_attributions":["<a href=\"https://maps.google.com/maps/contrib/115183932306943020857\">A Google User</a>"],"photo_reference":"AeJbb3ceP8w4aQVnkap6Gkj3RSZtbgAjOuLAppK2fLGVN1ZbgTh4NVDQA_DkZK3UazW0O6bZTBJQXIOD4NQfQERKtDf_l0s5wn8m71cDleyruJVd2qN7rEeacJTfU2YbVHsbATZXo425JdmCTc8ihgpE4B00HGyZEL4QyQd8DuVYBI094uMr","width":1920}],"place_id":"ChIJl5gkzeV1nkcRP_m-l4_qYxA","plus_code":{"compound_code":"5H27+3F Munich","global_code":"8FWH5H27+3F"},"price_level":2,"rating":4.4,"reference":"ChIJl5gkzeV1nkcRP_m-l4_qYxA","types":["restaurant","food","point_of_interest","establishment"],"user_ratings_total":966},{"business_status":"OPERATIONAL","formatted_address":"Rindermarkt 15, 80331 München","geometry":{"location":{"lat":48.1362665,"lng":11.5744204},"viewport":{"northeast":{"lat":48.13758482989272,"lng":11.57580517989272},"southwest":{"lat":48.13488517010727,"lng":11.57310552010728}}},"icon":"https://maps.gstatic.com/mapfiles/place_api/icons/v1/png_71/restaurant-71.png","icon_background_color":"#FF9E67","icon_mask_base_uri":"https://maps.gstatic.com/mapfiles/place_api/icons/v2/restaurant_pinlet","name":"La Burrita","opening_hours":{"open_now":true},"photos":[{"height":3024,"html_attributions":["<a href=\"https://maps.google.com/maps/contrib/116516879513853247886\">Sabrina Fanotto</a>"],"photo_reference":"AeJbb3fTgpvKliwFm3LiyfxOGllSUZnJJIXhCjIDh_VO9-NPJrWrZPGUMZ6_qiVXMnM2qvHhuiqe8bl5dvfEsqe5-5-5wfVhLKnSLwY9PiKLWyHY2A1_Cv65aDX7Sl3RzKcFegEyun5ZMd-UldJ-ipm1SnUWUd7Q4BAW-WnC9MpAy5uZapwl","width":4032}],"place_id":"ChIJV8b2RDB1nkcR1PvhuG3ALQA","plus_code":{"compound_code":"4HPF+GQ Munich","global_code":"8FWH4HPF+GQ"},"price_level":2,"rating":4.4,"reference":"ChIJV8b2RDB1nkcR1PvhuG3ALQA","types":["restaurant","food","point_of_interest","establishment"],"user_ratings_total":676},{"business_status":"OPERATIONAL","formatted_address":"Atelierstraße 14, Werk 3, 81671 München","geometry":{"location":{"lat":48.1247417,"lng":11.6059177},"viewport":{"northeast":{"lat":48.12624287989273,"lng":11.60748782989272},"southwest":{"lat":48.12354322010728,"lng":11.60478817010728}}},"icon":"https://maps.gstatic.com/mapfiles/place_api/icons/v1/png_71/restaurant-71.png","icon_background_color":"#FF9E67","icon_mask_base_uri":"https://maps.gstatic.com/mapfiles/place_api/icons/v2/restaurant_pinlet","name":"pureburrito IV","opening_hours":{"open_now":true},"photos":[{"height":1080,"html_attributions":["<a href=\"https://maps.google.com/maps/contrib/101564423901899284508\">A Google User</a>"],"photo_reference":"AeJbb3er_PK1v3QiVqHJbSRNJepEhV8RGdH2zZM78HCi0qpdcTFM3VOarADUVIesNDKoixNmqaZNqMo7SmWuAhMqzWGYHTKMuDL7Vn1kdDtDgSLb7Tu7nK88iMEDHulER4HgHoMOigo3mjXm5JJEYWcIIS53kQRmiGTkR3MxvMLjJV-PmTM9","width":1080}],"place_id":"ChIJh-dsTYTfnUcRczs1bI39QAk","plus_code":{"compound_code":"4JF4+V9 Munich","global_code":"8FWH4JF4+V9"},"rating":4.4,"reference":"ChIJh-dsTYTfnUcRczs1bI39QAk","types":["restaurant","food","point_of_interest","establishment"],"user_ratings_total":66},{"business_status":"OPERATIONAL","formatted_address":"Guldeinstraße 35, 80339 München","geometry":{"location":{"lat":48.13868360000001,"lng":11.531309},"viewport":{"northeast":{"lat":48.14007132989273,"lng":11.53266472989272},"southwest":{"lat":48.13737167010729,"lng":11.52996507010728}}},"icon":"https://maps.gstatic.com/mapfiles/place_api/icons/v1/png_71/restaurant-71.png","icon_background_color":"#FF9E67","icon_mask_base_uri":"https://maps.gstatic.com/mapfiles/place_api/icons/v2/restaurant_pinlet","name":"Red Pepper","opening_hours":{"open_now":true},"photos":[{"height":2268,"html_attributions":["<a href=\"https://maps.google.com/maps/contrib/103457668540231502975\">A Google User</a>"],"photo_reference":"AeJbb3cy15hy0t5PlhKvxQ5fnkNLmAJnp7WewRQc36RbE0_eH1ut_LoV06mw4rzhmx04S3pk1YfOQXrbrp6wHvuJ533k1ZdoALfH3WDfftZ0wbCbNiDceyNzWaMPXmfvrtsPj_9DdctlNU9YfwLS5fQk86Meh7D3jqqe-vUt2AcriIds_tev","width":4032}],"place_id":"ChIJjetfZqfYnUcRsbnX0jE3UPc","plus_code":{"compound_code":"4GQJ+FG Munich","global_code":"8FWH4GQJ+FG"},"price_level":2,"rating":4.3,"reference":"ChIJjetfZqfYnUcRsbnX0jE3UPc","types":["restaurant","bar","food","point_of_interest","establishment"],"user_ratings_total":833},{"business_status":"OPERATIONAL","formatted_address":"Herzogstraße 88, 80796 München","geometry":{"location":{"lat":48.1630121,"lng":11.5719308},"viewport":{"northeast":{"lat":48.16427822989273,"lng":11.57318252989272},"southwest":{"lat":48.16157857010728,"lng":11.57048287010728}}},"icon":"https://maps.gstatic.com/mapfiles/place_api/icons/v1/png_71/restaurant-71.png","icon_background_color":"#FF9E67","icon_mask_base_uri":"https://maps.gstatic.com/mapfiles/place_api/icons/v2/restaurant_pinlet","name":"El Patio","opening_hours":{"open_now":false},"photos":[{"height":5312,"html_attributions":["<a href=\"https://maps.google.com/maps/contrib/110036470889015911127\">Maribel Morenate Jaimez</a>"],"photo_reference":"AeJbb3di9OzhIek68oob5dCAAPOibsHAFozA1uwKGWOEjWjMBICecr-YPatRUVNJ2EIzXak7OeU0-e-LyGvxp2VmLdm6GJEvYQjoDEioWhy2RAA3npYgpXa71TSpdbTmqdDNoCdo3ByTo6yUyytF5dX1GzO2LX0T2ab5JOI2gzdxRzgxAxMM","width":2988}],"place_id":"ChIJr-vN1tp1nkcRNjVlTrP2qKE","plus_code":{"compound_code":"5H7C+6Q Munich","global_code":"8FWH5H7C+6Q"},"price_level":2,"rating":4.3,"reference":"ChIJr-vN1tp1nkcRNjVlTrP2qKE","types":["restaurant","food","point_of_interest","establishment"],"user_ratings_total":285},{"business_status":"OPERATIONAL","formatted_address":"Gröbenzeller Str. 40, 80997 München","geometry":{"location":{"lat":48.1828504,"lng":11.5078719},"viewport":{"northeast":{"lat":48.18424047989272,"lng":11.50917167989272},"southwest":{"lat":48.18154082010728,"lng":11.50647202010728}}},"icon":"https://maps.gstatic.com/mapfiles/place_api/icons/v1/png_71/bar-71.png","icon_background_color":"#FF9E67","icon_mask_base_uri":"https://maps.gstatic.com/mapfiles/place_api/icons/v2/bar_pinlet","name":"Dillinger Chicago Bar´n Grill","opening_hours":{"open_now":true},"photos":[{"height":4032,"html_attributions":["<a href=\"https://maps.google.com/maps/contrib/103911487374433530895\">A Google User</a>"],"photo_reference":"AeJbb3fCth7dhNO9kyxSSMROvyEdMqizn6U4J5xWwZ6gZKxMFJ7TAYIKZNKpBgRfVWPUchMvwP9LLksPnQsplzVMN6nEtliW5ubKySBHtVQOA6oqT03t27Tg1qif-ADqN73wejrcC4hVzHQut2DEbyeCM2t1lT1YELP3U4k4x9n9HHfLip9M","width":3024}],"place_id":"ChIJ7zHnSgd3nkcRZhwGfMXJsgk","plus_code":{"compound_code":"5GM5+44 Munich","global_code":"8FWH5GM5+44"},"price_level":2,"rating":4.2,"reference":"ChIJ7zHnSgd3nkcRZhwGfMXJsgk","types":["bar","restaurant","food","point_of_interest","establishment"],"user_ratings_total":1474},{"business_status":"OPERATIONAL","formatted_address":"Lochhamer Str. 4, 82166 Gräfelfing","geometry":{"location":{"lat":48.1255193,"lng":11.4459946},"viewport":{"northeast":{"lat":48.12681102989272,"lng":11.44734917989272},"southwest":{"lat":48.12411137010728,"lng":11.44464952010728}}},"icon":"https://maps.gstatic.com/mapfiles/place_api/icons/v1/png_71/restaurant-71.png","icon_background_color":"#FF9E67","icon_mask_base_uri":"https://maps.gstatic.com/mapfiles/place_api/icons/v2/restaurant_pinlet","name":"Lochhamer's El Diablo","opening_hours":{"open_now":true},"photos":[{"height":2268,"html_attributions":["<a href=\"https://maps.google.com/maps/contrib/104941984055463302347\">Michaela Becker</a>"],"photo_reference":"AeJbb3ebxXe8D2_ejr9NgVKEa9_kIdqQmZYd1H8ESmwUj6pBbIAqFbF5s4gEz-rV29jYwWDz5apkUCR3ACy0Q_9wPL78TIYRtwKq9iDKMVxsK7NDfUnn6D8xZUttkFhT7Xew1vtT5kt5amEowJTkgo5tqjtxEv8JRlwj-kKD8uDathh92TNs","width":4032}],"place_id":"ChIJCVlGqiHYnUcRNmktpkjuD5U","plus_code":{"compound_code":"4CGW+69 Gräfelfing","global_code":"8FWH4CGW+69"},"price_level":2,"rating":4.2,"reference":"ChIJCVlGqiHYnUcRNmktpkjuD5U","types":["restaurant","food","point_of_interest","establishment"],"user_ratings_total":991},{"business_status":"OPERATIONAL","formatted_address":"Obergrashof 1A, 85221 Dachau","geometry":{"location":{"lat":48.2549775,"lng":11.4907786},"viewport":{"northeast":{"lat":48.25622487989273,"lng":11.49239342989272},"southwest":{"lat":48.25352522010728,"lng":11.48969377010728}}},"icon":"https://maps.gstatic.com/mapfiles/place_api/icons/v1/png_71/restaurant-71.png","icon_background_color":"#FF9E67","icon_mask_base_uri":"https://maps.gstatic.com/mapfiles/place_api/icons/v2/restaurant_pinlet","name":"LatinAmericana","opening_hours":{"open_now":false},"photos":[{"height":1512,"html_attributions":["<a href=\"https://maps.google.com/maps/contrib/102206429211183299917\">Yorck Zhou</a>"],"photo_reference":"AeJbb3e7TQd0284KofuR0b4Xy4TdrIpTuTgmjrMHEvv2r1OA0I8Rv124aneESRDt36N_BNW1kjDuY8qt3DiIZOQRSovjjdvIDa8yCiClxmTUgNGz24ttE-0mbSb1In2MYJqCo8i-SXYrc6VNwSBBGCi5MRm0a0l6ChkMyzGLlUTaFK9MLoGA","width":2688}],"place_id":"ChIJO1VOn4JwnkcRJKJ_AccTdYA","plus_code":{"compound_code":"7F3R+X8 Dachau","global_code":"8FWH7F3R+X8"},"price_level":2,"rating":4.2,"reference":"ChIJO1VOn4JwnkcRJKJ_AccTdYA","types":["restaurant","food","point_of_interest","establishment"],"user_ratings_total":842},{"business_status":"OPERATIONAL","formatted_address":"Rosenheimer Str. 98, 81669 München","geometry":{"location":{"lat":48.1259573,"lng":11.597931},"viewport":{"northeast":{"lat":48.12731427989272,"lng":11.59943417989272},"southwest":{"lat":48.12461462010728,"lng":11.59673452010728}}},"icon":"https://maps.gstatic.com/mapfiles/place_api/icons/v1/png_71/restaurant-71.png","icon_background_color":"#FF9E67","icon_mask_base_uri":"https://maps.gstatic.com/mapfiles/place_api/icons/v2/restaurant_pinlet","name":"Leo`s Lounge Restaurant Happy Hour Cocktailbar München","opening_hours":{"open_now":true},"photos":[{"height":4640,"html_attributions":["<a href=\"https://maps.google.com/maps/contrib/102710693650771329903\">Natasa Misic</a>"],"photo_reference":"AeJbb3fifEnGeevyQoaYahhyDk2YmZ8fDkos9jro3RZz71vXY6A6Zs5ih-F0kK-BWBU9KhMkdxPHcefNIPA5KTwUSyYmtuNN9NV5H6iDBGHadJPOgUN63SGPPrNfJjIostWyUzLba-fxWPZvl37gH1wDYBnYT-WigfWjWU0DYz-MNY-PqHrw","width":3480}],"place_id":"ChIJf4H2aoLfnUcRTkLFVO4Gl1w","plus_code":{"compound_code":"4HGX+95 Munich","global_code":"8FWH4HGX+95"},"price_level":2,"rating":4.2,"reference":"ChIJf4H2aoLfnUcRTkLFVO4Gl1w","types":["restaurant","meal_delivery","bar","food","point_of_interest","establishment"],"user_ratings_total":827},{"business_status":"OPERATIONAL","formatted_address":"Herzogstraße 93, 80796 München","geometry":{"location":{"lat":48.16273289999999,"lng":11.5718621},"viewport":{"northeast":{"lat":48.16410862989272,"lng":11.57321082989272},"southwest":{"lat":48.16140897010727,"lng":11.57051117010728}}},"icon":"https://maps.gstatic.com/mapfiles/place_api/icons/v1/png_71/restaurant-71.png","icon_background_color":"#FF9E67","icon_mask_base_uri":"https://maps.gstatic.com/mapfiles/place_api/icons/v2/restaurant_pinlet","name":"Tacos y Tequila","opening_hours":{"open_now":false},"photos":[{"height":1960,"html_attributions":["<a href=\"https://maps.google.com/maps/contrib/106675903225994849332\">Julia Harenz</a>"],"photo_reference":"AeJbb3eBGp_hm6lKHkSfYI4ki0FZENTMEeuw_OEUh4vuIVAa6fDtk_PUVzAcnpGkAotfyKJN8zRPR96uNLBI-b759fCVNbtqpaQrTjRIKfhV2dnnXizS1My4bH1UlGTFBzkYo7Up6FM-bNVtPLZ61QOKxlLq_qAACFUTKpFiLhTmpf4gDvvB","width":4032}],"place_id":"ChIJpXUu1tp1nkcRzN-Z7vh77Ns","plus_code":{"compound_code":"5H7C+3Q Munich","global_code":"8FWH5H7C+3Q"},"price_level":2,"rating":4.2,"reference":"ChIJpXUu1tp1nkcRzN-Z7vh77Ns","types":["restaurant","food","point_of_interest","establishment"],"user_ratings_total":638},{"business_status":"OPERATIONAL","formatted_address":"Lindwurmstraße 57, 80337 München","geometry":{"location":{"lat":48.1302443,"lng":11.5603016},"viewport":{"northeast":{"lat":48.13160812989272,"lng":11.56152912989272},"southwest":{"lat":48.12890847010728,"lng":11.55882947010728}}},"icon":"https://maps.gstatic.com/mapfiles/place_api/icons/v1/png_71/restaurant-71.png","icon_background_color":"#FF9E67","icon_mask_base_uri":"https://maps.gstatic.com/mapfiles/place_api/icons/v2/restaurant_pinlet","name":"pureburrito I","opening_hours":{"open_now":true},"photos":[{"height":683,"html_attributions":["<a href=\"https://maps.google.com/maps/contrib/115449645385308009940\">pureburrito</a>"],"photo_reference":"AeJbb3cpNmV3HIX9Isw7fHzuCF3zyk7wfYlgy223f8gxjkL5cdwmCd7et08TRzP3eRiTQHwEnMtF5jGLvZPXMNAvB8xZjG4pnhkrIl6YMMKUnIl13CUsPrVgFt-32N6WOB2e9Y4HvgovXC0kcNECZf9cypvwDWdCNkjKvsT08AsQ0qISNhaV","width":684}],"place_id":"ChIJfwDOFVrfnUcRb5dZuSMKUww","plus_code":{"compound_code":"4HJ6+34 Munich","global_code":"8FWH4HJ6+34"},"price_level":1,"rating":4.2,"reference":"ChIJfwDOFVrfnUcRb5dZuSMKUww","types":["restaurant","cafe","food","point_of_interest","establishment"],"user_ratings_total":627},{"business_status":"OPERATIONAL","formatted_address":"Schellingstraße 104, 80798 München","geometry":{"location":{"lat":48.1534221,"lng":11.5654242},"viewport":{"northeast":{"lat":48.15469082989271,"lng":11.56680862989272},"southwest":{"lat":48.15199117010727,"lng":11.56410897010728}}},"icon":"https://maps.gstatic.com/mapfiles/place_api/icons/v1/png_71/restaurant-71.png","icon_background_color":"#FF9E67","icon_mask_base_uri":"https://maps.gstatic.com/mapfiles/place_api/icons/v2/restaurant_pinlet","name":"pureburrito II","opening_hours":{"open_now":true},"photos":[{"height":1080,"html_attributions":["<a href=\"https://maps.google.com/maps/contrib/106315457674712811857\">pureburrito (Mueller &amp; Wallendorf GbR)</a>"],"photo_reference":"AeJbb3cfT6mFczEp2k9rM9dfFGYxDzZ_Yo95IzG4tX_-ng00xoSnLI3QBLFvCO4IYAgvcA3tkcp8lyxg9xMk4WxBDklzZkVVSdZ7ZXj5F6fgb-wckk0579uMP5lB94MoGaLAZSVgu_2DP3-ParH71aOGGtMIlDoJVf1gAtMVZQsyAVpiYo2p","width":1080}],"place_id":"ChIJ7VQ_q-d1nkcRB1Q8Grg7W8U","plus_code":{"compound_code":"5H38+95 Munich","global_code":"8FWH5H38+95"},"price_level":1,"rating":4.2,"reference":"ChIJ7VQ_q-d1nkcRB1Q8Grg7W8U","types":["restaurant","food","point_of_interest","establishment"],"user_ratings_total":570},{"business_status":"OPERATIONAL","formatted_address":"Zweibrückenstraße 9, 80331 München","geometry":{"location":{"lat":48.133232,"lng":11.583598},"viewport":{"northeast":{"lat":48.13454972989271,"lng":11.58489922989272},"southwest":{"lat":48.13185007010727,"lng":11.58219957010728}}},"icon":"https://maps.gstatic.com/mapfiles/place_api/icons/v1/png_71/restaurant-71.png","icon_background_color":"#FF9E67","icon_mask_base_uri":"https://maps.gstatic.com/mapfiles/place_api/icons/v2/restaurant_pinlet","name":"La Taquería by Cometa","opening_hours":{"open_now":true},"photos":[{"height":3527,"html_attributions":["<a href=\"https://maps.google.com/maps/contrib/108977148825273334097\">A Google User</a>"],"photo_reference":"AeJbb3edUOrdJuTmNeLs5a5HFo8RH0BoXmFZRBLKGJsFLnzmCP_deemm-9Yn-4csU3lsR65u3wx9mHMqRR1Psg6QkZyyxlj1WLYw5A0z7FwFVH15dHT81YJGlSA1aYKgfTgHdO6_NTKT1EPdkfGej9mzJsgVTpm-A2Qa8VRLgG4Spp-NYvfT","width":5291}],"place_id":"ChIJ-9GniGLfnUcRwLXKGbZzdik","plus_code":{"compound_code":"4HMM+7C Munich","global_code":"8FWH4HMM+7C"},"price_level":2,"rating":4.1,"reference":"ChIJ-9GniGLfnUcRwLXKGbZzdik","types":["restaurant","food","point_of_interest","establishment"],"user_ratings_total":1369},{"business_status":"OPERATIONAL","formatted_address":"Breisacher Str. 19, 81667 München","geometry":{"location":{"lat":48.13051590000001,"lng":11.6048196},"viewport":{"northeast":{"lat":48.13183582989272,"lng":11.60622497989272},"southwest":{"lat":48.12913617010728,"lng":11.60352532010728}}},"icon":"https://maps.gstatic.com/mapfiles/place_api/icons/v1/png_71/restaurant-71.png","icon_background_color":"#FF9E67","icon_mask_base_uri":"https://maps.gstatic.com/mapfiles/place_api/icons/v2/restaurant_pinlet","name":"EscoBar","opening_hours":{"open_now":false},"photos":[{"height":3000,"html_attributions":["<a href=\"https://maps.google.com/maps/contrib/101153392533075093513\">Thomas Stöhr</a>"],"photo_reference":"AeJbb3dZwb-u4FTtFvcJrKd9A58IUbiweHc7hETGzEtiJdZhte65J3ynSimy4wPQgC0xCUT---6TAnuezALAnMgRkE-16iGuwIcHql1nR5aGRNGxX7i-V5IN3sNGCMm3f8AQtvYH3-OInCtRg1FdcBY_A7LXcZWE8fnVVqaVBJCrwzdzs9Gx","width":4000}],"place_id":"ChIJvVuCtYDfnUcRiHCEosSM_eQ","plus_code":{"compound_code":"4JJ3+6W Munich","global_code":"8FWH4JJ3+6W"},"price_level":2,"rating":4.1,"reference":"ChIJvVuCtYDfnUcRiHCEosSM_eQ","types":["bar","restaurant","food","point_of_interest","establishment"],"user_ratings_total":1055},{"business_status":"OPERATIONAL","formatted_address":"Wilderich-Lang-Straße 4, 80634 München","geometry":{"location":{"lat":48.1482706,"lng":11.5355701},"viewport":{"northeast":{"lat":48.14960927989272,"lng":11.53686967989272},"southwest":{"lat":48.14690962010727,"lng":11.53417002010728}}},"icon":"https://maps.gstatic.com/mapfiles/place_api/icons/v1/png_71/restaurant-71.png","icon_background_color":"#FF9E67","icon_mask_base_uri":"https://maps.gstatic.com/mapfiles/place_api/icons/v2/restaurant_pinlet","name":"ZAPATA","opening_hours":{"open_now":false},"photos":[{"height":4000,"html_attributions":["<a href=\"https://maps.google.com/maps/contrib/100046577266572912730\">Thomas Liebhart</a>"],"photo_reference":"AeJbb3daiaZMD1uhF8XtPtzrfVIU4sFkJw0kQC46JcnENEK0MbN76KX1mV4ePwwYNjHfmPCq6A90bIEEPjZpMcnzyPMhaNSmnVdmzzQrwdblvmjaD7SM0qG0Wb-ZLKCKuxeFSIgwRc1XgUG1t0MqNF8KhCSIEn1pV4xkFxMUVK5wizGlGTK4","width":3000}],"place_id":"ChIJCY7Cehp2nkcRZwRXuifQ0Og","plus_code":{"compound_code":"4GXP+86 Munich","global_code":"8FWH4GXP+86"},"price_level":2,"rating":4.1,"reference":"ChIJCY7Cehp2nkcRZwRXuifQ0Og","types":["bar","restaurant","food","point_of_interest","establishment"],"user_ratings_total":887},{"business_status":"OPERATIONAL","formatted_address":"Nymphenburger Str. 21, 80335 München","geometry":{"location":{"lat":48.1479923,"lng":11.5544798},"viewport":{"northeast":{"lat":48.14948717989272,"lng":11.55581967989272},"southwest":{"lat":48.14678752010727,"lng":11.55312002010728}}},"icon":"https://maps.gstatic.com/mapfiles/place_api/icons/v1/png_71/restaurant-71.png","icon_background_color":"#FF9E67","icon_mask_base_uri":"https://maps.gstatic.com/mapfiles/place_api/icons/v2/restaurant_pinlet","name":"GYM COOK","opening_hours":{"open_now":true},"photos":[{"height":3648,"html_attributions":["<a href=\"https://maps.google.com/maps/contrib/102944721827438861964\">Maximilian Salcher</a>"],"photo_reference":"AeJbb3f5sE0JsjKKmLPC2_HUE85Kuy_61X00h0eX59n2oKsT-mspspVXQr1Ikp2N39myxwb2nwQHhI-StGv4f1FU_WwBLeqGipwhGZIRLd5TBjhjtB7Md2RSuwn0xTsesAgQj7iWwn3862nZP-mPKe8RdDRO9fZvCrmwRBeSSDCzXZoIqrMA","width":2736}],"place_id":"ChIJMafvouJ1nkcR9Bs2Nl8wfOo","plus_code":{"compound_code":"4HX3+5Q Munich","global_code":"8FWH4HX3+5Q"},"rating":4.1,"reference":"ChIJMafvouJ1nkcR9Bs2Nl8wfOo","types":["restaurant","food","point_of_interest","establishment"],"user_ratings_total":755},{"business_status":"OPERATIONAL","formatted_address":"Schellingstraße 16, 80799 München","geometry":{"location":{"lat":48.149884,"lng":11.5777425},"viewport":{"northeast":{"lat":48.15119242989272,"lng":11.57904512989272},"southwest":{"lat":48.14849277010727,"lng":11.57634547010728}}},"icon":"https://maps.gstatic.com/mapfiles/place_api/icons/v1/png_71/restaurant-71.png","icon_background_color":"#FF9E67","icon_mask_base_uri":"https://maps.gstatic.com/mapfiles/place_api/icons/v2/restaurant_pinlet","name":"Pureburrito III","opening_hours":{"open_now":true},"photos":[{"height":4032,"html_attributions":["<a href=\"https://maps.google.com/maps/contrib/101222582204750860894\">A Google User</a>"],"photo_reference":"AeJbb3ecoa0D1Hrawo1TZWR6aup5SIsuHpn6I2eh0g8Mn4YvbDkhbKR02KrT2OLnokLGivn0eec54pU0Kr6SQgAU_yULuRJin912D-t7jUHQIUlfZ48G3BZbQsLkiRaAGkqGpGlSa4-jyguyLCbAUgB7N-E3F3PPC6-kwKvvH1qo_Vt1ctti","width":3024}],"place_id":"ChIJ7ZG1ZOt1nkcRNKJPxM1cS7Y","plus_code":{"compound_code":"4HXH+X3 Munich","global_code":"8FWH4HXH+X3"},"price_level":2,"rating":4.1,"reference":"ChIJ7ZG1ZOt1nkcRNKJPxM1cS7Y","types":["cafe","restaurant","food","point_of_interest","establishment"],"user_ratings_total":247},{"business_status":"OPERATIONAL","formatted_address":"Forstenrieder Allee 74, 81476 München","geometry":{"location":{"lat":48.09573899999999,"lng":11.497595},"viewport":{"northeast":{"lat":48.09703497989271,"lng":11.49922017989272},"southwest":{"lat":48.09433532010726,"lng":11.49652052010728}}},"icon":"https://maps.gstatic.com/mapfiles/place_api/icons/v1/png_71/restaurant-71.png","icon_background_color":"#FF9E67","icon_mask_base_uri":"https://maps.gstatic.com/mapfiles/place_api/icons/v2/restaurant_pinlet","name":"Marielitas München","opening_hours":{"open_now":false},"photos":[{"height":750,"html_attributions":["<a href=\"https://maps.google.com/maps/contrib/113843309685083845511\">Sonja Muenchen</a>"],"photo_reference":"AeJbb3fEmdxFTO0oFdrEQVcL_nfxh-BTBEF7MfNBWxMbxZcjvbs5Scp8DbueTBPF7s15e8FAsQ02fBx2QVz1J1y-0aUQHpr4OUvnKBMlhENWbRqo2z01X21q-aB96Slp_49sk45sPszG5kDxDwPW8dCTiYL81_iKxtwuz9HbgEA3rDVecjBx","width":1000}],"place_id":"ChIJCwI33RvZnUcR5A6LxJDN4kQ","plus_code":{"compound_code":"3FWX+72 Munich","global_code":"8FWH3FWX+72"},"price_level":2,"rating":4.1,"reference":"ChIJCwI33RvZnUcR5A6LxJDN4kQ","types":["bar","meal_takeaway","restaurant","food","point_of_interest","establishment"],"user_ratings_total":65},{"business_status":"OPERATIONAL","formatted_address":"Leopoldstraße 42, 80802 München","geometry":{"location":{"lat":48.1568312,"lng":11.5848076},"viewport":{"northeast":{"lat":48.15822852989272,"lng":11.58593332989272},"southwest":{"lat":48.15552887010728,"lng":11.58323367010728}}},"icon":"https://maps.gstatic.com/mapfiles/place_api/icons/v1/png_71/restaurant-71.png","icon_background_color":"#FF9E67","icon_mask_base_uri":"https://maps.gstatic.com/mapfiles/place_api/icons/v2/restaurant_pinlet","name":"BENTO BOX - München","opening_hours":{"open_now":true},"photos":[{"height":2268,"html_attributions":["<a href=\"https://maps.google.com/maps/contrib/116516790328995402735\">Nathanael Kronski</a>"],"photo_reference":"AeJbb3fjdP6iZW92XKAWksqZ70tj3fSUTA0wko8RvoV7kTtCkRYEmNUSjnqx_VBBbU-IFbkxetahZHhDk6R3LcUngxbPPWClIEiqOIDtzMDkzBd_ERfe4_IWT_thP47lNcfKb0-eS_Z9lChEGJ-e4e6ZNrmU3Ukk2oacCZSL9-t5lYcS4lpp","width":4032}],"place_id":"ChIJUWFHDb91nkcRs5VWZB5ZGd4","plus_code":{"compound_code":"5H4M+PW Munich","global_code":"8FWH5H4M+PW"},"price_level":2,"rating":4,"reference":"ChIJUWFHDb91nkcRs5VWZB5ZGd4","types":["restaurant","food","point_of_interest","establishment"],"user_ratings_total":883},{"business_status":"OPERATIONAL","formatted_address":"Museumsinsel 1, Access via Ludwigsbrücke, 80538 München","geometry":{"location":{"lat":48.1314303,"lng":11.5860991},"viewport":{"northeast":{"lat":48.13294062989272,"lng":11.58721497989272},"southwest":{"lat":48.13024097010727,"lng":11.58451532010728}}},"icon":"https://maps.gstatic.com/mapfiles/place_api/icons/v1/png_71/restaurant-71.png","icon_background_color":"#FF9E67","icon_mask_base_uri":"https://maps.gstatic.com/mapfiles/place_api/icons/v2/restaurant_pinlet","name":"BLITZ Restaurant","opening_hours":{"open_now":false},"photos":[{"height":1632,"html_attributions":["<a href=\"https://maps.google.com/maps/contrib/109496983659120096533\">marion uschold</a>"],"photo_reference":"AeJbb3f2cKqZrdK3U5LHUPXjFZw99XaNor5UW2J5-jLnvBwfL4VNO49yMs8Mtk_tkRad8wx-tpkI1duwUDqVg8OyVxfHWw5K7UUzhAsad-zixp5QGt1_p7Tki_py1cu50BfV1dkmfthLV9bUA6lc2CmPi7rIp9rSz33c3PuEWg3PO2E4XJe5","width":1224}],"place_id":"ChIJh7UfK33fnUcRYeRtXxLsbGI","plus_code":{"compound_code":"4HJP+HC Munich","global_code":"8FWH4HJP+HC"},"price_level":2,"rating":4,"reference":"ChIJh7UfK33fnUcRYeRtXxLsbGI","types":["restaurant","food","point_of_interest","establishment"],"user_ratings_total":334},{"business_status":"OPERATIONAL","formatted_address":"Tal 16, 80331 München","geometry":{"location":{"lat":48.1358611,"lng":11.5788646},"viewport":{"northeast":{"lat":48.13731692989272,"lng":11.58027502989272},"southwest":{"lat":48.13461727010728,"lng":11.57757537010728}}},"icon":"https://maps.gstatic.com/mapfiles/place_api/icons/v1/png_71/bar-71.png","icon_background_color":"#FF9E67","icon_mask_base_uri":"https://maps.gstatic.com/mapfiles/place_api/icons/v2/bar_pinlet","name":"Sausalitos","opening_hours":{"open_now":false},"photos":[{"height":3456,"html_attributions":["<a href=\"https://maps.google.com/maps/contrib/106319307634182505889\">Juliana Schnelldorfer</a>"],"photo_reference":"AeJbb3fpy9kpoLErbVkMnXg8FZ4OK7_ex-O4AynwwjOA0NxeK6jCTAYamlTkHg7v8TogixKhPebURqAHA3WssbJdXjkiA1-OCH2z1G3WnAeoTQk0aKwm1uUQjfdUxoYoZYtiQ5MNAiCLf2nlnqYZOUT9cx5b-nRDGtpOW63xcq1lllUZuRAL","width":3456}],"place_id":"ChIJiw01Qop1nkcRvZRx8z-Unbo","plus_code":{"compound_code":"4HPH+8G Munich","global_code":"8FWH4HPH+8G"},"price_level":2,"rating":3.9,"reference":"ChIJiw01Qop1nkcRvZRx8z-Unbo","types":["bar","restaurant","food","point_of_interest","establishment"],"user_ratings_total":3640},{"business_status":"OPERATIONAL","formatted_address":"Sonnenstraße 12, 80331 München","geometry":{"location":{"lat":48.1369578,"lng":11.5643036},"viewport":{"northeast":{"lat":48.13831637989272,"lng":11.56581182989272},"southwest":{"lat":48.13561672010727,"lng":11.56311217010728}}},"icon":"https://maps.gstatic.com/mapfiles/place_api/icons/v1/png_71/bar-71.png","icon_background_color":"#FF9E67","icon_mask_base_uri":"https://maps.gstatic.com/mapfiles/place_api/icons/v2/bar_pinlet","name":"SAUSALITOS","opening_hours":{"open_now":false},"photos":[{"height":1000,"html_attributions":["<a href=\"https://maps.google.com/maps/contrib/116321723666675744015\">A Google User</a>"],"photo_reference":"AeJbb3f1z7YgI8u0oD9pegF1jZueaXeEMwjSXc9rOUMG76XiP_onF0W9CuT8J7bm5NSU7tvPZlXWfmTnQBVv6IJ51Zm59cVzMxESvDVhWG6c7HtaReI-lgs_XJ-2YBaiDRnE5wX94rn7OFDkIVum8hxj9qkF7C0g4KX9EstB0opvX9SWt5UI","width":1000}],"place_id":"ChIJM8w3yfd1nkcRMkKXfkQgB54","plus_code":{"compound_code":"4HP7+QP Munich","global_code":"8FWH4HP7+QP"},"price_level":2,"rating":3.9,"reference":"ChIJM8w3yfd1nkcRMkKXfkQgB54","types":["bar","restaurant","food","point_of_interest","establishment"],"user_ratings_total":1927},{"business_status":"OPERATIONAL","formatted_address":"Thalkirchner Str. 71, 80337 München","geometry":{"location":{"lat":48.1211355,"lng":11.5573089},"viewport":{"northeast":{"lat":48.12252627989272,"lng":11.55857177989272},"southwest":{"lat":48.11982662010728,"lng":11.55587212010728}}},"icon":"https://maps.gstatic.com/mapfiles/place_api/icons/v1/png_71/restaurant-71.png","icon_background_color":"#FF9E67","icon_mask_base_uri":"https://maps.gstatic.com/mapfiles/place_api/icons/v2/restaurant_pinlet","name":"Los Bandidos München","opening_hours":{"open_now":false},"photos":[{"height":2240,"html_attributions":["<a href=\"https://maps.google.com/maps/contrib/117301088520216431415\">Faisal Abdullah</a>"],"photo_reference":"AeJbb3f3VIaLIrcBjDE8bFVeOJo3KLGke52VLFURaWJZrm8kE7wOY-kqfUF5jeImWBdhfi-YonGiAjvgyEeBa9UZUVGkzT4Y7MhZDxd0zzcYcK7XAR5RJ3dQ-0sStG9H3SG_PB5hTzFY8ESYVfeaBKCxaB6EgQU3rD8mce5dbMdoWBvv5L3e","width":4000}],"place_id":"ChIJy0uYc0bfnUcRTA_fHmGBVwU","plus_code":{"compound_code":"4HC4+FW Munich","global_code":"8FWH4HC4+FW"},"price_level":2,"rating":3.9,"reference":"ChIJy0uYc0bfnUcRTA_fHmGBVwU","types":["restaurant","food","point_of_interest","establishment"],"user_ratings_total":829},{"business_status":"OPERATIONAL","formatted_address":"Amalienstraße 69, 80799 München","geometry":{"location":{"lat":48.1503982,"lng":11.5783367},"viewport":{"northeast":{"lat":48.15171037989272,"lng":11.57974537989272},"southwest":{"lat":48.14901072010728,"lng":11.57704572010728}}},"icon":"https://maps.gstatic.com/mapfiles/place_api/icons/v1/png_71/restaurant-71.png","icon_background_color":"#FF9E67","icon_mask_base_uri":"https://maps.gstatic.com/mapfiles/place_api/icons/v2/restaurant_pinlet","name":"Taco Company","opening_hours":{"open_now":true},"photos":[{"height":3024,"html_attributions":["<a href=\"https://maps.google.com/maps/contrib/114096850521907914257\">Sebastian Thauer</a>"],"photo_reference":"AeJbb3e3PHgTRxYEnJAAJhp6gXBxeGw33psKQsyEvbujBbvnn_MGf96BTrjl8iFVSRwpEUpB_21U37SA8rFMwOCoh5w6PsQGpqEn6lTeyz77g2XOI0NN6AK5ebDu_txkZuUqbkMSMlHBo6x04NpZJLn_nCgO12tLCE_RDyHBzw2946YSJsfW","width":4032}],"place_id":"ChIJrRDU35R1nkcRL24g7x0s5Aw","plus_code":{"compound_code":"5H2H+58 Munich","global_code":"8FWH5H2H+58"},"rating":3.9,"reference":"ChIJrRDU35R1nkcRL24g7x0s5Aw","types":["meal_takeaway","restaurant","food","point_of_interest","establishment"],"user_ratings_total":289},{"business_status":"OPERATIONAL","formatted_address":"Karlsplatz 1. UG Stachus Passagen, 80335 München","geometry":{"location":{"lat":48.1392287,"lng":11.5659314},"viewport":{"northeast":{"lat":48.14061472989272,"lng":11.56714557989272},"southwest":{"lat":48.13791507010728,"lng":11.56444592010728}}},"icon":"https://maps.gstatic.com/mapfiles/place_api/icons/v1/png_71/restaurant-71.png","icon_background_color":"#FF9E67","icon_mask_base_uri":"https://maps.gstatic.com/mapfiles/place_api/icons/v2/restaurant_pinlet","name":"pureburrito V","opening_hours":{"open_now":true},"photos":[{"height":2667,"html_attributions":["<a href=\"https://maps.google.com/maps/contrib/118084492484698441166\">A Google User</a>"],"photo_reference":"AeJbb3fepxFj60Jox_1_SltynERTThI352Blvwky9me4LJ9GyZQp8jXPu78FMWUlIcpSuCgjN2-PXkrNowDpMtBIY5vKs8Q494pPIhKVb7NN1hbxbnbgx7aa_GzJ9hSHvlN8O4XsM64pBWw2-t-tJk9Ug2n-Fx_TMHn0KO9BtWsJUA9yHvy_","width":4000}],"place_id":"ChIJu3RthmJ1nkcRAjNwcZ2tH6I","plus_code":{"compound_code":"4HQ8+M9 Munich","global_code":"8FWH4HQ8+M9"},"rating":3.9,"reference":"ChIJu3RthmJ1nkcRAjNwcZ2tH6I","types":["meal_takeaway","restaurant","food","point_of_interest","establishment"],"user_ratings_total":33},{"business_status":"OPERATIONAL","formatted_address":"Schwanthalerstraße 3, 80336 München","geometry":{"location":{"lat":48.1372868,"lng":11.5637665},"viewport":{"northeast":{"lat":48.13869307989272,"lng":11.56511662989272},"southwest":{"lat":48.13599342010728,"lng":11.56241697010728}}},"icon":"https://maps.gstatic.com/mapfiles/place_api/icons/v1/png_71/restaurant-71.png","icon_background_color":"#FF9E67","icon_mask_base_uri":"https://maps.gstatic.com/mapfiles/place_api/icons/v2/restaurant_pinlet","name":"La Fiesta Muenchen Cantina y Bar Mexicano","opening_hours":{"open_now":false},"photos":[{"height":3024,"html_attributions":["<a href=\"https://maps.google.com/maps/contrib/111993804775028424311\">Udo von Schlegel</a>"],"photo_reference":"AeJbb3fp4cvOPOs9NoWB0ZPbC9OobS1atQgYDvM6R5eiUvAwraUaCFVWbIHjVRTY6yUVqn2F5_W32_YtAsod-k6LbWA1AtFvPikkRHSLs-c_bjsNPJ3yMhm3FzVGfviGv9Sc10WyykBvby2JhzdH0tXvx7C2FsUA0Oqm1AQ76B0VuOIIGVlU","width":4032}],"place_id":"ChIJ9Tfpvvd1nkcR7OBLWawUFDU","plus_code":{"compound_code":"4HP7+WG Munich","global_code":"8FWH4HP7+WG"},"price_level":2,"rating":3.8,"reference":"ChIJ9Tfpvvd1nkcR7OBLWawUFDU","types":["restaurant","food","point_of_interest","establishment"],"user_ratings_total":1426},{"business_status":"OPERATIONAL","formatted_address":"Starnberger Weg 56, 82110 Germering","geometry":{"location":{"lat":48.1143978,"lng":11.3504829},"viewport":{"northeast":{"lat":48.11589622989272,"lng":11.35216742989272},"southwest":{"lat":48.11319657010728,"lng":11.34946777010728}}},"icon":"https://maps.gstatic.com/mapfiles/place_api/icons/v1/png_71/restaurant-71.png","icon_background_color":"#FF9E67","icon_mask_base_uri":"https://maps.gstatic.com/mapfiles/place_api/icons/v2/restaurant_pinlet","name":"El Diablo","opening_hours":{"open_now":true},"photos":[{"height":900,"html_attributions":["<a href=\"https://maps.google.com/maps/contrib/104407157257874834654\">A Google User</a>"],"photo_reference":"AeJbb3dzyA4vP7ah4eGbwyLMTXXfRKPOxVwVSGBYkoLbJjxpm0TnjdcWaKAuggeRgSHB7Q660P5gDR7ipf8puMvyJ9BbWHFCmye4PR-dAMrcLOoc2Yc1_7ObtpAM6yTAhaq5jCwZhxZZNzzb23sGrjISScz8QQ7xOPI1z0I_AwrwOhB3KLLJ","width":1600}],"place_id":"ChIJ3V_LsovWnUcRTH866VUgLV8","plus_code":{"compound_code":"4972+Q5 Germering","global_code":"8FWH4972+Q5"},"price_level":2,"rating":3.8,"reference":"ChIJ3V_LsovWnUcRTH866VUgLV8","types":["restaurant","food","point_of_interest","establishment"],"user_ratings_total":278},{"business_status":"OPERATIONAL","formatted_address":"Klenzestraße 50, 80469 München","geometry":{"location":{"lat":48.1289863,"lng":11.571454},"viewport":{"northeast":{"lat":48.13029042989272,"lng":11.57283477989272},"southwest":{"lat":48.12759077010728,"lng":11.57013512010728}}},"icon":"https://maps.gstatic.com/mapfiles/place_api/icons/v1/png_71/restaurant-71.png","icon_background_color":"#FF9E67","icon_mask_base_uri":"https://maps.gstatic.com/mapfiles/place_api/icons/v2/restaurant_pinlet","name":"Sorrento Pizza","opening_hours":{"open_now":true},"photos":[{"height":2165,"html_attributions":["<a href=\"https://maps.google.com/maps/contrib/101793085171541972761\">Hajo Kerler</a>"],"photo_reference":"AeJbb3ePRF5gqawh23Cc9BcI-ijaG9wlh_dhgT8PVWSs78foGFftSfCThZp-Khflu9-KFOBWZqLbcq-GzFuRk-mDTx7uvawW9GxjZgGjxENuzn6nMJIsjpiNCUBxTmsTUVC66O9r631kwEyXO6kheBTcg5US-muvRtbU3bowhuPmJT6N68He","width":3849}],"place_id":"ChIJH1yA9V3fnUcRp46CqJSN6S0","plus_code":{"compound_code":"4HHC+HH Munich","global_code":"8FWH4HHC+HH"},"price_level":1,"rating":3.8,"reference":"ChIJH1yA9V3fnUcRp46CqJSN6S0","types":["restaurant","food","point_of_interest","establishment"],"user_ratings_total":42},{"business_status":"OPERATIONAL","formatted_address":"Leopoldstraße 44, 80802 München","geometry":{"location":{"lat":48.157003,"lng":11.584972},"viewport":{"northeast":{"lat":48.15847352989271,"lng":11.58611402989272},"southwest":{"lat":48.15577387010727,"lng":11.58341437010728}}},"icon":"https://maps.gstatic.com/mapfiles/place_api/icons/v1/png_71/restaurant-71.png","icon_background_color":"#FF9E67","icon_mask_base_uri":"https://maps.gstatic.com/mapfiles/place_api/icons/v2/restaurant_pinlet","name":"Don Luca","opening_hours":{"open_now":false},"photos":[{"height":3024,"html_attributions":["<a href=\"https://maps.google.com/maps/contrib/113940539661905250932\">A Google User</a>"],"photo_reference":"AeJbb3cqq5VtB-jtNTOzaF9z0LTReEsF5hYCbKM09KkR1AfbnPvtDx28kFLC_7cQZDAntT98htKMFczj2IbR2Sfb7AvfuSQQ5G7r8s_eVD5Gu0h4-kjZJFajUx7pSXMwkA6pV_9kq2vxaWYlTbwbHvSIOQ-Z6B2u_hv8fgaDA7AiCJBdyn0f","width":4032}],"place_id":"ChIJpWq5bb91nkcRI0b_AjAvh5E","plus_code":{"compound_code":"5H4M+RX Munich","global_code":"8FWH5H4M+RX"},"price_level":2,"rating":3.6,"reference":"ChIJpWq5bb91nkcRI0b_AjAvh5E","types":["bar","restaurant","food","point_of_interest","establishment"],"user_ratings_total":1323},{"business_status":"OPERATIONAL","formatted_address":"Schleißheimer Str. 86, 80797 München","geometry":{"location":{"lat":48.1547765,"lng":11.5615354},"viewport":{"northeast":{"lat":48.15615072989272,"lng":11.56281257989272},"southwest":{"lat":48.15345107010727,"lng":11.56011292010728}}},"icon":"https://maps.gstatic.com/mapfiles/place_api/icons/v1/png_71/restaurant-71.png","icon_background_color":"#FF9E67","icon_mask_base_uri":"https://maps.gstatic.com/mapfiles/place_api/icons/v2/restaurant_pinlet","name":"Münchner Pizza Heimservice München","opening_hours":{"open_now":true},"photos":[{"height":4032,"html_attributions":["<a href=\"https://maps.google.com/maps/contrib/108935088660379047106\">Star</a>"],"photo_reference":"AeJbb3dkncADImRWWITeQ99Ndgwju7qPfm6nLLZvr_ssLnpwqPmE-0jDl3VhXBGIFsHKGWGdvnGeJHjLpd7zbZFvlPkz6fUoofn72hawI55fSlNcTK9KTHTJtUXaoEBAt535HCh4jltpc4tCW5CYCzU7oDcgSrgV3yztFvh7Go5JzjwVxiCh","width":3024}],"place_id":"ChIJwTscxuB1nkcRDwUfSjIHzRI","plus_code":{"compound_code":"5H36+WJ Munich","global_code":"8FWH5H36+WJ"},"price_level":1,"rating":3.5,"reference":"ChIJwTscxuB1nkcRDwUfSjIHzRI","types":["meal_delivery","meal_takeaway","restaurant","food","point_of_interest","establishment"],"user_ratings_total":98},{"business_status":"OPERATIONAL","formatted_address":"Orleanspl. 10, 81667 München","geometry":{"location":{"lat":48.1279176,"lng":11.60477},"viewport":{"northeast":{"lat":48.12934462989273,"lng":11.60590892989272},"southwest":{"lat":48.12664497010729,"lng":11.60320927010727}}},"icon":"https://maps.gstatic.com/mapfiles/place_api/icons/v1/png_71/restaurant-71.png","icon_background_color":"#FF9E67","icon_mask_base_uri":"https://maps.gstatic.com/mapfiles/place_api/icons/v2/restaurant_pinlet","name":"Mishba","opening_hours":{"open_now":true},"photos":[{"height":3648,"html_attributions":["<a href=\"https://maps.google.com/maps/contrib/112250467418607756906\">A Google User</a>"],"photo_reference":"AeJbb3cjaW7QyJCvGDVEbSEXxeUt0Mo-erGBsDUvxuBtQ5BuPLJRjN1kXE70AczRzQgHLbhZXMq5dWWgDtRkD8YDQ_9UDa4PCBTEUbzxb8r_Smu6hjj_utW4LlgR1EssTt8UdVea5Mb3KPCGcwswyWd4eI33jEk2OB22py02IcJzyl9679us","width":5472}],"place_id":"ChIJU2batobfnUcRFmrPxab68QM","plus_code":{"compound_code":"4JH3+5W Munich","global_code":"8FWH4JH3+5W"},"price_level":1,"rating":3.4,"reference":"ChIJU2batobfnUcRFmrPxab68QM","types":["restaurant","food","point_of_interest","establishment"],"user_ratings_total":179},{"business_status":"OPERATIONAL","formatted_address":"Alpenstraße 4, 82178 Puchheim","geometry":{"location":{"lat":48.18004,"lng":11.36119},"viewport":{"northeast":{"lat":48.18137762989272,"lng":11.36229582989272},"southwest":{"lat":48.17867797010728,"lng":11.35959617010728}}},"icon":"https://maps.gstatic.com/mapfiles/place_api/icons/v1/png_71/restaurant-71.png","icon_background_color":"#FF9E67","icon_mask_base_uri":"https://maps.gstatic.com/mapfiles/place_api/icons/v2/restaurant_pinlet","name":"Pizza Express Puchheim","opening_hours":{"open_now":true},"photos":[{"height":1920,"html_attributions":["<a href=\"https://maps.google.com/maps/contrib/103792365960975987861\">Vanessa Schönfeld</a>"],"photo_reference":"AeJbb3dbLoU50_Ohs03l6JdLT8XunLmjdMESEHlC2_WTJteq_MJmoN3uH7QlLtT7gxIYk1L7cXheEHrbp9XpqfETjFn8pplymcbAAvuK8LBijHKTWjbymVb7XXscc7n9_jFpOJ-aemAS6HRK9DeKH8nbb7XeU8DjBN1MqtjdfIAW0_oJ4MBb","width":1080}],"place_id":"ChIJ--7TyNV4nkcRJZhmoO3TaOY","plus_code":{"compound_code":"59J6+2F Puchheim","global_code":"8FWH59J6+2F"},"price_level":1,"rating":3.4,"reference":"ChIJ--7TyNV4nkcRJZhmoO3TaOY","types":["meal_takeaway","restaurant","food","point_of_interest","establishment"],"user_ratings_total":75},{"business_status":"OPERATIONAL","formatted_address":"Leopoldstraße 13A, 80802 München","geometry":{"location":{"lat":48.1558687,"lng":11.5832352},"viewport":{"northeast":{"lat":48.15716797989272,"lng":11.58480057989272},"southwest":{"lat":48.15446832010728,"lng":11.58210092010728}}},"icon":"https://maps.gstatic.com/mapfiles/place_api/icons/v1/png_71/restaurant-71.png","icon_background_color":"#FF9E67","icon_mask_base_uri":"https://maps.gstatic.com/mapfiles/place_api/icons/v2/restaurant_pinlet","name":"TIJUANA Café","opening_hours":{"open_now":false},"photos":[{"height":2448,"html_attributions":["<a href=\"https://maps.google.com/maps/contrib/110584393543543816458\">Basko Damalia</a>"],"photo_reference":"AeJbb3e6G2CpSxKlo3Cv3RUdjWt0XgJVrfh1eo_4_nz9vOthg6hEdZ13cuQCd7KH3qIAYROqxx_UPSWdrJrNheh2NnbxQkXK2xUtCY8_DNcNLx_3oMy4NfKOmFyLX7WCZ2cIorERwRB8afAGxHSqglcTPzKnsPAI2JKtubyW-RLASLXzkHmk","width":3264}],"place_id":"ChIJI9FJdMB1nkcRC32DTqPXMFw","plus_code":{"compound_code":"5H4M+87 Munich","global_code":"8FWH5H4M+87"},"price_level":2,"rating":3.2,"reference":"ChIJI9FJdMB1nkcRC32DTqPXMFw","types":["restaurant","bar","food","point_of_interest","establishment"],"user_ratings_total":369},{"business_status":"OPERATIONAL","formatted_address":"Martiusstraße, 80802 München","geometry":{"location":{"lat":48.1570675,"lng":11.5848857},"viewport":{"northeast":{"lat":48.15849772989272,"lng":11.58607087989272},"southwest":{"lat":48.15579807010727,"lng":11.58337122010728}}},"icon":"https://maps.gstatic.com/mapfiles/place_api/icons/v1/png_71/restaurant-71.png","icon_background_color":"#FF9E67","icon_mask_base_uri":"https://maps.gstatic.com/mapfiles/place_api/icons/v2/restaurant_pinlet","name":"Cantina Mexicana","photos":[{"height":2736,"html_attributions":["<a href=\"https://maps.google.com/maps/contrib/115666869349792476683\">Matheus Queiroz</a>"],"photo_reference":"AeJbb3duYJ56L39Gd6lOKIjr0czqShgKkl5Ru9mmGP_i9Ioqs_9tfC7jM0DPf2s37at4hOjrW3sCKHl6xRA7nNdXcnQ-czuOHITRhsjeniDwhDditUe-_Ko_L_ATO4EHizusCxghIaLP893IJO72TIW91Ir9ChkT-iedOJOV_knPJiBJEMLH","width":3648}],"place_id":"ChIJeaO-Er91nkcRJqbdWA0ElKM","plus_code":{"compound_code":"5H4M+RX Munich","global_code":"8FWH5H4M+RX"},"rating":3.2,"reference":"ChIJeaO-Er91nkcRJqbdWA0ElKM","types":["restaurant","food","point_of_interest","establishment"],"user_ratings_total":34},{"business_status":"OPERATIONAL","formatted_address":"Bahnhofstraße 2, 85604 Zorneding","geometry":{"location":{"lat":48.0828466,"lng":11.8259182},"viewport":{"northeast":{"lat":48.08421452989272,"lng":11.82725037989272},"southwest":{"lat":48.08151487010728,"lng":11.82455072010728}}},"icon":"https://maps.gstatic.com/mapfiles/place_api/icons/v1/png_71/generic_business-71.png","icon_background_color":"#7B9EB0","icon_mask_base_uri":"https://maps.gstatic.com/mapfiles/place_api/icons/v2/generic_pinlet","name":"Joti Pizza Zorneding","opening_hours":{"open_now":true},"photos":[{"height":9024,"html_attributions":["<a href=\"https://maps.google.com/maps/contrib/104960950499563899386\">A Google User</a>"],"photo_reference":"AeJbb3dr6yzWTjTgsR_k8CQnFw653wu-vdBZEm9otnjQIykoXBYKbWkClrqr2CbWXW7dTCB-GheQqVh4m-SbyqHE4Mv_MVqJagVefOXeIqC_VENq0k6LK-PTh7SrgJmwrTPM2BPRHCO54FgGF6v2xFndnOev5H_mgdeazvo4r1BUlG2B1bx-","width":12032}],"place_id":"ChIJ1Qb0LcTinUcRmQJZGk6t_Ns","plus_code":{"compound_code":"3RMG+49 Zorneding","global_code":"8FWH3RMG+49"},"price_level":1,"rating":3.1,"reference":"ChIJ1Qb0LcTinUcRmQJZGk6t_Ns","types":["meal_delivery","store","meal_takeaway","restaurant","food","point_of_interest","establishment"],"user_ratings_total":153},{"business_status":"OPERATIONAL","formatted_address":"Drygalski-Allee 117, 81477 München","geometry":{"location":{"lat":48.0822776,"lng":11.5043221},"viewport":{"northeast":{"lat":48.08351612989272,"lng":11.50562167989272},"southwest":{"lat":48.08081647010728,"lng":11.50292202010728}}},"icon":"https://maps.gstatic.com/mapfiles/place_api/icons/v1/png_71/restaurant-71.png","icon_background_color":"#FF9E67","icon_mask_base_uri":"https://maps.gstatic.com/mapfiles/place_api/icons/v2/restaurant_pinlet","name":"Pizzeria Jalapenos München","opening_hours":{"open_now":true},"photos":[{"height":1920,"html_attributions":["<a href=\"https://maps.google.com/maps/contrib/108867637879437151166\">Arinna luu</a>"],"photo_reference":"AeJbb3cU1ACnyUqHetQ-xQ5lAxYS-GFy2GFHvPjgT26JXlvfFqdfSmdj50qjzUMqdPShCbW0J97TrBr5N4E-zBW7o9G3B-Whw0YaAWYdKDFpzGVfpIg3OUcIA8sKxCJUxIqZ3rA35iWVwAkGPC5JZ4jQoeBerGI9Mbe2cmzTCqoQJyJZyPmH","width":1080}],"place_id":"ChIJrdrHaD_ZnUcRJwDWvVY46uE","plus_code":{"compound_code":"3GJ3+WP Munich","global_code":"8FWH3GJ3+WP"},"rating":3.1,"reference":"ChIJrdrHaD_ZnUcRJwDWvVY46uE","types":["meal_delivery","meal_takeaway","restaurant","food","point_of_interest","establishment"],"user_ratings_total":13},{"business_status":"OPERATIONAL","formatted_address":"Rossinistraße 15, 85598 Vaterstetten","geometry":{"location":{"lat":48.1048537,"lng":11.7875251},"viewport":{"northeast":{"lat":48.10629852989272,"lng":11.78899312989272},"southwest":{"lat":48.10359887010728,"lng":11.78629347010728}}},"icon":"https://maps.gstatic.com/mapfiles/place_api/icons/v1/png_71/restaurant-71.png","icon_background_color":"#FF9E67","icon_mask_base_uri":"https://maps.gstatic.com/mapfiles/place_api/icons/v2/restaurant_pinlet","name":"Rialto Pizza Baldham","opening_hours":{"open_now":true},"photos":[{"height":3968,"html_attributions":["<a href=\"https://maps.google.com/maps/contrib/118297118501822715235\">Florian Schmidbauer</a>"],"photo_reference":"AeJbb3etqICNnDxJDFKXdIVi2vFjy6rpjZN7mB5teH24_Zj-COrR5JrMhhXi6V-G7cnPNPeDQU9dNZEfezxj9MIXuimXNIS9HusQTswMcFDeWFUpDpsSo3UrH3FnpHzrUBA_-lzMGSjHxVCR_QFbN2kDLByn5nrvDmQi9ItAJwbEYatF9TBH","width":2976}],"place_id":"ChIJreT37XrinUcRs6sG60Vkqgc","plus_code":{"compound_code":"4Q3Q+W2 Vaterstetten","global_code":"8FWH4Q3Q+W2"},"price_level":1,"rating":2.8,"reference":"ChIJreT37XrinUcRs6sG60Vkqgc","types":["restaurant","food","point_of_interest","establishment"],"user_ratings_total":113},{"business_status":"OPERATIONAL","formatted_address":"Nymphenburger Str. 25, 80335 München","geometry":{"location":{"lat":48.1481565,"lng":11.5537717},"viewport":{"northeast":{"lat":48.14960232989272,"lng":11.55513102989272},"southwest":{"lat":48.14690267010728,"lng":11.55243137010728}}},"icon":"https://maps.gstatic.com/mapfiles/place_api/icons/v1/png_71/restaurant-71.png","icon_background_color":"#FF9E67","icon_mask_base_uri":"https://maps.gstatic.com/mapfiles/place_api/icons/v2/restaurant_pinlet","name":"Corazon - Mexican Streetfood","place_id":"ChIJO_P2nN51nkcRUt_VgaFB__4","plus_code":{"compound_code":"4HX3+6F Munich","global_code":"8FWH4HX3+6F"},"rating":2.6,"reference":"ChIJO_P2nN51nkcRUt_VgaFB__4","types":["restaurant","food","point_of_interest","establishment"],"user_ratings_total":11},{"business_status":"OPERATIONAL","formatted_address":"Frauenstraße 15, 80469 München","geometry":{"location":{"lat":48.1346222,"lng":11.5786481},"viewport":{"northeast":{"lat":48.13591247989272,"lng":11.58000867989272},"southwest":{"lat":48.13321282010728,"lng":11.57730902010728}}},"icon":"https://maps.gstatic.com/mapfiles/place_api/icons/v1/png_71/restaurant-71.png","icon_background_color":"#FF9E67","icon_mask_base_uri":"https://maps.gstatic.com/mapfiles/place_api/icons/v2/restaurant_pinlet","name":"Burrito Company München Viktualienmarkt","place_id":"ChIJWXtVmKN1nkcRze6FwhRIrhc","plus_code":{"compound_code":"4HMH+RF Munich","global_code":"8FWH4HMH+RF"},"rating":0,"reference":"ChIJWXtVmKN1nkcRze6FwhRIrhc","types":["restaurant","food","point_of_interest","establishment"],"user_ratings_total":0},{"business_status":"OPERATIONAL","formatted_address":"Agnesstraße 54, 80798 München","geometry":{"location":{"lat":48.1584107,"lng":11.5635759},"viewport":{"northeast":{"lat":48.15966577989272,"lng":11.56491277989272},"southwest":{"lat":48.15696612010728,"lng":11.56221312010728}}},"icon":"https://maps.gstatic.com/mapfiles/place_api/icons/v1/png_71/restaurant-71.png","icon_background_color":"#FF9E67","icon_mask_base_uri":"https://maps.gstatic.com/mapfiles/place_api/icons/v2/restaurant_pinlet","name":"Burrito Company München Neuschwabing","place_id":"ChIJjaT8D5p1nkcRlvEU-rJCs4s","plus_code":{"compound_code":"5H57+9C Munich","global_code":"8FWH5H57+9C"},"rating":0,"reference":"ChIJjaT8D5p1nkcRlvEU-rJCs4s","types":["restaurant","food","point_of_interest","establishment"],"user_ratings_total":0}]