[{"business_status":"OPERATIONAL","formatted_address":"Am Sportpark 3, 82008 Unterhaching","geometry":{"location":{"lat":48.07157360000001,"lng":11.6184419},"viewport":{"northeast":{"lat":48.07293107989272,"lng":11.61977002989272},"southwest":{"lat":48.07023142010728,"lng":11.61707037010728}}},"icon":"https://maps.gstatic.com/mapfiles/place_api/icons/v1/png_71/restaurant-71.png","icon_background_color":"#FF9E67","icon_mask_base_uri":"https://maps.gstatic.com/mapfiles/place_api/icons/v2/restaurant_pinlet","name":"American Burger Bar","opening_hours":{"open_now":true},"photos":[{"height":1797,"html_attributions":["<a href=\"https://maps.google.com/maps/contrib/107856259476882935859\">Julian Wehrig</a>"],"photo_reference":"AeJbb3cbKEqr7iOyfz3RrNmxNzvIIjTNSPmH7IGEShf2r5Vrqi3acC_47T4GNYZ7g0XUX7epthl7RYYJ5ug3kXsXZPgePB6OoMVJtNwX6ostkDmA2GXOGxxahvMcnfIPq2xRLAFBhXfzx3MSZ1wmEmPyKbwS4e7397fNoZ2FZCQVDu9la8Z6","width":2736}],"place_id":"ChIJ6_znViLenUcR1UJKFcjA45I","plus_code":{"compound_code":"3JC9+J9 Unterhaching","global_code":"8FWH3JC9+J9"},"price_level":2,"rating":4.8,"reference":"ChIJ6_znViLenUcR1UJKFcjA45I","types":["meal_takeaway","restaurant","food","point_of_interest","establishment"],"user_ratings_total":1261},{"business_status":"OPERATIONAL","formatted_address":"Tal 32, 80331 München","geometry":{"location":{"lat":48.1356659,"lng":11.5801923},"viewport":{"northeast":{"lat":48.13705402989272,"lng":11.58157572989272},"southwest":{"lat":48.13435437010728,"lng":11.57887607010728}}},"icon":"https://maps.gstatic.com/mapfiles/place_api/icons/v1/png_71/restaurant-71.png","icon_background_color":"#FF9E67","icon_mask_base_uri":"https://maps.gstatic.com/mapfiles/place_api/icons/v2/restaurant_pinlet","name":"Sesam Falafel","opening_hours":{"open_now":true},"photos":[{"height":4032,"html_attributions":["<a href=\"https://maps.google.com/maps/contrib/110619983737172239270\">Bander MD</a>"],"photo_reference":"AeJbb3f1WpJolYeP3Ov43W97E501e8oqA-Dzk6nU2O7lBxSwvtWMs94hAx5XFtWEb5KdyIk-I_fwysuJI_P8WnVJ27GB4xw-kEqaPbyNJITQv3-8f4BD2PjRxwJdSF1E6YVzvFnr0TgXtiA96ZPsYA9CyhKDBNOg4CLd0AjpY5IWTOhyiSwS","width":3024}],"place_id":"ChIJK3IYI4p1nkcRxP2FD0W9vso","plus_code":{"compound_code":"4HPJ+73 Munich","global_code":"8FWH4HPJ+73"},"price_level":1,"rating":4.8,"reference":"ChIJK3IYI4p1nkcRxP2FD0W9vso","types":["restaurant","food","point_of_interest","establishment"],"user_ratings_total":1147},{"business_status":"OPERATIONAL","formatted_address":"Kapuzinerstraße 2, 80337 München","geometry":{"location":{"lat":48.1279232,"lng":11.5562627},"viewport":{"northeast":{"lat":48.12925982989272,"lng":11.55771227989272},"southwest":{"lat":48.12656017010728,"lng":11.55501262010728}}},"icon":"https://maps.gstatic.com/mapfiles/place_api/icons/v1/png_71/restaurant-71.png","icon_background_color":"#FF9E67","icon_mask_base_uri":"https://maps.gstatic.com/mapfiles/place_api/icons/v2/restaurant_pinlet","name":"Make Falafel Not War Halal Restaurant","opening_hours":{"open_now":true},"photos":[{"height":4160,"html_attributions":["<a href=\"https://maps.google.com/maps/contrib/103992490456184053482\">Rodrigo Iridologo</a>"],"photo_reference":"AeJbb3cFvbgC4QNFvr5PzC9Uhh-fca58r-f6H_Y_jjGaPgSBFKEZDVMblt0UZtj5jQeADhcDxxQXUdcuqo-u7kyjo7VTr2p7gnyMCABSrNAz6JYGqgLmzcSpwKwO40IgQMbjOUhZdCEMMSAk3cYHvs7Fhgl8UTPJQb95GJVcKSditMawtOMi","width":2336}],"place_id":"ChIJg6GSP1DfnUcRFFTaeRNxVXs","plus_code":{"compound_code":"4HH4+5G Munich","global_code":"8FWH4HH4+5G"},"price_level":1,"rating":4.7,"reference":"ChIJg6GSP1DfnUcRFFTaeRNxVXs","types":["meal_takeaway","restaurant","food","point_of_interest","establishment"],"user_ratings_total":226},{"business_status":"OPERATIONAL","formatted_address":"Heßstraße 90, 80797 München","geometry":{"location":{"lat":48.1535802,"lng":11.5604555},"viewport":{"northeast":{"lat":48.15489812989273,"lng":11.56185057989272},"southwest":{"lat":48.15219847010728,"lng":11.55915092010728}}},"icon":"https://maps.gstatic.com/mapfiles/place_api/icons/v1/png_71/restaurant-71.png","icon_background_color":"#FF9E67","icon_mask_base_uri":"https://maps.gstatic.com/mapfiles/place_api/icons/v2/restaurant_pinlet","name":"Taste my Burger","opening_hours":{"open_now":true},"photos":[{"height":3024,"html_attributions":["<a href=\"https://maps.google.com/maps/contrib/116290331112733660441\">Felicitas Annis</a>"],"photo_reference":"AeJbb3elotXkAR4FDnrcOlxAONesUZa1pKTsx7ndhh6JaXT-KGogi5aPuOIfDW6uVilRpFdeyFQfltn1AX78TYtfR339E0D0xTVZ57FG5tFMS1acrma2CDUq83pl_UtUqQtvPgBLz6SQ-ecovvToOdIOKz5kovezsBhMKehuf_R71ha1WtrJ","width":4032}],"place_id":"ChIJj63UJft1nkcR4uGzEqg9seo","plus_code":{"compound_code":"5H36+C5 Munich","global_code":"8FWH5H36+C5"},"price_level":1,"rating":4.6,"reference":"ChIJj63UJft1nkcR4uGzEqg9seo","types":["restaurant","food","point_of_interest","establishment"],"user_ratings_total":2561},{"business_status":"OPERATIONAL","formatted_address":"Fürstenrieder Str. 152, 80686 München","geometry":{"location":{"lat":48.1274046,"lng":11.5023682},"viewport":{"northeast":{"lat":48.12875262989272,"lng":11.50386912989272},"southwest":{"lat":48.12605297010728,"lng":11.50116947010728}}},"icon":"https://maps.gstatic.com/mapfiles/place_api/icons/v1/png_71/restaurant-71.png","icon_background_color":"#FF9E67","icon_mask_base_uri":"https://maps.gstatic.com/mapfiles/place_api/icons/v2/restaurant_pinlet","name":"My Stolz The Burger Boss München Laim","opening_hours":{"open_now":true},"photos":[{"height":3456,"html_attributions":["<a href=\"https://maps.google.com/maps/contrib/118113201916771724940\">My Stolz - The Burger Boss</a>"],"photo_reference":"AeJbb3d7eLP-oKqtgTdOf5Zl1Ze9nAd5MQwtW38WU3gGfBDbdwsElHP8S1QCqXvuSeOe879NCwH5WGoceZsXXzQ-_9c8yLVMJUJTOuqRPpXAyx-e9T2X9SHtl1gRyTgB_WIlU_AcdCNyd7M8PMsexW5toij20roBnQyogqwGPzPRymR4duRE","width":5184}],"place_id":"ChIJVQoueo7YnUcRnG_DJZSt4vM","plus_code":{"compound_code":"4GG2+XW Munich","global_code":"8FWH4GG2+XW"},"price_level":2,"rating":4.6,"reference":"ChIJVQoueo7YnUcRnG_DJZSt4vM","types":["restaurant","food","point_of_interest","establishment"],"user_ratings_total":769},{"business_status":"OPERATIONAL","formatted_address":"Lindwurmstraße 77, 80337 München","geometry":{"location":{"lat":48.1296748,"lng":11.5591298},"viewport":{"northeast":{"lat":48.13108912989272,"lng":11.56039747989272},"southwest":{"lat":48.12838947010728,"lng":11.55769782010728}}},"icon":"https://maps.gstatic.com/mapfiles/place_api/icons/v1/png_71/restaurant-71.png","icon_background_color":"#FF9E67","icon_mask_base_uri":"https://maps.gstatic.com/mapfiles/place_api/icons/v2/restaurant_pinlet","name":"Zum Würstlkönig","opening_hours":{"open_now":true},"photos":[{"height":2988,"html_attributions":["<a href=\"https://maps.google.com/maps/contrib/102929691071139575980\">Lukas Lurex</a>"],"photo_reference":"AeJbb3eSjXRhofMNCq1fGIZ1bX8QnSgHRO0ldzezSh-ahA0I2PxBmOOqG3vNWUCD_ZomFdGvL-mbPDCkH79_JmC4LRCzsJS1O9p94Zmc9NsWvmP_hvQ3Iu7gHviE_ZysSarPSZKMFBOiRVIj4TeZ86FO8y8UmKeX6LNm0hx9p0ds_mtKmRUc","width":5312}],"place_id":"ChIJLyhFcVrfnUcRj2528_5Uxdw","plus_code":{"compound_code":"4HH5+VM Munich","global_code":"8FWH4HH5+VM"},"price_level":1,"rating":4.6,"reference":"ChIJLyhFcVrfnUcRj2528_5Uxdw","types":["restaurant","food","point_of_interest","establishment"],"user_ratings_total":375},{"business_status":"OPERATIONAL","formatted_address":"Rindermarkt, Marienplatz 6, 80331 München","geometry":{"location":{"lat":48.1359489,"lng":11.5744248},"viewport":{"northeast":{"lat":48.13736772989272,"lng":11.57572187989272},"southwest":{"lat":48.13466807010727,"lng":11.57302222010728}}},"icon":"https://maps.gstatic.com/mapfiles/place_api/icons/v1/png_71/restaurant-71.png","icon_background_color":"#FF9E67","icon_mask_base_uri":"https://maps.gstatic.com/mapfiles/place_api/icons/v2/restaurant_pinlet","name":"Ruff's Burger Marienplatz","opening_hours":{"open_now":true},"photos":[{"height":3024,"html_attributions":["<a href=\"https://maps.google.com/maps/contrib/105655148568203414528\">Daniela Vadalà</a>"],"photo_reference":"AeJbb3dxQ5E6p7rCq_pPjHuFwHctO_gh5-ajzuAP70qMxTB0Pe3AohFFwJN6QcHbmLuBQaASc9uPALcYWKvO9xJOvEhUIk9MLzlt5C-gUmZp29nKLnQx1xqmVbxb52uqjIx9qUUEKOzU0ycNvZuV2c0HwZpmk8ZIaAoAu4hO7zWpfhlfcaJR","width":4032}],"place_id":"ChIJyyutSvV1nkcRvfYMURk_ryQ","plus_code":{"compound_code":"4HPF+9Q Munich","global_code":"8FWH4HPF+9Q"},"price_level":2,"rating":4.5,"reference":"ChIJyyutSvV1nkcRvfYMURk_ryQ","types":["meal_takeaway","restaurant","food","point_of_interest","establishment"],"user_ratings_total":1890},{"business_status":"OPERATIONAL","formatted_address":"Müllerstraße 43, 80469 München","geometry":{"location":{"lat":48.1313019,"lng":11.568316},"viewport":{"northeast":{"lat":48.13269182989273,"lng":11.56969292989272},"southwest":{"lat":48.12999217010728,"lng":11.56699327010728}}},"icon":"https://maps.gstatic.com/mapfiles/place_api/icons/v1/png_71/restaurant-71.png","icon_background_color":"#FF9E67","icon_mask_base_uri":"https://maps.gstatic.com/mapfiles/place_api/icons/v2/restaurant_pinlet","name":"Bazi's Schlemmerkucherl","opening_hours":{"open_now":true},"photos":[{"height":3120,"html_attributions":["<a href=\"https://maps.google.com/maps/contrib/117536730326941827083\">Steve Lipp</a>"],"photo_reference":"AeJbb3dougPIKUD0gHy0hdMgZ7aSVl9B-8enKV1qL9PF3uUOPdLSS-oVzl-F9-kK-Vq6NUlHK6Kn7iVaJG1b_fBW9hWbV_n8vGFhidwea7Iexsb1uBPTeMDFGIjbcpQNJBUAF1725kFoUrcfs-13bVEQEVLxQhRpce8tQwMl27nYd9Bqi7AB","width":4160}],"place_id":"ChIJPYf7jl7fnUcRq-1pyEC-h6I","plus_code":{"compound_code":"4HJ9+G8 Munich","global_code":"8FWH4HJ9+G8"},"rating":4.5,"reference":"ChIJPYf7jl7fnUcRq-1pyEC-h6I","types":["meal_takeaway","restaurant","food","point_of_interest","establishment"],"user_ratings_total":536},{"business_status":"OPERATIONAL","formatted_address":"Sendlinger Str. 45, 80331 München","geometry":{"location":{"lat":48.1341992,"lng":11.5683236},"viewport":{"northeast":{"lat":48.13553012989272,"lng":11.56948257989272},"southwest":{"lat":48.13283047010727,"lng":11.56678292010728}}},"icon":"https://maps.gstatic.com/mapfiles/place_api/icons/v1/png_71/restaurant-71.png","icon_background_color":"#FF9E67","icon_mask_base_uri":"https://maps.gstatic.com/mapfiles/place_api/icons/v2/restaurant_pinlet","name":"Ringlers Sandwich-Grill - Foodtruck - Catering in München","opening_hours":{"open_now":true},"photos":[{"height":3672,"html_attributions":["<a href=\"https://maps.google.com/maps/contrib/114691659947451018155\">Wolfgang Straubinger</a>"],"photo_reference":"AeJbb3f8HAWU6J_j9-eoqo-GL_1ybUVRz39s8tUbq1oPYLihHD003bVNypNK9Cm_P-4_5bdDOa4ZKhn1lW36TQVV_a4y8XBHs094t-U75Ou_OzSn2d_MlXRxWsp1HQxLyx89IFIijapqGLOKMF4tMwLNhgiDfiB_qJIUZ48SFYHuSoVYosvd","width":4896}],"place_id":"ChIJM3BeR1_fnUcRPLvNX0ZJKtE","plus_code":{"compound_code":"4HM9+M8 Munich","global_code":"8FWH4HM9+M8"},"price_level":1,"rating":4.5,"reference":"ChIJM3BeR1_fnUcRPLvNX0ZJKtE","types":["restaurant","food","point_of_interest","establishment"],"user_ratings_total":312},{"business_status":"OPERATIONAL","formatted_address":"Dachauer Str. 26, 80335 München","geometry":{"location":{"lat":48.1439406,"lng":11.5600911},"viewport":{"northeast":{"lat":48.14527802989272,"lng":11.56133717989272},"southwest":{"lat":48.14257837010727,"lng":11.55863752010728}}},"icon":"https://maps.gstatic.com/mapfiles/place_api/icons/v1/png_71/restaurant-71.png","icon_background_color":"#FF9E67","icon_mask_base_uri":"https://maps.gstatic.com/mapfiles/place_api/icons/v2/restaurant_pinlet","name":"Eat Fresh","opening_hours":{"open_now":true},"photos":[{"height":757,"html_attributions":["<a href=\"https://maps.google.com/maps/contrib/105974821110181466947\">A Google User</a>"],"photo_reference":"AeJbb3enNSLxSJfsNCFxVDLote5z_nvKFaU6FKNQlvppqJ-nxH-AjnDAULcZaHT5qI8rCCMKjP1Chvmlmz04-1paZEZLssR1FhS0gGMZlqOXNKRjtpcorVL0em_hgpE9dVlMhW-BtYJRt8P2X4EfNzg8gKc6bf-aNiYW9CpP44v8KamYUQkU","width":1600}],"place_id":"ChIJX1D9G5F1nkcRV_kF8fZyP4c","plus_code":{"compound_code":"4HV6+H2 Munich","global_code":"8FWH4HV6+H2"},"rating":4.5,"reference":"ChIJX1D9G5F1nkcRV_kF8fZyP4c","types":["restaurant","food","point_of_interest","establishment"],"user_ratings_total":26},{"business_status":"OPERATIONAL","formatted_address":"Brienner Str. 49, 80333 München","geometry":{"location":{"lat":48.146822,"lng":11.561011},"viewport":{"northeast":{"lat":48.14825842989272,"lng":11.56239227989272},"southwest":{"lat":48.14555877010728,"lng":11.55969262010728}}},"icon":"https://maps.gstatic.com/mapfiles/place_api/icons/v1/png_71/restaurant-71.png","icon_background_color":"#FF9E67","icon_mask_base_uri":"https://maps.gstatic.com/mapfiles/place_api/icons/v2/restaurant_pinlet","name":"Hamburgerei EINS","opening_hours":{"open_now":true},"photos":[{"height":1536,"html_attributions":["<a href=\"https://maps.google.com/maps/contrib/117308447167753266317\">Hamburgerei</a>"],"photo_reference":"AeJbb3fjzK3lU9JTBCLAYs2A-CHFMyJUuXbMdl696SuYBPLlO16qJSFMnigPEf-Z-JfcUA8b8IZjv10nzMvbsRu12ehKHlO4E5uG18W87dpdU6JPOREa24UOSTJhx8wOAipk3yQyM-DGSpQ5EpAPk8X5AZ66ua2py4WfkVgfJqerT7Mqw3RI","width":2304}],"place_id":"ChIJbyS9yOR1nkcRUCwH80RQmX8","plus_code":{"compound_code":"4HW6+PC Munich","global_code":"8FWH4HW6+PC"},"price_level":2,"rating":4.4,"reference":"ChIJbyS9yOR1nkcRUCwH80RQmX8","types":["bar","restaurant","food","point_of_interest","establishment"],"user_ratings_total":2370},{"business_status":"OPERATIONAL","formatted_address":"Einsteinstraße 106, 81675 München","geometry":{"location":{"lat":48.1360321,"lng":11.6087633},"viewport":{"northeast":{"lat":48.13743602989273,"lng":11.61015562989272},"southwest":{"lat":48.13473637010728,"lng":11.60745597010728}}},"icon":"https://maps.gstatic.com/mapfiles/place_api/icons/v1/png_71/restaurant-71.png","icon_background_color":"#FF9E67","icon_mask_base_uri":"https://maps.gstatic.com/mapfiles/place_api/icons/v2/restaurant_pinlet","name":"Hamburgerei ZWEI","opening_hours":{"open_now":true},"photos":[{"height":3840,"html_attributions":["<a href=\"https://maps.google.com/maps/contrib/102322126728247309698\">Juan Antonio Estrada Herrera</a>"],"photo_reference":"AeJbb3dCz5ZIR6vfSMtVsebejy-G0AUccGg1mrWsIs_MGRjInxUsO9SZL718G1PfzsXndbuox7mN1RHrgpnfGjJyb6b1dotTYrfS13pUt4k5PmsMhxC9z5hXyBBkwZyKMlQYWr8b7EhNHWDkB_us4dGf1PnKbISL0gQhJzZYl4qCVB1ftdK0","width":5120}],"place_id":"ChIJH3iQDHx1nkcRYrefzOow4pg","plus_code":{"compound_code":"4JP5+CG Munich","global_code":"8FWH4JP5+CG"},"price_level":2,"rating":4.4,"reference":"ChIJH3iQDHx1nkcRYrefzOow4pg","types":["restaurant","food","point_of_interest","establishment"],"user_ratings_total":1175},{"business_status":"OPERATIONAL","formatted_address":"Kazmairstraße 37, 80339 München","geometry":{"location":{"lat":48.1345676,"lng":11.54161},"viewport":{"northeast":{"lat":48.13598027989272,"lng":11.54295232989272},"southwest":{"lat":48.13328062010728,"lng":11.54025267010728}}},"icon":"https://maps.gstatic.com/mapfiles/place_api/icons/v1/png_71/restaurant-71.png","icon_background_color":"#FF9E67","icon_mask_base_uri":"https://maps.gstatic.com/mapfiles/place_api/icons/v2/restaurant_pinlet","name":"King Loui","opening_hours":{"open_now":true},"photos":[{"height":3024,"html_attributions":["<a href=\"https://maps.google.com/maps/contrib/112132640526683693127\">Albrecht Wigand</a>"],"photo_reference":"AeJbb3fAL_0Kf_2cUP4yHdEqGfzfoRtzas_fqBUSuxMF_ggwFzP_R1C05kuKMk1taf3wFd1JjnUaJt-cp9mxyMAZHX9CPv9kaOAoRtBZ0ayyOw7Rq92jWrlA9F1KYz3ZJ9SktC7DyKpeqnfNqWbRC5wpXh5ENEHasIGRTtEs3aL0HLbrzC9Q","width":4032}],"place_id":"ChIJH1Pt3KvYnUcRw-gNCRXKq6c","plus_code":{"compound_code":"4GMR+RJ Munich","global_code":"8FWH4GMR+RJ"},"price_level":2,"rating":4.4,"reference":"ChIJH1Pt3KvYnUcRw-gNCRXKq6c","types":["restaurant","food","point_of_interest","establishment"],"user_ratings_total":947},{"business_status":"OPERATIONAL","formatted_address":"Barer Str. 46, 80799 München","geometry":{"location":{"lat":48.1495713,"lng":11.5725068},"viewport":{"northeast":{"lat":48.15090052989272,"lng":11.57376832989272},"southwest":{"lat":48.14820087010728,"lng":11.57106867010728}}},"icon":"https://maps.gstatic.com/mapfiles/place_api/icons/v1/png_71/restaurant-71.png","icon_background_color":"#FF9E67","icon_mask_base_uri":"https://maps.gstatic.com/mapfiles/place_api/icons/v2/restaurant_pinlet","name":"Indisches Fastfood","opening_hours":{"open_now":true},"photos":[{"height":1908,"html_attributions":["<a href=\"https://maps.google.com/maps/contrib/117339179364294148864\">Diego Havenstein</a>"],"photo_reference":"AeJbb3c_5KsvwjenzQE6Ng49a6mZWrTRuh2GZpT1K-63QdH1Fl0ghHmPFY3clLDPctAyl3zeZj7Jan5F_QY-iiKrM94wDe0q1aRDll4409HCkTAf7eBy7JwP7LXjImgT65nV5R2YgEqpPbC_aXGpKOC26TBZU3qvwQSRxY5Jf_kvD-07A0PU","width":4032}],"place_id":"ChIJY3FhsO51nkcR-_uvwjXmh_w","plus_code":{"compound_code":"4HXF+R2 Munich","global_code":"8FWH4HXF+R2"},"price_level":1,"rating":4.4,"reference":"ChIJY3FhsO51nkcR-_uvwjXmh_w","types":["restaurant","food","point_of_interest","establishment"],"user_ratings_total":214},{"business_status":"OPERATIONAL","formatted_address":"Barer Str. 34, 80333 München","geometry":{"location":{"lat":48.1461376,"lng":11.5708213},"viewport":{"northeast":{"lat":48.14754612989272,"lng":11.57196907989272},"southwest":{"lat":48.14484647010728,"lng":11.56926942010728}}},"icon":"https://maps.gstatic.com/mapfiles/place_api/icons/v1/png_71/restaurant-71.png","icon_background_color":"#FF9E67","icon_mask_base_uri":"https://maps.gstatic.com/mapfiles/place_api/icons/v2/restaurant_pinlet","name":"Grillin Me Softly GmbH (Büro)","opening_hours":{"open_now":true},"photos":[{"height":4032,"html_attributions":["<a href=\"https://maps.google.com/maps/contrib/103292413556948678612\">Larry Terwey</a>"],"photo_reference":"AeJbb3f4L-i3oqxaiK5rosqvhvpXB9fXjgRjQXNsZPYBIPawH0sugSMKSus9jdCfgkm6O4QIi3M3KkuJrsZ5kgIxlKgH3KJ7nxbk1ccDgt29YNWpgwIg9ur-J2B9TBg7VbbIAk1gRCyKj18krX9bCOGbWn0AXJEXmXo7lglJ1OQK9CLD_0Az","width":3024}],"place_id":"ChIJpeiYEe51nkcRTJm62Qvn9i4","plus_code":{"compound_code":"4HWC+CC Munich","global_code":"8FWH4HWC+CC"},"rating":4.4,"reference":"ChIJpeiYEe51nkcRTJm62Qvn9i4","types":["restaurant","food","point_of_interest","establishment"],"user_ratings_total":46},{"business_status":"OPERATIONAL","formatted_address":"Theresienstraße 47, 80333 München","geometry":{"location":{"lat":48.1504941,"lng":11.5661522},"viewport":{"northeast":{"lat":48.15186487989272,"lng":11.56751737989272},"southwest":{"lat":48.14916522010728,"lng":11.56481772010728}}},"icon":"https://maps.gstatic.com/mapfiles/place_api/icons/v1/png_71/restaurant-71.png","icon_background_color":"#FF9E67","icon_mask_base_uri":"https://maps.gstatic.com/mapfiles/place_api/icons/v2/restaurant_pinlet","name":"Djudi Schnellrestaurant","opening_hours":{"open_now":true},"photos":[{"height":4032,"html_attributions":["<a href=\"https://maps.google.com/maps/contrib/110767916948617062538\">joshy</a>"],"photo_reference":"AeJbb3cBxAbSbMP1ddMZQV-5aUQbOoBFYSScC7RsmYMsPSwpDtKiPfzd2tMUm148-dzFinWrRQrytgt3zjZrrxLot2vbVoaTi51B6rOjxCi8GWeNbklJIhtVXWdz8WyicddHjKdhWk4L2haTWOafLwBdKobZ0BERezH7OmtJrICm7MzbiriK","width":3024}],"place_id":"ChIJy7Fh4-V1nkcR1_htBHgiz5U","plus_code":{"compound_code":"5H28+5F Munich","global_code":"8FWH5H28+5F"},"price_level":1,"rating":4.2,"reference":"ChIJy7Fh4-V1nkcR1_htBHgiz5U","types":["restaurant","food","point_of_interest","establishment"],"user_ratings_total":291},{"business_status":"OPERATIONAL","formatted_address":"Pasinger Bahnhofspl. 5/Unit 138, 81241 München","geometry":{"location":{"lat":48.1477793,"lng":11.4633982},"viewport":{"northeast":{"lat":48.14917432989272,"lng":11.46472657989272},"southwest":{"lat":48.14647467010727,"lng":11.46202692010728}}},"icon":"https://maps.gstatic.com/mapfiles/place_api/icons/v1/png_71/restaurant-71.png","icon_background_color":"#FF9E67","icon_mask_base_uri":"https://maps.gstatic.com/mapfiles/place_api/icons/v2/restaurant_pinlet","name":"Five Guys München Pasing Arcaden","opening_hours":{"open_now":true},"photos":[{"height":3456,"html_attributions":["<a href=\"https://maps.google.com/maps/contrib/114036950619837046313\">Kai Gregor</a>"],"photo_reference":"AeJbb3dd3YOdWMftQBRjW4-1S-lkQmBDfj1w1jre_aBtMQ6fBPCxbobQLlxeBFgbrawmOMEhwpugGrDnwpsx7fcAEwAyjHqcBP8EO1vyMlkWeGUnRXHMLI9tE6zXUQOS-jAyZohUu66KgIjtXFtE31yfK4HZrIKahDNOt5M6sLZXtDm6Plgc","width":4608}],"place_id":"ChIJdZJAstV3nkcRnbARpJp6vU4","plus_code":{"compound_code":"4FX7+49 Munich","global_code":"8FWH4FX7+49"},"price_level":2,"rating":4.1,"reference":"ChIJdZJAstV3nkcRnbARpJp6vU4","types":["meal_takeaway","restaurant","food","point_of_interest","establishment"],"user_ratings_total":2277},{"business_status":"OPERATIONAL","formatted_address":"Amalienstraße 46, 80799 München","geometry":{"location":{"lat":48.149252,"lng":11.577959},"viewport":{"northeast":{"lat":48.15063937989272,"lng":11.57923302989272},"southwest":{"lat":48.14793972010727,"lng":11.57653337010728}}},"icon":"https://maps.gstatic.com/mapfiles/place_api/icons/v1/png_71/restaurant-71.png","icon_background_color":"#FF9E67","icon_mask_base_uri":"https://maps.gstatic.com/mapfiles/place_api/icons/v2/restaurant_pinlet","name":"Pommes Boutique","opening_hours":{"open_now":true},"photos":[{"height":3024,"html_attributions":["<a href=\"https://maps.google.com/maps/contrib/100182325145037751929\">Dubois-D Thomas</a>"],"photo_reference":"AeJbb3cy9p2tXRYdwgnbqIcbMAHEhPt8JvSCgl529m6JtUXGxgou9vM0hPmlxGwwpMColiQKJYYHln7v-iDA8P6eiY5XjpeyTq_tqzEL37TmG9sm5E11Hsi4sb-AStmmLQ0jnfZsdktitnl7jZAuea5Mm-_6rUn181DPFTjNBrFUmuOTHH91","width":4032}],"place_id":"ChIJo8dHmex1nkcRCxUL0JUm6b0","plus_code":{"compound_code":"4HXH+P5 Munich","global_code":"8FWH4HXH+P5"},"price_level":2,"rating":4.1,"reference":"ChIJo8dHmex1nkcRCxUL0JUm6b0","types":["meal_takeaway","restaurant","food","point_of_interest","establishment"],"user_ratings_total":532},{"business_status":"OPERATIONAL","formatted_address":"Theresienstraße 15, 80333 München","geometry":{"location":{"lat":48.1472393,"lng":11.5776865},"viewport":{"northeast":{"lat":48.14863297989272,"lng":11.57905927989272},"southwest":{"lat":48.14593332010727,"lng":11.57635962010728}}},"icon":"https://maps.gstatic.com/mapfiles/place_api/icons/v1/png_71/cafe-71.png","icon_background_color":"#FF9E67","icon_mask_base_uri":"https://maps.gstatic.com/mapfiles/place_api/icons/v2/cafe_pinlet","name":"Fast And Tasty","opening_hours":{"open_now":true},"photos":[{"height":4032,"html_attributions":["<a href=\"https://maps.google.com/maps/contrib/104174851710776757015\">lifestyle- tale</a>"],"photo_reference":"AeJbb3cISvWDWTbKrfyme8GbVso8G9Pyy2OYb2HI3pNojbECi16BohJqV4UOJno2lkQZsXF-jMqQIJiZ-gEzq405GJTQpu1ZQPEOImcqk2ypRB4dI5l5_igDlNQ_FeDEqj7n0jA6HoQE2NqbrOHKbZLihk3JAwgkYbSxv9OV-_RNOYqxP8BE","width":3024}],"place_id":"ChIJT5D63ux1nkcR4HJoTzbLRQ4","plus_code":{"compound_code":"4HWH+V3 Munich","global_code":"8FWH4HWH+V3"},"price_level":2,"rating":4.1,"reference":"ChIJT5D63ux1nkcR4HJoTzbLRQ4","types":["cafe","store","restaurant","food","point_of_interest","establishment"],"user_ratings_total":156},{"business_status":"OPERATIONAL","formatted_address":"Willy-Brandt-Platz 5, 81829 München","geometry":{"location":{"lat":48.13274800000001,"lng":11.6902987},"viewport":{"northeast":{"lat":48.13441992989272,"lng":11.69168502989272},"southwest":{"lat":48.13172027010727,"lng":11.68898537010728}}},"icon":"https://maps.gstatic.com/mapfiles/place_api/icons/v1/png_71/restaurant-71.png","icon_background_color":"#FF9E67","icon_mask_base_uri":"https://maps.gstatic.com/mapfiles/place_api/icons/v2/restaurant_pinlet","name":"Five Guys München Riem Arcaden","opening_hours":{"open_now":true},"photos":[{"height":3024,"html_attributions":["<a href=\"https://maps.google.com/maps/contrib/114547884618642378920\">Franz Breitwieser</a>"],"photo_reference":"AeJbb3dgaYWucbNGSBeBveqT0ta0GrKFnJg4MRCPQGjINRkZiweO21-wxqYHq7zgpIjMr-1XEES7NyAFBEAzpssoELqj0WLb4UBoIGWsJeNcqpgc5CoG6bXWmMZxQoBmaXpBasFfBdHOV17aCfNF0fR2K8ZmvHIT6_8qqQcK4TrLk4TGbEwm","width":4032}],"place_id":"ChIJOWC4kiMLnkcRygSGCDyoZg4","plus_code":{"compound_code":"4MMR+34 Munich","global_code":"8FWH4MMR+34"},"price_level":2,"rating":4,"reference":"ChIJOWC4kiMLnkcRygSGCDyoZg4","types":["meal_takeaway","restaurant","food","point_of_interest","establishment"],"user_ratings_total":2663},{"business_status":"OPERATIONAL","formatted_address":"Zweibrückenstraße 4, 80331 München","geometry":{"location":{"lat":48.1336322,"lng":11.5828074},"viewport":{"northeast":{"lat":48.13498722989272,"lng":11.58421527989272},"southwest":{"lat":48.13228757010727,"lng":11.58151562010728}}},"icon":"https://maps.gstatic.com/mapfiles/place_api/icons/v1/png_71/restaurant-71.png","icon_background_color":"#FF9E67","icon_mask_base_uri":"https://maps.gstatic.com/mapfiles/place_api/icons/v2/restaurant_pinlet","name":"Pommes Freunde","opening_hours":{"open_now":true},"photos":[{"height":3456,"html_attributions":["<a href=\"https://maps.google.com/maps/contrib/112119200910716857220\">Ahsan Ali</a>"],"photo_reference":"AeJbb3eFfei-gPxC1LgsRwKas3RTZUHy1OoFm7cn0nIjp29wb_KDK1Cd27wv1fuygc1DtEyJPVbGLZDzD8amhUnfrqqa3eOkHafubhKDHwtnuZ-bdxFuKxJbTahlamdo5Cr0w8UfxSzzEnz7qNP08D7s0yK461xeObMxeejm3GJgLJPyhKN4","width":4608}],"place_id":"ChIJt7ZieWLfnUcRbx5iCA-nWKo","plus_code":{"compound_code":"4HMM+F4 Munich","global_code":"8FWH4HMM+F4"},"price_level":2,"rating":4,"reference":"ChIJt7ZieWLfnUcRbx5iCA-nWKo","types":["restaurant","food","point_of_interest","establishment"],"user_ratings_total":693},{"business_status":"OPERATIONAL","formatted_address":"Ollenhauerstraße 6, 81737 München","geometry":{"location":{"lat":48.1008516,"lng":11.6442331},"viewport":{"northeast":{"lat":48.10239192989273,"lng":11.64675155},"southwest":{"lat":48.09969227010728,"lng":11.64325815}}},"icon":"https://maps.gstatic.com/mapfiles/place_api/icons/v1/png_71/restaurant-71.png","icon_background_color":"#FF9E67","icon_mask_base_uri":"https://maps.gstatic.com/mapfiles/place_api/icons/v2/restaurant_pinlet","name":"Pommes Freunde","opening_hours":{"open_now":true},"photos":[{"height":4032,"html_attributions":["<a href=\"https://maps.google.com/maps/contrib/103510440609716344424\">Cindy Putri</a>"],"photo_reference":"AeJbb3ezEZ4x5gK9sdMVoJpLAKq-Uvmbs5RbcYX_35b4btWU1PPHJnP4I_g8IShi1N55c8fvhsoByBdsxVGjC2StWDsoHtWChu6GqoUr645ddJloCrPWKquxkdVRDOGpf99O7Ku9zq0I_SdrgKQMK_EbvLJ1VAeN-jPQq5f8QbSplyucly6k","width":3024}],"place_id":"ChIJAQAAxXbgnUcRQGl9MXIMkaQ","plus_code":{"compound_code":"4J2V+8M Munich","global_code":"8FWH4J2V+8M"},"price_level":2,"rating":4,"reference":"ChIJAQAAxXbgnUcRQGl9MXIMkaQ","types":["restaurant","food","point_of_interest","establishment"],"user_ratings_total":275},{"business_status":"OPERATIONAL","formatted_address":"Pasinger Bahnhofspl. 5, 81241 München","geometry":{"location":{"lat":48.147734,"lng":11.4637101},"viewport":{"northeast":{"lat":48.14911112989272,"lng":11.46472167989272},"southwest":{"lat":48.14641147010727,"lng":11.46202202010728}}},"icon":"https://maps.gstatic.com/mapfiles/place_api/icons/v1/png_71/restaurant-71.png","icon_background_color":"#FF9E67","icon_mask_base_uri":"https://maps.gstatic.com/mapfiles/place_api/icons/v2/restaurant_pinlet","name":"Henry's Deli","opening_hours":{"open_now":true},"photos":[{"height":3024,"html_attributions":["<a href=\"https://maps.google.com/maps/contrib/115389648423447178634\">Alban Fazliu</a>"],"photo_reference":"AeJbb3d7JfOrZqZMR7dRwVYhrqLeNXH8lEJDhCzbkv4M3GMZdsSF6AedvjzEN47-L8a16e-VR-oPFEZ2SprH7yMqvUrDoNwNFpffg1Eyy-qHHmYyY5d8WwokRa38aA1DfVEbfsfXBZWbiep1lLMKwGG2d0xOiP66YuAsjKh4dH5YPJEytPJa","width":4032}],"place_id":"ChIJh5vX9uJ3nkcRP12sBYarlNo","plus_code":{"compound_code":"4FX7+3F Munich","global_code":"8FWH4FX7+3F"},"rating":4,"reference":"ChIJh5vX9uJ3nkcRP12sBYarlNo","types":["bar","restaurant","food","point_of_interest","establishment"],"user_ratings_total":91},{"business_status":"OPERATIONAL","formatted_address":"Schwanthalerstraße 5, 80336 München","geometry":{"location":{"lat":48.137252,"lng":11.5635158},"viewport":{"northeast":{"lat":48.13867597989272,"lng":11.56486957989272},"southwest":{"lat":48.13597632010728,"lng":11.56216992010728}}},"icon":"https://maps.gstatic.com/mapfiles/place_api/icons/v1/png_71/restaurant-71.png","icon_background_color":"#FF9E67","icon_mask_base_uri":"https://maps.gstatic.com/mapfiles/place_api/icons/v2/restaurant_pinlet","name":"Subway","opening_hours":{"open_now":true},"photos":[{"height":3456,"html_attributions":["<a href=\"https://maps.google.com/maps/contrib/117798412149823825055\">Subway Sandwiches Restaurant Schwanthalerstraße</a>"],"photo_reference":"AeJbb3feM3rFMt-lOf-Du_anjfQ8YZewYLI6DSFVE0Mk9nUmyLOKKS-6cVtZ8VHWV9IErWe3JGsXS3fdWUm7tA8ZZ7uo_YUocpmKkRxi8aUhwGBltUSUTTJc81IgouVzQMPuz4yII3bX46Fwg8ZLqB4Bc1njEekreFm5uOQbgVkdWQGkzCTJ","width":5184}],"place_id":"ChIJqwG7v_d1nkcRmBuYTdGkJcA","plus_code":{"compound_code":"4HP7+WC Munich","global_code":"8FWH4HP7+WC"},"price_level":2,"rating":3.9,"reference":"ChIJqwG7v_d1nkcRmBuYTdGkJcA","types":["meal_takeaway","restaurant","food","point_of_interest","establishment"],"user_ratings_total":654},{"business_status":"OPERATIONAL","formatted_address":"Orleanspl. 10, 81667 München","geometry":{"location":{"lat":48.1278246,"lng":11.6045092},"viewport":{"northeast":{"lat":48.12924272989272,"lng":11.60569442989272},"southwest":{"lat":48.12654307010727,"lng":11.60299477010728}}},"icon":"https://maps.gstatic.com/mapfiles/place_api/icons/v1/png_71/restaurant-71.png","icon_background_color":"#FF9E67","icon_mask_base_uri":"https://maps.gstatic.com/mapfiles/place_api/icons/v2/restaurant_pinlet","name":"Subway","opening_hours":{"open_now":true},"photos":[{"height":6936,"html_attributions":["<a href=\"https://maps.google.com/maps/contrib/112984297476623510860\">Sesay Sillah</a>"],"photo_reference":"AeJbb3crqhLNONwaTq3A8Y65fiqvIeig-P8XhkfPkow4V1LTusdx96xCKRIy66h7nk0wToQapcTX_UH0yPN4RqijXpQZEWQyHLD6QtbNM_2e78soxcZNfoQOX_recMW4o67aeekQweVI3WgpRhgcHMpb-bdAan08kS-tv1Qy5d92tiLQSg69","width":9248}],"place_id":"ChIJSyiis4bfnUcRSAxs44RWDws","plus_code":{"compound_code":"4JH3+4R Munich","global_code":"8FWH4JH3+4R"},"price_level":2,"rating":3.9,"reference":"ChIJSyiis4bfnUcRSAxs44RWDws","types":["meal_takeaway","restaurant","food","point_of_interest","establishment"],"user_ratings_total":621},{"business_status":"OPERATIONAL","formatted_address":"Donnersbergerbrücke, 80636 München","geometry":{"location":{"lat":48.1433532,"lng":11.5350638},"viewport":{"northeast":{"lat":48.14470952989272,"lng":11.53631122989272},"southwest":{"lat":48.14200987010728,"lng":11.53361157010728}}},"icon":"https://maps.gstatic.com/mapfiles/place_api/icons/v1/png_71/restaurant-71.png","icon_background_color":"#FF9E67","icon_mask_base_uri":"https://maps.gstatic.com/mapfiles/place_api/icons/v2/restaurant_pinlet","name":"Happy Asia","opening_hours":{"open_now":true},"photos":[{"height":2976,"html_attributions":["<a href=\"https://maps.google.com/maps/contrib/103364212430312678290\">Sarah Kaindl</a>"],"photo_reference":"AeJbb3cJHVm7BmZyfn4i2iOXriY9PpdFIuk2ze4PBjT38OEub5G3Myz_frcK6hG6Ki37LlKZPzBfWIPsaFPACInXfyKfJXQjZZpnTXGh8GLLzcOua-4xRjOKzccysMiIYLQu0kOSi34vZJUQgV-iT0aVU4ZcbCHMQFYcr6-d5HlQH2USYTl4","width":3968}],"place_id":"ChIJteXzUgJ3nkcRbRNFYdRISfo","plus_code":{"compound_code":"4GVP+82 Munich","global_code":"8FWH4GVP+82"},"rating":3.9,"reference":"ChIJteXzUgJ3nkcRbRNFYdRISfo","types":["restaurant","food","point_of_interest","establishment"],"user_ratings_total":14},{"business_status":"OPERATIONAL","formatted_address":"Tal 6, 80331 München","geometry":{"location":{"lat":48.1360963,"lng":11.5781441},"viewport":{"northeast":{"lat":48.13750082989272,"lng":11.57953077989272},"southwest":{"lat":48.13480117010727,"lng":11.57683112010728}}},"icon":"https://maps.gstatic.com/mapfiles/place_api/icons/v1/png_71/restaurant-71.png","icon_background_color":"#FF9E67","icon_mask_base_uri":"https://maps.gstatic.com/mapfiles/place_api/icons/v2/restaurant_pinlet","name":"McDonald's","opening_hours":{"open_now":true},"photos":[{"height":4608,"html_attributions":["<a href=\"https://maps.google.com/maps/contrib/116550697425890762627\">Georg Koller</a>"],"photo_reference":"AeJbb3fedH1k2qs0qo-Y_ZehcLUUp7lVTprUb1Q8jJIYfLhKZgWFXPb6cdh1AOjMnkGl8UJpB97QMsKmOrerWs4Fa-WjWcbRUumRqDZo_oJaUtTZH61rnWsiy6l3jtXBcV_vAp5u52YSoiQaLCIwusQ08ijnV7TTPq0q1SifDRSLorsSk-Ab","width":3456}],"place_id":"ChIJfXFTWYp1nkcRE_JLWvGyhM4","plus_code":{"compound_code":"4HPH+C7 Munich","global_code":"8FWH4HPH+C7"},"price_level":2,"rating":3.8,"reference":"ChIJfXFTWYp1nkcRE_JLWvGyhM4","types":["restaurant","food","point_of_interest","establishment"],"user_ratings_total":5889},{"business_status":"OPERATIONAL","formatted_address":"Maria-Probst-Straße 1, 80939 München","geometry":{"location":{"lat":48.1922384,"lng":11.5845239},"viewport":{"northeast":{"lat":48.19359452989272,"lng":11.58585612989272},"southwest":{"lat":48.19089487010728,"lng":11.58315647010728}}},"icon":"https://maps.gstatic.com/mapfiles/place_api/icons/v1/png_71/restaurant-71.png","icon_background_color":"#FF9E67","icon_mask_base_uri":"https://maps.gstatic.com/mapfiles/place_api/icons/v2/restaurant_pinlet","name":"McDonald's","opening_hours":{"open_now":true},"photos":[{"height":2268,"html_attributions":["<a href=\"https://maps.google.com/maps/contrib/103719605963737242440\">Hans-Peter Ketterl</a>"],"photo_reference":"AeJbb3daHoX4M-GmLAXOeyyNKBfsxL1KTUaE6bOqM8Z9BLmT6gui3vl3omqNn_jJy9MFyKiFTK6OQzmqpWlaciNq82VIcWtPMQdv_CKnUw11dji63eaLQBdWBmgf6nGpmDadDKSFvlS_wmeiCvH8D-pb0T4b53cfQHAs9Iz_YOa9mepvEA2e","width":4032}],"place_id":"ChIJUcJs8OcLnkcRse1PCHZJ1_E","plus_code":{"compound_code":"5HRM+VR Munich","global_code":"8FWH5HRM+VR"},"price_level":2,"rating":3.8,"reference":"ChIJUcJs8OcLnkcRse1PCHZJ1_E","types":["restaurant","food","point_of_interest","establishment"],"user_ratings_total":3029},{"business_status":"OPERATIONAL","formatted_address":"Hanauer Str. 83, 80993 München","geometry":{"location":{"lat":48.1840948,"lng":11.5310641},"viewport":{"northeast":{"lat":48.18538782989272,"lng":11.53248332989272},"southwest":{"lat":48.18268817010728,"lng":11.52978367010728}}},"icon":"https://maps.gstatic.com/mapfiles/place_api/icons/v1/png_71/restaurant-71.png","icon_background_color":"#FF9E67","icon_mask_base_uri":"https://maps.gstatic.com/mapfiles/place_api/icons/v2/restaurant_pinlet","name":"McDonald's","opening_hours":{"open_now":true},"photos":[{"height":2268,"html_attributions":["<a href=\"https://maps.google.com/maps/contrib/114538776684026890174\">Gür Wahram Tim</a>"],"photo_reference":"AeJbb3fDflLtjPJCpjRuReJWc670pVlrVHtPQaPoPsz1v78NZN7YX5Lm48CL_Nh6NdYLQh9s7I7LlFfYkLDk-QF3v2o-MRxhuNbRiyO9taM4KaywA9yydnI2ewxECTWd2Q_iroOr4ohIVVKGlEU7s-ItJQB9q4ZRf40vPx-rdynOnTp6pckD","width":4032}],"place_id":"ChIJd092EPd2nkcR6jeXmFFeeYI","plus_code":{"compound_code":"5GMJ+JC Munich","global_code":"8FWH5GMJ+JC"},"price_level":2,"rating":3.8,"reference":"ChIJd092EPd2nkcR6jeXmFFeeYI","types":["restaurant","food","point_of_interest","establishment"],"user_ratings_total":2186},{"business_status":"OPERATIONAL","formatted_address":"Arnulfpark, Arnulfstraße 43, 80636 München","geometry":{"location":{"lat":48.1444627,"lng":11.5435243},"viewport":{"northeast":{"lat":48.14588982989272,"lng":11.54486392989272},"southwest":{"lat":48.14319017010727,"lng":11.54216427010728}}},"icon":"https://maps.gstatic.com/mapfiles/place_api/icons/v1/png_71/restaurant-71.png","icon_background_color":"#FF9E67","icon_mask_base_uri":"https://maps.gstatic.com/mapfiles/place_api/icons/v2/restaurant_pinlet","name":"Subway","opening_hours":{"open_now":true},"photos":[{"height":2448,"html_attributions":["<a href=\"https://maps.google.com/maps/contrib/112970378317475441355\">Romulus Colin</a>"],"photo_reference":"AeJbb3dsvKcodnEKphs04NEBJv6JJe_U2w__CVdx_rjCDx4dbs2OqkvYKAD2RUieYEcQvbCDX_K9iRKNqJNiekyXqI26o7pQsxKRRnrjH14Gay9IONUTFVCclBFmn6oRWLDy2DFCf6NmNcPBK3Nw-aZb397L8Ksk7S2REDwULZRjeBoD1Xgh","width":3264}],"place_id":"ChIJW_LcPgR2nkcR1M0BYKo7SVk","plus_code":{"compound_code":"4GVV+QC Munich","global_code":"8FWH4GVV+QC"},"price_level":2,"rating":3.8,"reference":"ChIJW_LcPgR2nkcR1M0BYKo7SVk","types":["meal_takeaway","restaurant","food","point_of_interest","establishment"],"user_ratings_total":536},{"business_status":"OPERATIONAL","formatted_address":"Morassistraße 2, 80469 München","geometry":{"location":{"lat":48.13302299999999,"lng":11.583161},"viewport":{"northeast":{"lat":48.13440537989272,"lng":11.58460497989272},"southwest":{"lat":48.13170572010728,"lng":11.58190532010728}}},"icon":"https://maps.gstatic.com/mapfiles/place_api/icons/v1/png_71/restaurant-71.png","icon_background_color":"#FF9E67","icon_mask_base_uri":"https://maps.gstatic.com/mapfiles/place_api/icons/v2/restaurant_pinlet","name":"Subway","opening_hours":{"open_now":true},"photos":[{"height":3024,"html_attributions":["<a href=\"https://maps.google.com/maps/contrib/101269770045890223333\">101269770045890223333</a>"],"photo_reference":"AeJbb3eyLCrrOiztcrPgC0T4eHFkuM6RGY54NOh8s-mfyiEgiQiVMNrqYtUNbHvrcLV5TqVcMRT1kfHsZyfJH7KQpIKfLbPAgTNFND-V4CLlT4g9k-ZgABh-aKTcNqtsEB7Sen4bM__wUVsEHt_WH2VEScX5YshFlxalVZKvP3IU8MOObv7J","width":4032}],"place_id":"ChIJGddMimLfnUcRDKo7CPZxOjM","plus_code":{"compound_code":"4HMM+67 Munich","global_code":"8FWH4HMM+67"},"price_level":2,"rating":3.8,"reference":"ChIJGddMimLfnUcRDKo7CPZxOjM","types":["meal_takeaway","restaurant","food","point_of_interest","establishment"],"user_ratings_total":500},{"business_status":"OPERATIONAL","formatted_address":"Rosenheimer Str. 10, 81669 München","geometry":{"location":{"lat":48.1315166,"lng":11.5890398},"viewport":{"northeast":{"lat":48.13290872989272,"lng":11.59037577989272},"southwest":{"lat":48.13020907010728,"lng":11.58767612010728}}},"icon":"https://maps.gstatic.com/mapfiles/place_api/icons/v1/png_71/restaurant-71.png","icon_background_color":"#FF9E67","icon_mask_base_uri":"https://maps.gstatic.com/mapfiles/place_api/icons/v2/restaurant_pinlet","name":"Sofra","opening_hours":{"open_now":true},"photos":[{"height":3385,"html_attributions":["<a href=\"https://maps.google.com/maps/contrib/101375575289397059384\">Marius Ruf</a>"],"photo_reference":"AeJbb3e9PNn6NXkGZO6f0GxZ44gZuAoQj2acxiiMuKY3HNuivA_cHEJQqkYfksCPlXDdklNleShnP5a_dcmnadRAr5NCwz4LwXW41IltlCgp8K3o-ZjmkHowsBGZIrBk6NRItOMa9Yta0ZQUcdzMvgEt_AZI6C3AbAtkekg8NqUFqD5waU9J","width":2944}],"place_id":"ChIJmwIwCH3fnUcRBWh-YpT839M","plus_code":{"compound_code":"4HJQ+JJ Munich","global_code":"8FWH4HJQ+JJ"},"rating":3.8,"reference":"ChIJmwIwCH3fnUcRBWh-YpT839M","types":["restaurant","food","point_of_interest","establishment"],"user_ratings_total":176},{"business_status":"OPERATIONAL","formatted_address":"Senserstraße 20, 81371 München","geometry":{"location":{"lat":48.1226746,"lng":11.5480991},"viewport":{"northeast":{"lat":48.12408242989272,"lng":11.54945302989272},"southwest":{"lat":48.12138277010727,"lng":11.54675337010728}}},"icon":"https://maps.gstatic.com/mapfiles/place_api/icons/v1/png_71/restaurant-71.png","icon_background_color":"#FF9E67","icon_mask_base_uri":"https://maps.gstatic.com/mapfiles/place_api/icons/v2/restaurant_pinlet","name":"Fit Deli","opening_hours":{"open_now":true},"photos":[{"height":3024,"html_attributions":["<a href=\"https://maps.google.com/maps/contrib/100865361197631172905\">A Google User</a>"],"photo_reference":"AeJbb3cvZ4qzAvLuNzklKyBYLmJghSUOxe9_aFP3irJ5rbncZxs9t5DkPamAQ9Dlrgl7tm84UMnqWrfnsvdCcm1OtKzUYZbT7QNuJH6fs2iPDeQGMKEMsDY3VB81sfEAQy5GvlXshiSXVprYD2Yk7oq-wjIzc4e6p3zwm7LgHaGpS81Ur2fD","width":4032}],"place_id":"ChIJc39qAODfnUcRjXxizg1qvRc","plus_code":{"compound_code":"4GFX+36 Munich","global_code":"8FWH4GFX+36"},"rating":3.8,"reference":"ChIJc39qAODfnUcRjXxizg1qvRc","types":["meal_delivery","meal_takeaway","restaurant","food","point_of_interest","establishment"],"user_ratings_total":21},{"business_status":"OPERATIONAL","formatted_address":"Bodenseestraße 319, 81249 München","geometry":{"location":{"lat":48.1410308,"lng":11.4134123},"viewport":{"northeast":{"lat":48.14238707989272,"lng":11.41480717989272},"southwest":{"lat":48.13968742010728,"lng":11.41210752010728}}},"icon":"https://maps.gstatic.com/mapfiles/place_api/icons/v1/png_71/restaurant-71.png","icon_background_color":"#FF9E67","icon_mask_base_uri":"https://maps.gstatic.com/mapfiles/place_api/icons/v2/restaurant_pinlet","name":"Burger King","opening_hours":{"open_now":true},"photos":[{"height":3024,"html_attributions":["<a href=\"https://maps.google.com/maps/contrib/109774504576785724234\">A Google User</a>"],"photo_reference":"AeJbb3cJsRRVHUBf69c266cbs7jCxdhD4ttfBqIZHfph1nZa69SMrKlEtCDL1aWCqpztMhJ0FCZD2tQm2SShiGUra97UalYihQaA6Q4seV4hfh0hScSOhR4Q7-qB1hljnE_Xy2NTWQjUo9rfOPPZh8vkhN8_cGIG_Dv9bQpAfQZoZkmb4wK9","width":4032}],"place_id":"ChIJD5t9tNzXnUcRpogmfXCONGI","plus_code":{"compound_code":"4CR7+C8 Munich","global_code":"8FWH4CR7+C8"},"price_level":2,"rating":3.7,"reference":"ChIJD5t9tNzXnUcRpogmfXCONGI","types":["restaurant","food","point_of_interest","establishment"],"user_ratings_total":1598},{"business_status":"OPERATIONAL","formatted_address":"Stachus Passagen UG, Karlspl. 1, 80335 München","geometry":{"location":{"lat":48.1392916,"lng":11.564676},"viewport":{"northeast":{"lat":48.14067447989272,"lng":11.56604547989272},"southwest":{"lat":48.13797482010727,"lng":11.56334582010728}}},"icon":"https://maps.gstatic.com/mapfiles/place_api/icons/v1/png_71/restaurant-71.png","icon_background_color":"#FF9E67","icon_mask_base_uri":"https://maps.gstatic.com/mapfiles/place_api/icons/v2/restaurant_pinlet","name":"Pommes Freunde","opening_hours":{"open_now":true},"photos":[{"height":2340,"html_attributions":["<a href=\"https://maps.google.com/maps/contrib/108852046461780200123\">TAMIM HAIDER</a>"],"photo_reference":"AeJbb3enfLw2jDyTY_ypRIVrj9E6NX9BJc1Uv320MvpN2bBwAmqYKPhn6TGdpW3OzD9x72U7zsppgrIxZSs_jJMPTPdFmLW5OTQcWSec5muPQKYjTlBqA_iSEM_Ep8LTbXmugEl9zmFlrnjZFIS0-D9lQCyFp_m6Ez0pahJWiHnqmXKjxKKq","width":4160}],"place_id":"ChIJ_eAR4vZ1nkcRNAntU_Mwybo","plus_code":{"compound_code":"4HQ7+PV Munich","global_code":"8FWH4HQ7+PV"},"price_level":2,"rating":3.7,"reference":"ChIJ_eAR4vZ1nkcRNAntU_Mwybo","types":["restaurant","food","point_of_interest","establishment"],"user_ratings_total":329},{"business_status":"OPERATIONAL","formatted_address":"Karlspl. 10, 80335 München","geometry":{"location":{"lat":48.1389297,"lng":11.5663536},"viewport":{"northeast":{"lat":48.14030282989272,"lng":11.56729977989272},"southwest":{"lat":48.13760317010728,"lng":11.56460012010728}}},"icon":"https://maps.gstatic.com/mapfiles/place_api/icons/v1/png_71/restaurant-71.png","icon_background_color":"#FF9E67","icon_mask_base_uri":"https://maps.gstatic.com/mapfiles/place_api/icons/v2/restaurant_pinlet","name":"McDonald's","opening_hours":{"open_now":true},"photos":[{"height":3264,"html_attributions":["<a href=\"https://maps.google.com/maps/contrib/111843471369464484885\">Max Zhosan</a>"],"photo_reference":"AeJbb3d9Dbp8tbkPHgp8JhrjnR8M1VsSAUA7BIlgUTN5fv5MqYB4wS89Dycd3QABI0se7CUZpK8s6HoF8PZBhLZ9aRr6PrZ3Sg63mCRVLXVR_ICP98HLZO4w0rY09-GS1ggHBXhtMrnBcpIwdDYAJ_VPWI21dSlfugNFlHVnztdkAiKC_h9Y","width":2448}],"place_id":"ChIJMxRR4fZ1nkcRRuh1AGGTenk","plus_code":{"compound_code":"4HQ8+HG Munich","global_code":"8FWH4HQ8+HG"},"price_level":2,"rating":3.6,"reference":"ChIJMxRR4fZ1nkcRRuh1AGGTenk","types":["restaurant","food","point_of_interest","establishment"],"user_ratings_total":3910},{"business_status":"OPERATIONAL","formatted_address":"Situlistraße 6, 80939 München","geometry":{"location":{"lat":48.18857010000001,"lng":11.6142254},"viewport":{"northeast":{"lat":48.18985302989272,"lng":11.61547677989272},"southwest":{"lat":48.18715337010728,"lng":11.61277712010728}}},"icon":"https://maps.gstatic.com/mapfiles/place_api/icons/v1/png_71/restaurant-71.png","icon_background_color":"#FF9E67","icon_mask_base_uri":"https://maps.gstatic.com/mapfiles/place_api/icons/v2/restaurant_pinlet","name":"McDonald's","opening_hours":{"open_now":true},"photos":[{"height":1080,"html_attributions":["<a href=\"https://maps.google.com/maps/contrib/109294537404660350939\">Florian Weber</a>"],"photo_reference":"AeJbb3fdykdbIqdWTSSXFH43bJ0FA8gPD4znh2fqWEcCznbbcxgfge3S2bqg3v0dmVLAp-oRIpem9o8HrBHIRa45bexsbzLInBsWPQAbKIksbnUAw_aqt_ON383w6rybCi_jebFRL2cSfHFP9E7RiU_E322d74lchoYVgv0vuGkHkoAkH3sz","width":1920}],"place_id":"ChIJa3ZfNVx0nkcRzr0ekTIy1rk","plus_code":{"compound_code":"5JQ7+CM Munich","global_code":"8FWH5JQ7+CM"},"price_level":2,"rating":3.6,"reference":"ChIJa3ZfNVx0nkcRzr0ekTIy1rk","types":["restaurant","food","point_of_interest","establishment"],"user_ratings_total":1675},{"business_status":"OPERATIONAL","formatted_address":"Neuhauser Str. 1, 80331 München","geometry":{"location":{"lat":48.13785920000001,"lng":11.5711783},"viewport":{"northeast":{"lat":48.13916972989272,"lng":11.57261592989272},"southwest":{"lat":48.13647007010727,"lng":11.56991627010728}}},"icon":"https://maps.gstatic.com/mapfiles/place_api/icons/v1/png_71/restaurant-71.png","icon_background_color":"#FF9E67","icon_mask_base_uri":"https://maps.gstatic.com/mapfiles/place_api/icons/v2/restaurant_pinlet","name":"Five Guys München Neuhauser Str.","opening_hours":{"open_now":true},"photos":[{"height":3024,"html_attributions":["<a href=\"https://maps.google.com/maps/contrib/110883873123861996919\">Kenny Adam</a>"],"photo_reference":"AeJbb3dxQJ2FVw1UaN83CQfYyIhAuQKoAnw4Bf6GOxWL7QDpYdDgdoy8-qpqT5sEcDv4NLHyH5avUJwr_9hXUrbPDm5NFUeb30uIZ3sstSR7lVpXNGTNsTQtGKFkb-LboMa2-NbHVsx0Ro_JRNlDumoxznt0zTEbRDUPAUdd1F8ERYibY8dj","width":4032}],"place_id":"ChIJgfa3-wJ1nkcRy8OxkMKO8D0","plus_code":{"compound_code":"4HQC+4F Munich","global_code":"8FWH4HQC+4F"},"price_level":2,"rating":3.6,"reference":"ChIJgfa3-wJ1nkcRy8OxkMKO8D0","types":["meal_takeaway","restaurant","food","point_of_interest","establishment"],"user_ratings_total":1277},{"business_status":"OPERATIONAL","formatted_address":"Bahnhofpl. 2, 80335 München","geometry":{"location":{"lat":48.1405873,"lng":11.5583995},"viewport":{"northeast":{"lat":48.14185112989273,"lng":11.5622914},"southwest":{"lat":48.13915147010728,"lng":11.5571022}}},"icon":"https://maps.gstatic.com/mapfiles/place_api/icons/v1/png_71/restaurant-71.png","icon_background_color":"#FF9E67","icon_mask_base_uri":"https://maps.gstatic.com/mapfiles/place_api/icons/v2/restaurant_pinlet","name":"YORMA'S","opening_hours":{"open_now":true},"photos":[{"height":1536,"html_attributions":["<a href=\"https://maps.google.com/maps/contrib/104525289873759152497\">A Google User</a>"],"photo_reference":"AeJbb3dECKw78t4gPWtwls-KrSgUMyMGpebQ80LpT14iNJxc8eyeTEcg4MeReKDw9pEEwN1eWUc8tLwCuXIT7QdJrDqQZC1up5Cg57gO9iEdEb-EJ2iRWYhwol10fSoTf1x6IFOgB35vxIMQRlLWSa1ovB6uU3dUR96eAXtHr4r4jr4VyNWJ","width":2048}],"place_id":"ChIJO-DhmPl1nkcRVmas8N545fU","plus_code":{"compound_code":"4HR5+69 Munich","global_code":"8FWH4HR5+69"},"price_level":1,"rating":3.6,"reference":"ChIJO-DhmPl1nkcRVmas8N545fU","types":["restaurant","food","point_of_interest","establishment"],"user_ratings_total":244},{"business_status":"OPERATIONAL","formatted_address":"Hanauer Str. 44, 80992 München","geometry":{"location":{"lat":48.1782411,"lng":11.5295657},"viewport":{"northeast":{"lat":48.17976277989272,"lng":11.53094582989272},"southwest":{"lat":48.17706312010728,"lng":11.52824617010728}}},"icon":"https://maps.gstatic.com/mapfiles/place_api/icons/v1/png_71/restaurant-71.png","icon_background_color":"#FF9E67","icon_mask_base_uri":"https://maps.gstatic.com/mapfiles/place_api/icons/v2/restaurant_pinlet","name":"Kentucky Fried Chicken","opening_hours":{"open_now":true},"photos":[{"height":2988,"html_attributions":["<a href=\"https://maps.google.com/maps/contrib/101155451048876912778\">Akiva Wrubel</a>"],"photo_reference":"AeJbb3dVL5KCMsFjT0mnRU7oJcXAWqQl_gJ_kYeBW1yxmv8W4o8yDaafy8cpnpF-quS3qbiK0d57eIxEa2gJ9TiMl7qG_gHClZVgID6l3w7EsxP4O34ifVVwuSBN-rUZw8Z3ACEnmxV704yO0wi8fQJTehPcNI9SugBRYbzsGIdfr5TCtsu3","width":5312}],"place_id":"ChIJNS_l9Fh2nkcRDnI6M7q6Vus","plus_code":{"compound_code":"5GHH+7R Munich","global_code":"8FWH5GHH+7R"},"price_level":2,"rating":3.5,"reference":"ChIJNS_l9Fh2nkcRDnI6M7q6Vus","types":["restaurant","food","point_of_interest","establishment"],"user_ratings_total":2303},{"business_status":"OPERATIONAL","formatted_address":"Thomas-Dehler-Straße 12, 81737 München","geometry":{"location":{"lat":48.1009055,"lng":11.6448732},"viewport":{"northeast":{"lat":48.10240347989272,"lng":11.64668212989272},"southwest":{"lat":48.09970382010728,"lng":11.64398247010728}}},"icon":"https://maps.gstatic.com/mapfiles/place_api/icons/v1/png_71/restaurant-71.png","icon_background_color":"#FF9E67","icon_mask_base_uri":"https://maps.gstatic.com/mapfiles/place_api/icons/v2/restaurant_pinlet","name":"McDonald's","opening_hours":{"open_now":true},"photos":[{"height":720,"html_attributions":["<a href=\"https://maps.google.com/maps/contrib/113478037580772765306\">Martin Komugovic</a>"],"photo_reference":"AeJbb3cSZEAn4os8_cx8yDT8LXOKYO4dSOo4C5VejjSbUssLTqBwzPl84LdGsav8GOPbEjqmMDF5zaw9Clq6aPO2tVLarxw64W3Fh_nJSdB0q5sT-G0S7P7xiQ_ST-wUYo6nRFuYaEMGz6vLpvfOnrN-PIYNlm8jCyYyvvok6210TMuvXxfq","width":1280}],"place_id":"ChIJh1HVM3HgnUcRX6zHevx0kxs","plus_code":{"compound_code":"4J2V+9W Munich","global_code":"8FWH4J2V+9W"},"price_level":2,"rating":3.5,"reference":"ChIJh1HVM3HgnUcRX6zHevx0kxs","types":["restaurant","food","point_of_interest","establishment"],"user_ratings_total":1847},{"business_status":"OPERATIONAL","formatted_address":"Hohenzollernstraße 152, 80797 München","geometry":{"location":{"lat":48.1611462,"lng":11.5632119},"viewport":{"northeast":{"lat":48.16250327989272,"lng":11.56465572989272},"southwest":{"lat":48.15980362010728,"lng":11.56195607010728}}},"icon":"https://maps.gstatic.com/mapfiles/place_api/icons/v1/png_71/restaurant-71.png","icon_background_color":"#FF9E67","icon_mask_base_uri":"https://maps.gstatic.com/mapfiles/place_api/icons/v2/restaurant_pinlet","name":"McDonald's","opening_hours":{"open_now":true},"photos":[{"height":1080,"html_attributions":["<a href=\"https://maps.google.com/maps/contrib/112213130737088209567\">Christian Haider</a>"],"photo_reference":"AeJbb3cJnCCXP5d5p4dU-rRNby_weOhvj15Qs7ZivwBeMNYutvPHH563plbMZVSDP0pt2q3QtONroKKvizNKs-ZECphoO365J6SugbDXM2lPO0qdhTeAkIcsns_napbfOJnHr48CJxED0vwct47emPaTr5O6VkTz4gwgY4My_5sv6HPrcbqV","width":1920}],"place_id":"ChIJ-bkTNdl1nkcR9QXkretobMQ","plus_code":{"compound_code":"5H67+F7 Munich","global_code":"8FWH5H67+F7"},"price_level":2,"rating":3.5,"reference":"ChIJ-bkTNdl1nkcR9QXkretobMQ","types":["restaurant","food","point_of_interest","establishment"],"user_ratings_total":1043},{"business_status":"OPERATIONAL","formatted_address":"Augustenstraße 53, 80333 München","geometry":{"location":{"lat":48.1491791,"lng":11.5628267},"viewport":{"northeast":{"lat":48.15048902989272,"lng":11.56413337989272},"southwest":{"lat":48.14778937010728,"lng":11.56143372010728}}},"icon":"https://maps.gstatic.com/mapfiles/place_api/icons/v1/png_71/restaurant-71.png","icon_background_color":"#FF9E67","icon_mask_base_uri":"https://maps.gstatic.com/mapfiles/place_api/icons/v2/restaurant_pinlet","name":"McDonald's","opening_hours":{"open_now":true},"photos":[{"height":1888,"html_attributions":["<a href=\"https://maps.google.com/maps/contrib/113976789903607875953\">Haoran Li</a>"],"photo_reference":"AeJbb3eIr85i5slCvawzZ3nmV1MzOQj4Pz_-Qx1QXNpLdpA7qVupFnl1eaHdnLKwbAyqscG3zEQS7yHoZhv8fVjB6fIIoTIPeKD1IRUnXEdIombbJ1ormh8FAYRRQbvYvMIeUAMKJphpffR9OW0gNCqw0pUw7qBemb-tSf6S-oX8tXghpnA","width":4032}],"place_id":"ChIJ4wviTeR1nkcRZz0pYWKDVpY","plus_code":{"compound_code":"4HX7+M4 Munich","global_code":"8FWH4HX7+M4"},"price_level":2,"rating":3.5,"reference":"ChIJ4wviTeR1nkcRZz0pYWKDVpY","types":["restaurant","food","point_of_interest","establishment"],"user_ratings_total":870},{"business_status":"OPERATIONAL","formatted_address":"Hanauer Str. 68, 80993 München","geometry":{"location":{"lat":48.1833592,"lng":11.5352016},"viewport":{"northeast":{"lat":48.18460902989271,"lng":11.53663807989272},"southwest":{"lat":48.18190937010727,"lng":11.53393842010728}}},"icon":"https://maps.gstatic.com/mapfiles/place_api/icons/v1/png_71/restaurant-71.png","icon_background_color":"#FF9E67","icon_mask_base_uri":"https://maps.gstatic.com/mapfiles/place_api/icons/v2/restaurant_pinlet","name":"Pommes Freunde OEZ","opening_hours":{"open_now":true},"photos":[{"height":2158,"html_attributions":["<a href=\"https://maps.google.com/maps/contrib/115102307186632409206\">Torben Mauch</a>"],"photo_reference":"AeJbb3dM8Vih4lcx2H9yDTS69uQIP39uyEOHCUUN_-KiOeqRZmMcm6beglimgoDolo2S-pab4KJnTotMzR9az7YV9LHJj4zfmZ0oLRIw8-SyMWj0sepNn6Ckb7QVrvMD9ZaYgWblHQVIO92fPIJmO2eHjPELmYrhDmQ9DqPwgDDlYFkL7m67","width":2951}],"place_id":"ChIJtQIeG_R2nkcRSMwUtp2-SEQ","plus_code":{"compound_code":"5GMP+83 Munich","global_code":"8FWH5GMP+83"},"price_level":2,"rating":3.5,"reference":"ChIJtQIeG_R2nkcRSMwUtp2-SEQ","types":["restaurant","food","point_of_interest","establishment"],"user_ratings_total":584},{"business_status":"OPERATIONAL","formatted_address":"Bayerstraße 7, 80335 München","geometry":{"location":{"lat":48.13912,"lng":11.563229},"viewport":{"northeast":{"lat":48.14057942989272,"lng":11.56617555},"southwest":{"lat":48.13787977010728,"lng":11.56125975}}},"icon":"https://maps.gstatic.com/mapfiles/place_api/icons/v1/png_71/restaurant-71.png","icon_background_color":"#FF9E67","icon_mask_base_uri":"https://maps.gstatic.com/mapfiles/place_api/icons/v2/restaurant_pinlet","name":"Kentucky Fried Chicken","opening_hours":{"open_now":true},"photos":[{"height":2988,"html_attributions":["<a href=\"https://maps.google.com/maps/contrib/102944411218031020224\">Xuân Hiếu Bùi</a>"],"photo_reference":"AeJbb3ek2D9WUVmFgssgtb9wgglzZhGh_rq2JCXLMK0Cfaj2K9BCdbmC1kn4KCgjiSWDI5MoUfsCFaPAhWyX9k3-K9UwR-e-fDSo7pKETmGpk8il6_lT63R52A-Yw_zWHu76fhkVa8JGhESDaeJw2bgt7wZs7nRzl4MYziB88zkXXGJwFsFS","width":5312}],"place_id":"ChIJU-1sZfd1nkcRJqNANAsmEEA","plus_code":{"compound_code":"4HQ7+J7 Munich","global_code":"8FWH4HQ7+J7"},"price_level":2,"rating":3.4,"reference":"ChIJU-1sZfd1nkcRJqNANAsmEEA","types":["restaurant","food","point_of_interest","establishment"],"user_ratings_total":3228},{"business_status":"OPERATIONAL","formatted_address":"Eggenfeldener Str. 114, 81929 München","geometry":{"location":{"lat":48.1396738,"lng":11.6457047},"viewport":{"northeast":{"lat":48.14104162989272,"lng":11.64699242989272},"southwest":{"lat":48.13834197010728,"lng":11.64429277010728}}},"icon":"https://maps.gstatic.com/mapfiles/place_api/icons/v1/png_71/restaurant-71.png","icon_background_color":"#FF9E67","icon_mask_base_uri":"https://maps.gstatic.com/mapfiles/place_api/icons/v2/restaurant_pinlet","name":"Burger King München","opening_hours":{"open_now":true},"photos":[{"height":1080,"html_attributions":["<a href=\"https://maps.google.com/maps/contrib/100977477304659045760\">Darius Kroker</a>"],"photo_reference":"AeJbb3fO31ljE5s3G4P8e_Yiz_lmiJAaFrGFne9G-tFV9z2oKFz0a2WdKQsRrKgxdDuQJCtJqu2X5pMielUi95L4th9T8vTA0nQNgFSgKFY18lCnSHncPfd0AkVhF5E-KpS2TvDXlwvxnYSe6L-Jve4nMW3vMbMQWTj8LeXcApFbufWzxiib","width":1920}],"place_id":"ChIJ37AVV051nkcRjDKnhabrnEQ","plus_code":{"compound_code":"4JQW+V7 Munich","global_code":"8FWH4JQW+V7"},"price_level":2,"rating":3.4,"reference":"ChIJ37AVV051nkcRjDKnhabrnEQ","types":["restaurant","food","point_of_interest","establishment"],"user_ratings_total":2372},{"business_status":"OPERATIONAL","formatted_address":"Feilitzschstraße 13, 80802 München","geometry":{"location":{"lat":48.1615686,"lng":11.5885825},"viewport":{"northeast":{"lat":48.16282842989271,"lng":11.58991532989272},"southwest":{"lat":48.16012877010727,"lng":11.58721567010728}}},"icon":"https://maps.gstatic.com/mapfiles/place_api/icons/v1/png_71/restaurant-71.png","icon_background_color":"#FF9E67","icon_mask_base_uri":"https://maps.gstatic.com/mapfiles/place_api/icons/v2/restaurant_pinlet","name":"McDonald's","opening_hours":{"open_now":true},"photos":[{"height":682,"html_attributions":["<a href=\"https://maps.google.com/maps/contrib/117901479445242739222\">McDonald&#39;s Restaurant</a>"],"photo_reference":"AeJbb3cIxyt7auGjpP5GiORk3mEh08jGbN9x27lSnxQEXa8OPJsyGisGbiB3VGTVxi_h7SxHmRQZBp8NQJH0F43GVEeTJmFbO8yGZPeRC6pTKSdhqwlBGRH5LZ1Avotj9l4a9JtK8maPBfGg2X5nMJ9r7iN_9Pw5IZayBKFPuyWk6DKjKn5h","width":1000}],"place_id":"ChIJSZ3-rLl1nkcR6VOGLgdlPL0","plus_code":{"compound_code":"5H6Q+JC Munich","global_code":"8FWH5H6Q+JC"},"price_level":2,"rating":3.4,"reference":"ChIJSZ3-rLl1nkcR6VOGLgdlPL0","types":["restaurant","food","point_of_interest","establishment"],"user_ratings_total":1648},{"business_status":"OPERATIONAL","formatted_address":"Landsberger Str. 422, 81241 München","geometry":{"location":{"lat":48.1455332,"lng":11.4770435},"viewport":{"northeast":{"lat":48.14674087989272,"lng":11.47852232989272},"southwest":{"lat":48.14404122010727,"lng":11.47582267010728}}},"icon":"https://maps.gstatic.com/mapfiles/place_api/icons/v1/png_71/restaurant-71.png","icon_background_color":"#FF9E67","icon_mask_base_uri":"https://maps.gstatic.com/mapfiles/place_api/icons/v2/restaurant_pinlet","name":"Burger King","opening_hours":{"open_now":true},"photos":[{"height":1125,"html_attributions":["<a href=\"https://maps.google.com/maps/contrib/111274058141018922635\">Niko A.</a>"],"photo_reference":"AeJbb3dZvAKqYp-0pqb312sb5XYPa_y87GXQg1MMboxKZrS4lg1bEVdHwIfKasOKimrSVlpeNMHSLvAUxgau6-2BScMwCiMRO07272maCYVJle52SWfP19IvRU-zaQ3WeB9cefxM3rkCN5HrqA4xBWkvCdksGE_fDghKEP3ndmHUOROvfbrr","width":2000}],"place_id":"ChIJ1R14b993nkcRmfMH84z5M_k","plus_code":{"compound_code":"4FWG+6R Munich","global_code":"8FWH4FWG+6R"},"price_level":2,"rating":3.4,"reference":"ChIJ1R14b993nkcRmfMH84z5M_k","types":["restaurant","food","point_of_interest","establishment"],"user_ratings_total":880},{"business_status":"OPERATIONAL","formatted_address":"Theresienhöhe 5, 80336 München","geometry":{"location":{"lat":48.1364355,"lng":11.5480347},"viewport":{"northeast":{"lat":48.13779692989272,"lng":11.54911615},"southwest":{"lat":48.13509727010727,"lng":11.54479035}}},"icon":"https://maps.gstatic.com/mapfiles/place_api/icons/v1/png_71/restaurant-71.png","icon_background_color":"#FF9E67","icon_mask_base_uri":"https://maps.gstatic.com/mapfiles/place_api/icons/v2/restaurant_pinlet","name":"Burger King","opening_hours":{"open_now":true},"photos":[{"height":3672,"html_attributions":["<a href=\"https://maps.google.com/maps/contrib/112910301819031218202\">A Google User</a>"],"photo_reference":"AeJbb3cKFoveNM8vhsJ4qE-sJNXqbNopYXhOt1myb8iIbHZvgswjdQeT-5zNh26djEEe4J22u9Nrua-wHImqNrbat9DGM9Gdp0mH2oFlDN-8VxrMUlB0MBik_5QvGS-YcQbV1kSqlC1_1FVFdgCUWwjywaCw9ZNtbk8Moh6RapW-FE59SGab","width":4896}],"place_id":"ChIJD6HX1mbZnUcRKtV0exvkNSs","plus_code":{"compound_code":"4GPX+H6 Munich","global_code":"8FWH4GPX+H6"},"price_level":2,"rating":3.4,"reference":"ChIJD6HX1mbZnUcRKtV0exvkNSs","types":["restaurant","food","point_of_interest","establishment"],"user_ratings_total":368},{"business_status":"OPERATIONAL","formatted_address":"Goethestraße 74, 80336 München","geometry":{"location":{"lat":48.130329,"lng":11.5580933},"viewport":{"northeast":{"lat":48.13159352989272,"lng":11.55955152989272},"southwest":{"lat":48.12889387010727,"lng":11.55685187010728}}},"icon":"https://maps.gstatic.com/mapfiles/place_api/icons/v1/png_71/restaurant-71.png","icon_background_color":"#FF9E67","icon_mask_base_uri":"https://maps.gstatic.com/mapfiles/place_api/icons/v2/restaurant_pinlet","name":"McDonald's","opening_hours":{"open_now":true},"photos":[{"height":3024,"html_attributions":["<a href=\"https://maps.google.com/maps/contrib/108431155758051148273\">Dinh Lam Tran</a>"],"photo_reference":"AeJbb3d5bbAdhDjaomUcsQWIKx1Fgb8lWHPKkOl6JoJjRCL3RrgiKmeVvzd1vfWI_5ED7XN0uocpi8EwnkdNR9af0ECFZGzVwLE3DfpUg2RI-0hlx1Cr7BD11ZSDwo6j8BiRtTrGmPzh-h86R-HFTFkeH-8E98zrJK7HgZgd9PRil6nAwz_q","width":4032}],"place_id":"ChIJORWKmFDfnUcRZEdbRDbVfO4","plus_code":{"compound_code":"4HJ5+46 Munich","global_code":"8FWH4HJ5+46"},"price_level":2,"rating":3.3,"reference":"ChIJORWKmFDfnUcRZEdbRDbVfO4","types":["restaurant","food","point_of_interest","establishment"],"user_ratings_total":1552},{"business_status":"OPERATIONAL","formatted_address":"Frankfurter Ring 243, 80807 München","geometry":{"location":{"lat":48.1868963,"lng":11.6066889},"viewport":{"northeast":{"lat":48.18816667989272,"lng":11.60795687989272},"southwest":{"lat":48.18546702010728,"lng":11.60525722010728}}},"icon":"https://maps.gstatic.com/mapfiles/place_api/icons/v1/png_71/restaurant-71.png","icon_background_color":"#FF9E67","icon_mask_base_uri":"https://maps.gstatic.com/mapfiles/place_api/icons/v2/restaurant_pinlet","name":"McDonald's","opening_hours":{"open_now":true},"photos":[{"height":3968,"html_attributions":["<a href=\"https://maps.google.com/maps/contrib/111482095485238880732\">Qamruddin Mohd</a>"],"photo_reference":"AeJbb3cltqTLmqVK2OSqhDqnuDMoZmApfksGbt56tmCNXJdA6kkS0HygzoOLefjjGvdpHB7tQ287blJT2RxUw23QcR8fq-Sa5mY9ARBYQbFGlGd7TaXI8l3OE6ESd_Sbm4TeaLpX0lzSeHS1QzBASq_2TtIab1zosQlLHpIUo1z8695WUMeP","width":2976}],"place_id":"ChIJ_-LCYUN0nkcRQDNwS0dRd6I","plus_code":{"compound_code":"5JP4+QM Munich","global_code":"8FWH5JP4+QM"},"price_level":2,"rating":3.3,"reference":"ChIJ_-LCYUN0nkcRQDNwS0dRd6I","types":["restaurant","food","point_of_interest","establishment"],"user_ratings_total":442},{"business_status":"OPERATIONAL","formatted_address":"Orleanspl. 10, 81667 München","geometry":{"location":{"lat":48.1280695,"lng":11.6046053},"viewport":{"northeast":{"lat":48.12946242989271,"lng":11.60589007989272},"southwest":{"lat":48.12676277010727,"lng":11.60319042010728}}},"icon":"https://maps.gstatic.com/mapfiles/place_api/icons/v1/png_71/restaurant-71.png","icon_background_color":"#FF9E67","icon_mask_base_uri":"https://maps.gstatic.com/mapfiles/place_api/icons/v2/restaurant_pinlet","name":"Burger King","opening_hours":{"open_now":true},"photos":[{"height":2304,"html_attributions":["<a href=\"https://maps.google.com/maps/contrib/103381830108093382974\">A Google User</a>"],"photo_reference":"AeJbb3eQlMiKiSB6nkKE2Bq4KjyMac7mlREkji0ewXf8Fb7AvmACyvHz1Y-Obgzl1CnY6kl0DxR3BzFoN7rOp8ymNRjv5uV8gUOQpZtwZW3NruDfxEwt34AAKWIQ8vofAY-frb1OVHww_QBnkX3xz8A0zASSkxClZSOKfs8saL8RJAR2OvMh","width":3456}],"place_id":"ChIJPUjfhYbfnUcRZQJPk7Xj8_Y","plus_code":{"compound_code":"4JH3+6R Munich","global_code":"8FWH4JH3+6R"},"price_level":2,"rating":3.2,"reference":"ChIJPUjfhYbfnUcRZQJPk7Xj8_Y","types":["restaurant","food","point_of_interest","establishment"],"user_ratings_total":2009},{"business_status":"OPERATIONAL","formatted_address":"S-Bahnhof, Bahnhofpl. 2, 80335 München","geometry":{"location":{"lat":48.1408321,"lng":11.5595963},"viewport":{"northeast":{"lat":48.14234982989272,"lng":11.56073247989272},"southwest":{"lat":48.13965017010727,"lng":11.55803282010728}}},"icon":"https://maps.gstatic.com/mapfiles/place_api/icons/v1/png_71/restaurant-71.png","icon_background_color":"#FF9E67","icon_mask_base_uri":"https://maps.gstatic.com/mapfiles/place_api/icons/v2/restaurant_pinlet","name":"McDonald's","opening_hours":{"open_now":true},"photos":[{"height":1836,"html_attributions":["<a href=\"https://maps.google.com/maps/contrib/105595901679476289629\">José Gallego Cabello</a>"],"photo_reference":"AeJbb3cepC-mTUy6StlmFBUBzu9jjYt1KruG8KJFcf4I_-WqH2Ww7DTWshHGz1iYYbIAyaz__wOBUHe6yahVYcmRa2hCqzZoeD8R-vjX6KRrhp6dskdPj1SEbPdHcz7AnrkyC1vqbYwjkPdyuKrV2GAtT5t4KT6KD3bVf2cIpuU0C5WLwCj6","width":3264}],"place_id":"ChIJSwHJkSZrnkcRqWvnE0PJTd8","plus_code":{"compound_code":"4HR5+8R Munich","global_code":"8FWH4HR5+8R"},"price_level":2,"rating":3.2,"reference":"ChIJSwHJkSZrnkcRqWvnE0PJTd8","types":["restaurant","food","point_of_interest","establishment"],"user_ratings_total":1379},{"business_status":"OPERATIONAL","formatted_address":"Friedenstraße 17A, 81671 München","geometry":{"location":{"lat":48.1269938,"lng":11.6066115},"viewport":{"northeast":{"lat":48.12834597989272,"lng":11.60801132989272},"southwest":{"lat":48.12564632010728,"lng":11.60531167010728}}},"icon":"https://maps.gstatic.com/mapfiles/place_api/icons/v1/png_71/restaurant-71.png","icon_background_color":"#FF9E67","icon_mask_base_uri":"https://maps.gstatic.com/mapfiles/place_api/icons/v2/restaurant_pinlet","name":"Burger King","opening_hours":{"open_now":true},"photos":[{"height":1080,"html_attributions":["<a href=\"https://maps.google.com/maps/contrib/109182155809221309935\">501Learay .</a>"],"photo_reference":"AeJbb3fIX_0oAiAuzG7QeiSYxDPhk8JjOnE2T7aZPHQ2LYNDLkx3qIvkJOHP8Amsh9XxfuS5rLsj2pOBLjoLe8DGZt4y7V4r0_56gq5cb0ZyJ2IotsLx0h46CjKObhiH5PhedxCzaXsjwAf06kqUYAfRuLipJuh3BNlzlAsku8KrHhn4dLnT","width":1920}],"place_id":"ChIJPUjfhYbfnUcRPuZO5Guopk0","plus_code":{"compound_code":"4JG4+QJ Munich","global_code":"8FWH4JG4+QJ"},"price_level":2,"rating":3.2,"reference":"ChIJPUjfhYbfnUcRPuZO5Guopk0","types":["restaurant","food","point_of_interest","establishment"],"user_ratings_total":815},{"business_status":"OPERATIONAL","formatted_address":"Hackerbrücke 4, 80335 München","geometry":{"location":{"lat":48.14218469999999,"lng":11.550605},"viewport":{"northeast":{"lat":48.14370297989271,"lng":11.55207372989272},"southwest":{"lat":48.14100332010727,"lng":11.54937407010728}}},"icon":"https://maps.gstatic.com/mapfiles/place_api/icons/v1/png_71/restaurant-71.png","icon_background_color":"#FF9E67","icon_mask_base_uri":"https://maps.gstatic.com/mapfiles/place_api/icons/v2/restaurant_pinlet","name":"McDonald's","opening_hours":{"open_now":true},"photos":[{"height":672,"html_attributions":["<a href=\"https://maps.google.com/maps/contrib/114499998969719034085\">McDonald&#39;s Restaurant</a>"],"photo_reference":"AeJbb3fLwjomSFv5gYDbB2kUd3ZKmQjl7pAN9TbeF_0SRPWse2QE2lsfr86ydAoe6LVaesXW7gzSedRIV9CiHLChvH1xMXDVp3LKONXFDGnIA6ttYRJSHNK7EgBN5amkH7fuGsxPphHJyVNqu33e-WGpGyfTHYJyfyJX-Xc-uw2vefJ_kxjw","width":1000}],"place_id":"ChIJTapZtQB2nkcR6_euBU8RTGY","plus_code":{"compound_code":"4HR2+V6 Munich","global_code":"8FWH4HR2+V6"},"price_level":2,"rating":3.2,"reference":"ChIJTapZtQB2nkcR6_euBU8RTGY","types":["restaurant","food","point_of_interest","establishment"],"user_ratings_total":760},{"business_status":"OPERATIONAL","formatted_address":"Willy-Brandt-Platz 5, 81829 München","geometry":{"location":{"lat":48.1320816,"lng":11.6914208},"viewport":{"northeast":{"lat":48.13343582989272,"lng":11.69277057989272},"southwest":{"lat":48.13073617010728,"lng":11.69007092010728}}},"icon":"https://maps.gstatic.com/mapfiles/place_api/icons/v1/png_71/restaurant-71.png","icon_background_color":"#FF9E67","icon_mask_base_uri":"https://maps.gstatic.com/mapfiles/place_api/icons/v2/restaurant_pinlet","name":"McDonald's","opening_hours":{"open_now":true},"photos":[{"height":645,"html_attributions":["<a href=\"https://maps.google.com/maps/contrib/116171252074780063341\">McDonald&#39;s Restaurant</a>"],"photo_reference":"AeJbb3fJU3DW4AeMFMJ0hu-toS9lQwg-SrzHEKeDzgv2HVuaDuhhrsUP0QTpBJgCVjSLPHDM3YKbI4VM3y5juKb0Cez8vewwrVkn_u6IgnYuuNdP3kUGZ0g6bqGoCkhyzWuUpcy-aFjfTk964hPtYQfohibYOPTpEaUJ64p06fk5d9v5B4I7","width":1000}],"place_id":"ChIJ6_4bW4UKnkcRGqdETMgud8U","plus_code":{"compound_code":"4MJR+RH Munich","global_code":"8FWH4MJR+RH"},"price_level":2,"rating":3.2,"reference":"ChIJ6_4bW4UKnkcRGqdETMgud8U","types":["restaurant","food","point_of_interest","establishment"],"user_ratings_total":512},{"business_status":"OPERATIONAL","formatted_address":"Am Olympiapark 1, 80809 München","geometry":{"location":{"lat":48.1782216,"lng":11.5559768},"viewport":{"northeast":{"lat":48.17958267989273,"lng":11.55744582989272},"southwest":{"lat":48.17688302010728,"lng":11.55474617010728}}},"icon":"https://maps.gstatic.com/mapfiles/place_api/icons/v1/png_71/restaurant-71.png","icon_background_color":"#FF9E67","icon_mask_base_uri":"https://maps.gstatic.com/mapfiles/place_api/icons/v2/restaurant_pinlet","name":"Fast Food Caravan","opening_hours":{"open_now":true},"photos":[{"height":3024,"html_attributions":["<a href=\"https://maps.google.com/maps/contrib/100818798086096343091\">Anil</a>"],"photo_reference":"AeJbb3d5K5sg9dCay_9TaoWsdJ4IU2HnutHnlIuaSOz9rBCa8GR2Ng28w72eVNphmnXtPT8l0eiZHLoA4Ru5U9dna_229kf5pWMjJq8SBIxw21V1CjqgUc0QPnvjnyuqgtnd-zoZbmg_QwYWtSyu-nsNP7abE2j1P-dLdLia7KsRyzwZ7VJL","width":4032}],"place_id":"ChIJeaRgnWN3nkcR7YrIDe9OVps","plus_code":{"compound_code":"5HH4+79 Munich","global_code":"8FWH5HH4+79"},"rating":3.2,"reference":"ChIJeaRgnWN3nkcR7YrIDe9OVps","types":["restaurant","food","point_of_interest","establishment"],"user_ratings_total":5},{"business_status":"OPERATIONAL","formatted_address":"Sonnenstraße 6, 80331 München","geometry":{"location":{"lat":48.1377712,"lng":11.5643884},"viewport":{"northeast":{"lat":48.13910457989272,"lng":11.56595092989272},"southwest":{"lat":48.13640492010727,"lng":11.56325127010728}}},"icon":"https://maps.gstatic.com/mapfiles/place_api/icons/v1/png_71/restaurant-71.png","icon_background_color":"#FF9E67","icon_mask_base_uri":"https://maps.gstatic.com/mapfiles/place_api/icons/v2/restaurant_pinlet","name":"Burger King Munich","opening_hours":{"open_now":true},"photos":[{"height":2988,"html_attributions":["<a href=\"https://maps.google.com/maps/contrib/108423456024476339879\">Mladen Brkić</a>"],"photo_reference":"AeJbb3fov_SbkAT60gMSfIu6WJIbUwF799YC5IvhxznV2L8k_aBPdW9pvnJFPBX9t__lherj8poZq3cAouXqncBqW9eoXc-K5awnQfZFzWlatGF9rOAdVeMpjmQrMhjDCxX6W2Nm4VuMgoFFhbpjX63USOaVwoZ4lfNhcMdEQZCnbfrfJ6Dl","width":5312}],"place_id":"ChIJiQaMr_d1nkcRhZgP1_GEwAQ","plus_code":{"compound_code":"4HQ7+4Q Munich","global_code":"8FWH4HQ7+4Q"},"price_level":2,"rating":2.9,"reference":"ChIJiQaMr_d1nkcRhZgP1_GEwAQ","types":["restaurant","food","point_of_interest","establishment"],"user_ratings_total":2377},{"business_status":"OPERATIONAL","formatted_address":"Bayerstraße 10A, 80335 München","geometry":{"location":{"lat":48.1396297,"lng":11.5588825},"viewport":{"northeast":{"lat":48.14095577989272,"lng":11.56015317989272},"southwest":{"lat":48.13825612010727,"lng":11.55745352010728}}},"icon":"https://maps.gstatic.com/mapfiles/place_api/icons/v1/png_71/restaurant-71.png","icon_background_color":"#FF9E67","icon_mask_base_uri":"https://maps.gstatic.com/mapfiles/place_api/icons/v2/restaurant_pinlet","name":"Pommes Freunde","opening_hours":{"open_now":true},"photos":[{"height":5120,"html_attributions":["<a href=\"https://maps.google.com/maps/contrib/114399984804042020558\">Anton Schmucker</a>"],"photo_reference":"AeJbb3cNt_lrZI1FAqPlVv3qwt6VG4pSavoUbV1PQQAmXsmrMV1oSivls44JJ6W_bIfF58mhpE3hTlzh6dgiw7iGNX7EoXE9QezFnyU7KB9xBw8JxI1f9i4wxdVz_ARr9Luqu8_BJprlkQkK0GRsEnHXt5ztB19LavEp3yXO0ZmNKPLNjqaX","width":3840}],"place_id":"ChIJF-Q-f_l1nkcRxOAOTlkN734","plus_code":{"compound_code":"4HQ5+VH Munich","global_code":"8FWH4HQ5+VH"},"price_level":2,"rating":2.8,"reference":"ChIJF-Q-f_l1nkcRxOAOTlkN734","types":["restaurant","food","point_of_interest","establishment"],"user_ratings_total":220},{"business_status":"OPERATIONAL","formatted_address":"Arnulfstraße 61, 80636 München","geometry":{"location":{"lat":48.145495,"lng":11.536646},"viewport":{"northeast":{"lat":48.14706517989272,"lng":11.53796302989272},"southwest":{"lat":48.14436552010727,"lng":11.53526337010728}}},"icon":"https://maps.gstatic.com/mapfiles/place_api/icons/v1/png_71/restaurant-71.png","icon_background_color":"#FF9E67","icon_mask_base_uri":"https://maps.gstatic.com/mapfiles/place_api/icons/v2/restaurant_pinlet","name":"Meet & Eat","opening_hours":{"open_now":true},"photos":[{"height":1200,"html_attributions":["<a href=\"https://maps.google.com/maps/contrib/116626404257177097689\">СЕРГЕЙ ДРАЧ</a>"],"photo_reference":"AeJbb3cp6MuA-wbWhAN6tM-icRBBLo9NdjCobVfq4gFPRM1KD-IAFBPL6ol3fn3HZmvgLUtVzocMlPxQlZmNmfG6MY7gIxswIf9cT0CMOhU-94oqKp3l-zEHrP0lA_uHGwbVer1sDxSMBazaAXj2PjyO8e0ubGSGokWDIK4ELqI6spqq2gaY","width":1600}],"place_id":"ChIJ3cCEYmLfnUcRXCIPN8bEkFU","plus_code":{"compound_code":"4GWP+5M Munich","global_code":"8FWH4GWP+5M"},"rating":1,"reference":"ChIJ3cCEYmLfnUcRXCIPN8bEkFU","types":["restaurant","food","point_of_interest","establishment"],"user_ratings_total":1}]