[{"business_status":"OPERATIONAL","formatted_address":"Am Sportpark 3, 82008 Unterhaching","geometry":{"location":{"lat":48.07157360000001,"lng":11.6184419},"viewport":{"northeast":{"lat":48.07293107989272,"lng":11.61977002989272},"southwest":{"lat":48.07023142010728,"lng":11.61707037010728}}},"icon":"https://maps.gstatic.com/mapfiles/place_api/icons/v1/png_71/restaurant-71.png","icon_background_color":"#FF9E67","icon_mask_base_uri":"https://maps.gstatic.com/mapfiles/place_api/icons/v2/restaurant_pinlet","name":"American Burger Bar","opening_hours":{"open_now":false},"photos":[{"height":1797,"html_attributions":["<a href=\"https://maps.google.com/maps/contrib/107856259476882935859\">Julian Wehrig</a>"],"photo_reference":"AeJbb3fOoEIWdkJh-ZTmkQy_tx2Lor0TC5CuswcHwz-pz2ujrPW0R3Yn_o0wFQy1GrzV_X8YQ3GUGBix2iHreLH97E58kAKUkLU0PP8HHBwjHInnI74EKqwC9GJHspgyLmn_47RACfMG0gGucDa9lFMC9P4a8Q48dSKM6g_PWbwzodJzxtBB","width":2736}],"place_id":"ChIJ6_znViLenUcR1UJKFcjA45I","plus_code":{"compound_code":"3JC9+J9 Unterhaching","global_code":"8FWH3JC9+J9"},"price_level":2,"rating":4.8,"reference":"ChIJ6_znViLenUcR1UJKFcjA45I","types":["meal_takeaway","restaurant","food","point_of_interest","establishment"],"user_ratings_total":1248},{"business_status":"OPERATIONAL","formatted_address":"Tal 32, 80331 München","geometry":{"location":{"lat":48.1356659,"lng":11.5801923},"viewport":{"northeast":{"lat":48.13705402989272,"lng":11.58157572989272},"southwest":{"lat":48.13435437010728,"lng":11.57887607010728}}},"icon":"https://maps.gstatic.com/mapfiles/place_api/icons/v1/png_71/restaurant-71.png","icon_background_color":"#FF9E67","icon_mask_base_uri":"https://maps.gstatic.com/mapfiles/place_api/icons/v2/restaurant_pinlet","name":"Sesam Falafel","opening_hours":{"open_now":false},"photos":[{"height":4032,"html_attributions":["<a href=\"https://maps.google.com/maps/contrib/110619983737172239270\">Bander MD</a>"],"photo_reference":"AeJbb3fJf2VkZnOdnoSpcTu15gYR0QixMnSP3B-7YhuQ8K2xJnfQrpWvj2NtJSRFHZprbPiJ8aw_RJqSBYUAaDSpM6bFxi8WI9OALFibSK-6OLY0QZCcvTfFHnCsbsFilQhLH_pdrGSIhZoZoh7xNlaYSKuBqnYU_5Gpj5LggrxMEps7GhHh","width":3024}],"place_id":"ChIJK3IYI4p1nkcRxP2FD0W9vso","plus_code":{"compound_code":"4HPJ+73 Munich","global_code":"8FWH4HPJ+73"},"price_level":1,"rating":4.8,"reference":"ChIJK3IYI4p1nkcRxP2FD0W9vso","types":["restaurant","food","point_of_interest","establishment"],"user_ratings_total":1136},{"business_status":"OPERATIONAL","formatted_address":"Kapuzinerstraße 2, 80337 München","geometry":{"location":{"lat":48.1279232,"lng":11.5562627},"viewport":{"northeast":{"lat":48.12925982989272,"lng":11.55771227989272},"southwest":{"lat":48.12656017010728,"lng":11.55501262010728}}},"icon":"https://maps.gstatic.com/mapfiles/place_api/icons/v1/png_71/restaurant-71.png","icon_background_color":"#FF9E67","icon_mask_base_uri":"https://maps.gstatic.com/mapfiles/place_api/icons/v2/restaurant_pinlet","name":"Make Falafel Not War Halal Restaurant","opening_hours":{"open_now":false},"photos":[{"height":4160,"html_attributions":["<a href=\"https://maps.google.com/maps/contrib/103992490456184053482\">Rodrigo Iridologo</a>"],"photo_reference":"AeJbb3c9jKfZCOKaD9FdXMFIlmmBCKY9pXBThKWeh0HgsaaOT2AMhFD8Q44gzmkuTt6Wzb6SxOT0LptdpUTjyqZxLzSoqh2B4yYdOb3azEpqqN47YCBmuEvk2UKtAKNGD-Xlyu8FmYhnE9qVuaZJwHFVvxaO_mxOsNotJT9WAI1HqPtBQRrF","width":2336}],"place_id":"ChIJg6GSP1DfnUcRFFTaeRNxVXs","plus_code":{"compound_code":"4HH4+5G Munich","global_code":"8FWH4HH4+5G"},"price_level":1,"rating":4.7,"reference":"ChIJg6GSP1DfnUcRFFTaeRNxVXs","types":["meal_takeaway","restaurant","food","point_of_interest","establishment"],"user_ratings_total":224},{"business_status":"OPERATIONAL","formatted_address":"Heßstraße 90, 80797 München","geometry":{"location":{"lat":48.1535802,"lng":11.5604555},"viewport":{"northeast":{"lat":48.15489812989273,"lng":11.56185057989272},"southwest":{"lat":48.15219847010728,"lng":11.55915092010728}}},"icon":"https://maps.gstatic.com/mapfiles/place_api/icons/v1/png_71/restaurant-71.png","icon_background_color":"#FF9E67","icon_mask_base_uri":"https://maps.gstatic.com/mapfiles/place_api/icons/v2/restaurant_pinlet","name":"Taste my Burger","opening_hours":{"open_now":false},"photos":[{"height":3024,"html_attributions":["<a href=\"https://maps.google.com/maps/contrib/116290331112733660441\">Felicitas Annis</a>"],"photo_reference":"AeJbb3dtVZPexTNmKtaffKR2bQlUybLsKHP693XdChKervePX5FROakjMDWsHF8aY4t7fOQU4I1f1D9QUi5S87PH_e70wIYiL04gBDTJ3CY6u78BVm40BT5Svd68Tuvx_FLF_GabNlp_ydK90TtMMfWlgoyg42jRk4B4xSX-cC001cxqk62C","width":4032}],"place_id":"ChIJj63UJft1nkcR4uGzEqg9seo","plus_code":{"compound_code":"5H36+C5 Munich","global_code":"8FWH5H36+C5"},"price_level":1,"rating":4.6,"reference":"ChIJj63UJft1nkcR4uGzEqg9seo","types":["restaurant","food","point_of_interest","establishment"],"user_ratings_total":2553},{"business_status":"OPERATIONAL","formatted_address":"Fürstenrieder Str. 152, 80686 München","geometry":{"location":{"lat":48.1274046,"lng":11.5023682},"viewport":{"northeast":{"lat":48.12875262989272,"lng":11.50386912989272},"southwest":{"lat":48.12605297010728,"lng":11.50116947010728}}},"icon":"https://maps.gstatic.com/mapfiles/place_api/icons/v1/png_71/restaurant-71.png","icon_background_color":"#FF9E67","icon_mask_base_uri":"https://maps.gstatic.com/mapfiles/place_api/icons/v2/restaurant_pinlet","name":"My Stolz The Burger Boss München Laim","opening_hours":{"open_now":false},"photos":[{"height":3456,"html_attributions":["<a href=\"https://maps.google.com/maps/contrib/118113201916771724940\">My Stolz - The Burger Boss</a>"],"photo_reference":"AeJbb3dYDFZlaU02KfatkUYTZTruck7DbkKMuWkatXKbNUvycOKHhQQGkTeP0ptYNF6IZc8cFcigdxCU-eZKdNoozV_TFlolPl8gbLFHABgIffdVxmQzRTtHi9iO_0EXHOLJo1cvfyBqQjSwOSaEw-Ya7BttAknOz2KYIoqXk6dTIUrZra4A","width":5184}],"place_id":"ChIJVQoueo7YnUcRnG_DJZSt4vM","plus_code":{"compound_code":"4GG2+XW Munich","global_code":"8FWH4GG2+XW"},"price_level":2,"rating":4.6,"reference":"ChIJVQoueo7YnUcRnG_DJZSt4vM","types":["restaurant","food","point_of_interest","establishment"],"user_ratings_total":766},{"business_status":"OPERATIONAL","formatted_address":"Lindwurmstraße 77, 80337 München","geometry":{"location":{"lat":48.1296748,"lng":11.5591298},"viewport":{"northeast":{"lat":48.13108912989272,"lng":11.56039747989272},"southwest":{"lat":48.12838947010728,"lng":11.55769782010728}}},"icon":"https://maps.gstatic.com/mapfiles/place_api/icons/v1/png_71/restaurant-71.png","icon_background_color":"#FF9E67","icon_mask_base_uri":"https://maps.gstatic.com/mapfiles/place_api/icons/v2/restaurant_pinlet","name":"Zum Würstlkönig","opening_hours":{"open_now":false},"photos":[{"height":2988,"html_attributions":["<a href=\"https://maps.google.com/maps/contrib/102929691071139575980\">Lukas Lurex</a>"],"photo_reference":"AeJbb3d5EEyKr4qZPHdRMiwErWUqnZAYr8S_jlPdji-dEVWHqgkSVAbXXcTErYuUiT-YzQvJDozgtl7FNKodGpZqwLxTjEE9T-Y5nHO8faRLajqgtcWIOzfvpnmatDgJ2hUfsTGGXEcYRxokhngLt39ywaXx7iujyhnbmIC16emrPnXIZETi","width":5312}],"place_id":"ChIJLyhFcVrfnUcRj2528_5Uxdw","plus_code":{"compound_code":"4HH5+VM Munich","global_code":"8FWH4HH5+VM"},"price_level":1,"rating":4.6,"reference":"ChIJLyhFcVrfnUcRj2528_5Uxdw","types":["restaurant","food","point_of_interest","establishment"],"user_ratings_total":374},{"business_status":"OPERATIONAL","formatted_address":"Rindermarkt, Marienplatz 6, 80331 München","geometry":{"location":{"lat":48.1359489,"lng":11.5744248},"viewport":{"northeast":{"lat":48.13736772989272,"lng":11.57572187989272},"southwest":{"lat":48.13466807010727,"lng":11.57302222010728}}},"icon":"https://maps.gstatic.com/mapfiles/place_api/icons/v1/png_71/restaurant-71.png","icon_background_color":"#FF9E67","icon_mask_base_uri":"https://maps.gstatic.com/mapfiles/place_api/icons/v2/restaurant_pinlet","name":"Ruff's Burger Marienplatz","opening_hours":{"open_now":false},"photos":[{"height":3024,"html_attributions":["<a href=\"https://maps.google.com/maps/contrib/105655148568203414528\">Daniela Vadalà</a>"],"photo_reference":"AeJbb3fOdPoWDSFHvpbmj-UmpdgSrJYWhojUQQe3ufl_I3SXZw5T2SMo77Y1VQTOdBUoQZNwu8s0O0jFMguHaDRlU8c6_LXqpJ00D7V0YVSeoS6gF9T70NsE2ZMwpMguXtpR4JfeBk2CPZnZqnmgY9Z_dsN53c4fMyka1boylJvlNuJIxauI","width":4032}],"place_id":"ChIJyyutSvV1nkcRvfYMURk_ryQ","plus_code":{"compound_code":"4HPF+9Q Munich","global_code":"8FWH4HPF+9Q"},"price_level":2,"rating":4.5,"reference":"ChIJyyutSvV1nkcRvfYMURk_ryQ","types":["meal_takeaway","restaurant","food","point_of_interest","establishment"],"user_ratings_total":1883},{"business_status":"OPERATIONAL","formatted_address":"Müllerstraße 43, 80469 München","geometry":{"location":{"lat":48.1313019,"lng":11.568316},"viewport":{"northeast":{"lat":48.13269182989273,"lng":11.56969292989272},"southwest":{"lat":48.12999217010728,"lng":11.56699327010728}}},"icon":"https://maps.gstatic.com/mapfiles/place_api/icons/v1/png_71/restaurant-71.png","icon_background_color":"#FF9E67","icon_mask_base_uri":"https://maps.gstatic.com/mapfiles/place_api/icons/v2/restaurant_pinlet","name":"Bazi's Schlemmerkucherl","opening_hours":{"open_now":false},"photos":[{"height":2448,"html_attributions":["<a href=\"https://maps.google.com/maps/contrib/115916739616983025237\">Riki Ross</a>"],"photo_reference":"AeJbb3dZlkS9zAW9EtIrP_zTHbayc4twA6RXzNc4bDh9u9Tutol04bMfu6O0uw4KXoCDLt9NOGDWOUGLZvChLo8y8M_OHW0c3tKyk6v676-qqZ5d4Sh1F3mGLXrL6OGXoHQ52XfSMXqaaLKpncmhA1fyOaRrSmmpCUUHjrc-sxkd9IoywEC6","width":3264}],"place_id":"ChIJPYf7jl7fnUcRq-1pyEC-h6I","plus_code":{"compound_code":"4HJ9+G8 Munich","global_code":"8FWH4HJ9+G8"},"rating":4.5,"reference":"ChIJPYf7jl7fnUcRq-1pyEC-h6I","types":["meal_takeaway","restaurant","food","point_of_interest","establishment"],"user_ratings_total":536},{"business_status":"OPERATIONAL","formatted_address":"Dachauer Str. 26, 80335 München","geometry":{"location":{"lat":48.1439406,"lng":11.5600911},"viewport":{"northeast":{"lat":48.14527802989272,"lng":11.56133717989272},"southwest":{"lat":48.14257837010727,"lng":11.55863752010728}}},"icon":"https://maps.gstatic.com/mapfiles/place_api/icons/v1/png_71/restaurant-71.png","icon_background_color":"#FF9E67","icon_mask_base_uri":"https://maps.gstatic.com/mapfiles/place_api/icons/v2/restaurant_pinlet","name":"Eat Fresh","opening_hours":{"open_now":false},"photos":[{"height":757,"html_attributions":["<a href=\"https://maps.google.com/maps/contrib/105974821110181466947\">A Google User</a>"],"photo_reference":"AeJbb3eogd7XA_Nf4lmwtKdjUB_nZXewygT9hT4aA5TmgQpHdg4C5UmEnnQuuGHCRwFdTOY20HRB0A955DvE2uL2oXwyfgr3G6H14ntlppqN6vwWFRLrCA8U-fI1FLMiYFIXchEMfVwBlnIKVBtKnT8uIBMyLq53HyC0g23boE-UErqUrq8-","width":1600}],"place_id":"ChIJX1D9G5F1nkcRV_kF8fZyP4c","plus_code":{"compound_code":"4HV6+H2 Munich","global_code":"8FWH4HV6+H2"},"rating":4.5,"reference":"ChIJX1D9G5F1nkcRV_kF8fZyP4c","types":["restaurant","food","point_of_interest","establishment"],"user_ratings_total":25},{"business_status":"OPERATIONAL","formatted_address":"Brienner Str. 49, 80333 München","geometry":{"location":{"lat":48.146822,"lng":11.561011},"viewport":{"northeast":{"lat":48.14825842989272,"lng":11.56239227989272},"southwest":{"lat":48.14555877010728,"lng":11.55969262010728}}},"icon":"https://maps.gstatic.com/mapfiles/place_api/icons/v1/png_71/restaurant-71.png","icon_background_color":"#FF9E67","icon_mask_base_uri":"https://maps.gstatic.com/mapfiles/place_api/icons/v2/restaurant_pinlet","name":"Hamburgerei EINS","opening_hours":{"open_now":false},"photos":[{"height":1536,"html_attributions":["<a href=\"https://maps.google.com/maps/contrib/117308447167753266317\">Hamburgerei</a>"],"photo_reference":"AeJbb3c9C5f7tbTYRQ-1ZmeaqFaoNtrrS2CrLFAKNYYmnRebuK-b6Xrd8dWGtDiu1o7HvpCUWGT9aYYL62rNvpIDw46DHOm4jBKZ9f0gpfEskVoWDoYoRb2fiUBERqGFOlEqWlGruQ5NKmqETZIC08qVfJvhIJezOTmu2QmMJ2K2mMdlgrSS","width":2304}],"place_id":"ChIJbyS9yOR1nkcRUCwH80RQmX8","plus_code":{"compound_code":"4HW6+PC Munich","global_code":"8FWH4HW6+PC"},"price_level":2,"rating":4.4,"reference":"ChIJbyS9yOR1nkcRUCwH80RQmX8","types":["bar","restaurant","food","point_of_interest","establishment"],"user_ratings_total":2360},{"business_status":"OPERATIONAL","formatted_address":"Einsteinstraße 106, 81675 München","geometry":{"location":{"lat":48.1360321,"lng":11.6087633},"viewport":{"northeast":{"lat":48.13743602989273,"lng":11.61015562989272},"southwest":{"lat":48.13473637010728,"lng":11.60745597010728}}},"icon":"https://maps.gstatic.com/mapfiles/place_api/icons/v1/png_71/restaurant-71.png","icon_background_color":"#FF9E67","icon_mask_base_uri":"https://maps.gstatic.com/mapfiles/place_api/icons/v2/restaurant_pinlet","name":"Hamburgerei ZWEI","opening_hours":{"open_now":false},"photos":[{"height":3840,"html_attributions":["<a href=\"https://maps.google.com/maps/contrib/102322126728247309698\">Juan Antonio Estrada Herrera</a>"],"photo_reference":"AeJbb3fZ8W2QFIk_aF17Dk9h90VMZa9wl_LFcDikopjvRpPyCqRVs20jF1XmoW2NguwBZo-J7ty5jRV4JRrzmBxVRX_ARhJxSXh8HQ6Ggm63jo0XjlbrDxJzHfyPWnhcn2jkyLbi-09Ca7XNKn46aDA6sHzFryIeBHNeVefeiBuAbsMM_n1c","width":5120}],"place_id":"ChIJH3iQDHx1nkcRYrefzOow4pg","plus_code":{"compound_code":"4JP5+CG Munich","global_code":"8FWH4JP5+CG"},"price_level":2,"rating":4.4,"reference":"ChIJH3iQDHx1nkcRYrefzOow4pg","types":["restaurant","food","point_of_interest","establishment"],"user_ratings_total":1168},{"business_status":"OPERATIONAL","formatted_address":"Augustenstraße 74, 80333 München","geometry":{"location":{"lat":48.1501422,"lng":11.5637438},"viewport":{"northeast":{"lat":48.15150557989272,"lng":11.56502972989272},"southwest":{"lat":48.14880592010728,"lng":11.56233007010728}}},"icon":"https://maps.gstatic.com/mapfiles/place_api/icons/v1/png_71/restaurant-71.png","icon_background_color":"#FF9E67","icon_mask_base_uri":"https://maps.gstatic.com/mapfiles/place_api/icons/v2/restaurant_pinlet","name":"Burrito Company München Maxvorstadt","opening_hours":{"open_now":false},"photos":[{"height":4032,"html_attributions":["<a href=\"https://maps.google.com/maps/contrib/113010447826827310160\">Mahdi Saleh</a>"],"photo_reference":"AeJbb3cxTrhEXBlP482zC0Kx2FpTzo1Wn-RDglsJ4n2L_DVfY-fHvMkqgjuYG4W1rt-DOIr3_CQJTX380vbBo2l9iIb3Vln17RIi1WQzdsk9noUWRojIzqciy9C7j9eQQ1EvscZ4QaRbUh-AORrmrFuC3DaQEp2b1rQtII2UsAoS8g2NtO43","width":3024}],"place_id":"ChIJl5gkzeV1nkcRP_m-l4_qYxA","plus_code":{"compound_code":"5H27+3F Munich","global_code":"8FWH5H27+3F"},"price_level":2,"rating":4.4,"reference":"ChIJl5gkzeV1nkcRP_m-l4_qYxA","types":["restaurant","food","point_of_interest","establishment"],"user_ratings_total":959},{"business_status":"OPERATIONAL","formatted_address":"Kazmairstraße 37, 80339 München","geometry":{"location":{"lat":48.1345676,"lng":11.54161},"viewport":{"northeast":{"lat":48.13598027989272,"lng":11.54295232989272},"southwest":{"lat":48.13328062010728,"lng":11.54025267010728}}},"icon":"https://maps.gstatic.com/mapfiles/place_api/icons/v1/png_71/restaurant-71.png","icon_background_color":"#FF9E67","icon_mask_base_uri":"https://maps.gstatic.com/mapfiles/place_api/icons/v2/restaurant_pinlet","name":"King Loui","opening_hours":{"open_now":false},"photos":[{"height":3024,"html_attributions":["<a href=\"https://maps.google.com/maps/contrib/112132640526683693127\">Albrecht Wigand</a>"],"photo_reference":"AeJbb3dEKpvfGn8vcU8QzRVrmobQ1IMZsNtsQ3SQn454oZ6tfyxCWIEX08EmJXZB6xpz5-K2O8P91JBZChfeDnBxGMOK7tw6QMYa1FXtmUsXhLhteTI2kBXqBha-Ck3Pumw2OXRxVC8cBUKSlTLYzrSj3TgrLkCQPsXaMM6uxXQohD2429GN","width":4032}],"place_id":"ChIJH1Pt3KvYnUcRw-gNCRXKq6c","plus_code":{"compound_code":"4GMR+RJ Munich","global_code":"8FWH4GMR+RJ"},"price_level":2,"rating":4.4,"reference":"ChIJH1Pt3KvYnUcRw-gNCRXKq6c","types":["restaurant","food","point_of_interest","establishment"],"user_ratings_total":940},{"business_status":"OPERATIONAL","formatted_address":"Barer Str. 46, 80799 München","geometry":{"location":{"lat":48.1495713,"lng":11.5725068},"viewport":{"northeast":{"lat":48.15090052989272,"lng":11.57376832989272},"southwest":{"lat":48.14820087010728,"lng":11.57106867010728}}},"icon":"https://maps.gstatic.com/mapfiles/place_api/icons/v1/png_71/restaurant-71.png","icon_background_color":"#FF9E67","icon_mask_base_uri":"https://maps.gstatic.com/mapfiles/place_api/icons/v2/restaurant_pinlet","name":"Indisches Fastfood","opening_hours":{"open_now":false},"photos":[{"height":1908,"html_attributions":["<a href=\"https://maps.google.com/maps/contrib/117339179364294148864\">Diego Havenstein</a>"],"photo_reference":"AeJbb3eoqWJ2GkKVBpBO2ilMdWp0HuAUX38p0YXzZXTvezIMhsVTyn2xzezEYqIIJoJ8tVj-LITFY0qHGEtBFu1FIsLdVjNXYS5mQihcvJe9bgv94kxYrCedwoKqe5zKRSlp9xYkh35VrnyMl4kFgK3f7PXdXerXb-tuZEUBfs-M5nfV48-U","width":4032}],"place_id":"ChIJY3FhsO51nkcR-_uvwjXmh_w","plus_code":{"compound_code":"4HXF+R2 Munich","global_code":"8FWH4HXF+R2"},"price_level":1,"rating":4.4,"reference":"ChIJY3FhsO51nkcR-_uvwjXmh_w","types":["restaurant","food","point_of_interest","establishment"],"user_ratings_total":212},{"business_status":"OPERATIONAL","formatted_address":"Barer Str. 34, 80333 München","geometry":{"location":{"lat":48.1461376,"lng":11.5708213},"viewport":{"northeast":{"lat":48.14754612989272,"lng":11.57196907989272},"southwest":{"lat":48.14484647010728,"lng":11.56926942010728}}},"icon":"https://maps.gstatic.com/mapfiles/place_api/icons/v1/png_71/restaurant-71.png","icon_background_color":"#FF9E67","icon_mask_base_uri":"https://maps.gstatic.com/mapfiles/place_api/icons/v2/restaurant_pinlet","name":"Grillin Me Softly GmbH (Büro)","opening_hours":{"open_now":false},"photos":[{"height":4032,"html_attributions":["<a href=\"https://maps.google.com/maps/contrib/103292413556948678612\">Larry Terwey</a>"],"photo_reference":"AeJbb3dti4R612zCUKoiiw6BHq69cwrY-EMoic1MvNGDe_dL4O_3tSYY-TgGjBsIbuo3kfY0DRa08cdlMWFVKPFSPPM3n_76Mr9Y45s4aC2cGsqG5RV8zSkbJo295IUyWneehcT07jx6MkZirFv0JYb2xpOyELx6CkmjxUVc4c5f-i0jx9Q-","width":3024}],"place_id":"ChIJpeiYEe51nkcRTJm62Qvn9i4","plus_code":{"compound_code":"4HWC+CC Munich","global_code":"8FWH4HWC+CC"},"rating":4.4,"reference":"ChIJpeiYEe51nkcRTJm62Qvn9i4","types":["restaurant","food","point_of_interest","establishment"],"user_ratings_total":46},{"business_status":"OPERATIONAL","formatted_address":"Münchener Str. 46, 85748 Garching bei München","geometry":{"location":{"lat":48.24470609999999,"lng":11.6468601},"viewport":{"northeast":{"lat":48.24603407989272,"lng":11.64828457989272},"southwest":{"lat":48.24333442010728,"lng":11.64558492010728}}},"icon":"https://maps.gstatic.com/mapfiles/place_api/icons/v1/png_71/restaurant-71.png","icon_background_color":"#FF9E67","icon_mask_base_uri":"https://maps.gstatic.com/mapfiles/place_api/icons/v2/restaurant_pinlet","name":"Abou Nur Imbiss","opening_hours":{"open_now":false},"photos":[{"height":1080,"html_attributions":["<a href=\"https://maps.google.com/maps/contrib/108446588000532545991\">Elon Pla</a>"],"photo_reference":"AeJbb3eo1I3N-ILE_v1z9gJJ24gjr3NEyb6VWKo1kNCEpUmoAUtKnQFb5mRz8vFQ5NH-uF7_VuIjDkrwzkzwq8ZwnwPg65jU5lFkD41fwGDGlsQ1nHolJmn2Ng4eu64XBFCs9EyKLHDcQSoPTgFSNG7qO385F09CynE64ev_GEFk38unTX1s","width":1920}],"place_id":"ChIJF8evxgBznkcRRt8YCDKwXvs","plus_code":{"compound_code":"6JVW+VP Garching","global_code":"8FWH6JVW+VP"},"rating":4.4,"reference":"ChIJF8evxgBznkcRRt8YCDKwXvs","types":["restaurant","food","point_of_interest","establishment"],"user_ratings_total":37},{"business_status":"OPERATIONAL","formatted_address":"Theresienstraße 47, 80333 München","geometry":{"location":{"lat":48.1504941,"lng":11.5661522},"viewport":{"northeast":{"lat":48.15186487989272,"lng":11.56751737989272},"southwest":{"lat":48.14916522010728,"lng":11.56481772010728}}},"icon":"https://maps.gstatic.com/mapfiles/place_api/icons/v1/png_71/restaurant-71.png","icon_background_color":"#FF9E67","icon_mask_base_uri":"https://maps.gstatic.com/mapfiles/place_api/icons/v2/restaurant_pinlet","name":"Djudi Schnellrestaurant","opening_hours":{"open_now":false},"photos":[{"height":4032,"html_attributions":["<a href=\"https://maps.google.com/maps/contrib/110767916948617062538\">joshy</a>"],"photo_reference":"AeJbb3eLL2koF3b1Tb6PbDl8O8I0ISrobXqZ0qsvegTvOeheqvSDYCz0dkPNvVDVzp0OENtshaY7kZ9hKArYQrlfd_CKq5oJYYlnW3XQZLncKuQOjc9IuWxi7dFmAGoRMkVG5X6PUk23gJDinG2F8BEYFdXOrEjuYKB8mVQOsr7fJsfJtNQD","width":3024}],"place_id":"ChIJy7Fh4-V1nkcR1_htBHgiz5U","plus_code":{"compound_code":"5H28+5F Munich","global_code":"8FWH5H28+5F"},"price_level":1,"rating":4.2,"reference":"ChIJy7Fh4-V1nkcR1_htBHgiz5U","types":["restaurant","food","point_of_interest","establishment"],"user_ratings_total":288},{"business_status":"OPERATIONAL","formatted_address":"Pasinger Bahnhofspl. 5/Unit 138, 81241 München","geometry":{"location":{"lat":48.1477793,"lng":11.4633982},"viewport":{"northeast":{"lat":48.14917432989272,"lng":11.46472657989272},"southwest":{"lat":48.14647467010727,"lng":11.46202692010728}}},"icon":"https://maps.gstatic.com/mapfiles/place_api/icons/v1/png_71/restaurant-71.png","icon_background_color":"#FF9E67","icon_mask_base_uri":"https://maps.gstatic.com/mapfiles/place_api/icons/v2/restaurant_pinlet","name":"Five Guys München Pasing Arcaden","opening_hours":{"open_now":false},"photos":[{"height":3456,"html_attributions":["<a href=\"https://maps.google.com/maps/contrib/114036950619837046313\">Kai Gregor</a>"],"photo_reference":"AeJbb3ddchplmf7nK769cZOYcX0V_ljZYLeiWIAgoSRKU9IkwJZoWgaMuiLUDGAHJV7Zx6eE2PCuF5CF7OYPFwTwz9Zl2trTRVtEAboYvI51sRh8MUjrnjqVoE38iz9Hd9_m-Axg0LpOq1chX4VFLZVB5-kULIxOljv9kwiv36JaLYtzyY2i","width":4608}],"place_id":"ChIJdZJAstV3nkcRnbARpJp6vU4","plus_code":{"compound_code":"4FX7+49 Munich","global_code":"8FWH4FX7+49"},"price_level":2,"rating":4.1,"reference":"ChIJdZJAstV3nkcRnbARpJp6vU4","types":["meal_takeaway","restaurant","food","point_of_interest","establishment"],"user_ratings_total":2255},{"business_status":"OPERATIONAL","formatted_address":"Amalienstraße 46, 80799 München","geometry":{"location":{"lat":48.149252,"lng":11.577959},"viewport":{"northeast":{"lat":48.15063937989272,"lng":11.57923302989272},"southwest":{"lat":48.14793972010727,"lng":11.57653337010728}}},"icon":"https://maps.gstatic.com/mapfiles/place_api/icons/v1/png_71/restaurant-71.png","icon_background_color":"#FF9E67","icon_mask_base_uri":"https://maps.gstatic.com/mapfiles/place_api/icons/v2/restaurant_pinlet","name":"Pommes Boutique","opening_hours":{"open_now":false},"photos":[{"height":3024,"html_attributions":["<a href=\"https://maps.google.com/maps/contrib/100182325145037751929\">Dubois-D Thomas</a>"],"photo_reference":"AeJbb3dWhj6xsz0Es17tqOrPOzZOnLhPexxgxKqfCs_JBxB-rkG5Zl9s07PE4UTebydG8dq3tma9Kl_OdVhtxAoxf2RpHZcdrz3Yj4W5WNF12klM-XavHWi63imdaU8EFm2w_PwQar1ZewzoSEkesL4pLGDoFLugkSBd6kE4n-4zoWRRXFCO","width":4032}],"place_id":"ChIJo8dHmex1nkcRCxUL0JUm6b0","plus_code":{"compound_code":"4HXH+P5 Munich","global_code":"8FWH4HXH+P5"},"price_level":2,"rating":4.1,"reference":"ChIJo8dHmex1nkcRCxUL0JUm6b0","types":["meal_takeaway","restaurant","food","point_of_interest","establishment"],"user_ratings_total":530},{"business_status":"OPERATIONAL","formatted_address":"Theresienstraße 15, 80333 München","geometry":{"location":{"lat":48.1472393,"lng":11.5776865},"viewport":{"northeast":{"lat":48.14863297989272,"lng":11.57905927989272},"southwest":{"lat":48.14593332010727,"lng":11.57635962010728}}},"icon":"https://maps.gstatic.com/mapfiles/place_api/icons/v1/png_71/cafe-71.png","icon_background_color":"#FF9E67","icon_mask_base_uri":"https://maps.gstatic.com/mapfiles/place_api/icons/v2/cafe_pinlet","name":"Fast And Tasty","opening_hours":{"open_now":false},"photos":[{"height":4032,"html_attributions":["<a href=\"https://maps.google.com/maps/contrib/104174851710776757015\">lifestyle- tale</a>"],"photo_reference":"AeJbb3fn_kWHPEZs684SrIRYVtk3_LLxRvD9huzfRbJ4jvg486sF4Xf2l6fxqr2FOARX1Tpcn8aGyLp9FHarlOy2KzPKJ7r6h_er40xMAd8Uny39oWlVUt0uGOtWWDpO3pk8F9T-jOyBdII6sWnnc-7mVm69bj14tupti-rQwK0K6eEoYIVo","width":3024}],"place_id":"ChIJT5D63ux1nkcR4HJoTzbLRQ4","plus_code":{"compound_code":"4HWH+V3 Munich","global_code":"8FWH4HWH+V3"},"price_level":2,"rating":4.1,"reference":"ChIJT5D63ux1nkcR4HJoTzbLRQ4","types":["cafe","restaurant","food","store","point_of_interest","establishment"],"user_ratings_total":156},{"business_status":"OPERATIONAL","formatted_address":"Willy-Brandt-Platz 5, 81829 München","geometry":{"location":{"lat":48.13274800000001,"lng":11.6902987},"viewport":{"northeast":{"lat":48.13441992989272,"lng":11.69168502989272},"southwest":{"lat":48.13172027010727,"lng":11.68898537010728}}},"icon":"https://maps.gstatic.com/mapfiles/place_api/icons/v1/png_71/restaurant-71.png","icon_background_color":"#FF9E67","icon_mask_base_uri":"https://maps.gstatic.com/mapfiles/place_api/icons/v2/restaurant_pinlet","name":"Five Guys München Riem Arcaden","opening_hours":{"open_now":false},"photos":[{"height":3024,"html_attributions":["<a href=\"https://maps.google.com/maps/contrib/114547884618642378920\">Franz Breitwieser</a>"],"photo_reference":"AeJbb3eRj9o1ed6nOggAbSqdz0xRcnTBoDQjPVXc943_lxGUz_x1FPJZ4ANsrh6CdomEhYSVWvfMWLigIcGhTYnwvkBYDgKMrFceS5dep0adobv5gBvDeh-EU9GJOeqyWhj4yTWI49QptgGO_SkDHP6uq3iVfiaQmLnRELuE1_CcqvQhVxKd","width":4032}],"place_id":"ChIJOWC4kiMLnkcRygSGCDyoZg4","plus_code":{"compound_code":"4MMR+34 Munich","global_code":"8FWH4MMR+34"},"price_level":2,"rating":4,"reference":"ChIJOWC4kiMLnkcRygSGCDyoZg4","types":["meal_takeaway","restaurant","food","point_of_interest","establishment"],"user_ratings_total":2658},{"business_status":"OPERATIONAL","formatted_address":"Zweibrückenstraße 4, 80331 München","geometry":{"location":{"lat":48.1336322,"lng":11.5828074},"viewport":{"northeast":{"lat":48.13498722989272,"lng":11.58421527989272},"southwest":{"lat":48.13228757010727,"lng":11.58151562010728}}},"icon":"https://maps.gstatic.com/mapfiles/place_api/icons/v1/png_71/restaurant-71.png","icon_background_color":"#FF9E67","icon_mask_base_uri":"https://maps.gstatic.com/mapfiles/place_api/icons/v2/restaurant_pinlet","name":"Pommes Freunde","opening_hours":{"open_now":false},"photos":[{"height":3456,"html_attributions":["<a href=\"https://maps.google.com/maps/contrib/112119200910716857220\">Ahsan Ali</a>"],"photo_reference":"AeJbb3exMvxaioUH4SD5JVcui8FKNlgQmyturZKtnMzgEMk_QB0Rf7NG1NduS4YTikaFSu-J2hZ0-OibcsYfp9Qg_lQINORH1LgZaQw-Y45Qb8ScQvMux_JmukugtzxoADZh26BWavde15bYwTjYCrw5pI7xRhHd6XTyc6d9GTWPG3-gsO-K","width":4608}],"place_id":"ChIJt7ZieWLfnUcRbx5iCA-nWKo","plus_code":{"compound_code":"4HMM+F4 Munich","global_code":"8FWH4HMM+F4"},"price_level":2,"rating":4,"reference":"ChIJt7ZieWLfnUcRbx5iCA-nWKo","types":["restaurant","food","point_of_interest","establishment"],"user_ratings_total":690},{"business_status":"OPERATIONAL","formatted_address":"Ollenhauerstraße 6, 81737 München","geometry":{"location":{"lat":48.1008516,"lng":11.6442331},"viewport":{"northeast":{"lat":48.10239192989273,"lng":11.64675155},"southwest":{"lat":48.09969227010728,"lng":11.64325815}}},"icon":"https://maps.gstatic.com/mapfiles/place_api/icons/v1/png_71/restaurant-71.png","icon_background_color":"#FF9E67","icon_mask_base_uri":"https://maps.gstatic.com/mapfiles/place_api/icons/v2/restaurant_pinlet","name":"Pommes Freunde","opening_hours":{"open_now":false},"photos":[{"height":4032,"html_attributions":["<a href=\"https://maps.google.com/maps/contrib/103510440609716344424\">Cindy Putri</a>"],"photo_reference":"AeJbb3cZs7_iIqzu4BWvVgUFAmGsjw0_UhU9n4rSeLS14iFcizDN68FwB2vIYHMspb9duvM3fAlq10wglylVqypXbM6YDSeJpmJE3QgnQ4W7K-MQqNFfGqJeEFAEWG-PSblKDS8R5VwFHCkGmEYwmFzAfw2bD9Nh5uU-zqAKWvpG67dqfHPd","width":3024}],"place_id":"ChIJAQAAxXbgnUcRQGl9MXIMkaQ","plus_code":{"compound_code":"4J2V+8M Munich","global_code":"8FWH4J2V+8M"},"price_level":2,"rating":4,"reference":"ChIJAQAAxXbgnUcRQGl9MXIMkaQ","types":["restaurant","food","point_of_interest","establishment"],"user_ratings_total":274},{"business_status":"OPERATIONAL","formatted_address":"Pasinger Bahnhofspl. 5, 81241 München","geometry":{"location":{"lat":48.147734,"lng":11.4637101},"viewport":{"northeast":{"lat":48.14911112989272,"lng":11.46472167989272},"southwest":{"lat":48.14641147010727,"lng":11.46202202010728}}},"icon":"https://maps.gstatic.com/mapfiles/place_api/icons/v1/png_71/restaurant-71.png","icon_background_color":"#FF9E67","icon_mask_base_uri":"https://maps.gstatic.com/mapfiles/place_api/icons/v2/restaurant_pinlet","name":"Henry's Deli","opening_hours":{"open_now":false},"photos":[{"height":3024,"html_attributions":["<a href=\"https://maps.google.com/maps/contrib/115389648423447178634\">Alban Fazliu</a>"],"photo_reference":"AeJbb3d5aRoJIq68dpI5MYs8hNKsmMLvXXHQlPXt_3bDEQFwlkHUcLI0i6mr7FIwCQXJ0IckS6SSiSEkSPaBTyY0h-o0f33bhPMd0ycRR-ZbKYu9fX9uzDnwT1CeE9i3mD3OrgeJpOsy5R819gEe4A75uLchmTHlFMZZEMUpgqQqID81O2PA","width":4032}],"place_id":"ChIJh5vX9uJ3nkcRP12sBYarlNo","plus_code":{"compound_code":"4FX7+3F Munich","global_code":"8FWH4FX7+3F"},"rating":4,"reference":"ChIJh5vX9uJ3nkcRP12sBYarlNo","types":["bar","restaurant","food","point_of_interest","establishment"],"user_ratings_total":91},{"business_status":"OPERATIONAL","formatted_address":"Schwanthalerstraße 5, 80336 München","geometry":{"location":{"lat":48.137252,"lng":11.5635158},"viewport":{"northeast":{"lat":48.13867597989272,"lng":11.56486957989272},"southwest":{"lat":48.13597632010728,"lng":11.56216992010728}}},"icon":"https://maps.gstatic.com/mapfiles/place_api/icons/v1/png_71/restaurant-71.png","icon_background_color":"#FF9E67","icon_mask_base_uri":"https://maps.gstatic.com/mapfiles/place_api/icons/v2/restaurant_pinlet","name":"Subway","opening_hours":{"open_now":false},"photos":[{"height":3456,"html_attributions":["<a href=\"https://maps.google.com/maps/contrib/117798412149823825055\">Subway Sandwiches Restaurant Schwanthalerstraße</a>"],"photo_reference":"AeJbb3fjGesmvSUSFw5_nSipzH_gkOJKs923FRSh3CBOKgYvPPC4gpz7aAfeIRHItLLDm3HQBV5oHo6bcIoLo0hhiYZ4LAijxXuN3xmZEyAdC317xcvQjlH7PI4pf30oy7cOZrmWkeldeDqVke6KmGdoDsndVy530rB9PnUB816WiPFQY7Kh","width":5184}],"place_id":"ChIJqwG7v_d1nkcRmBuYTdGkJcA","plus_code":{"compound_code":"4HP7+WC Munich","global_code":"8FWH4HP7+WC"},"price_level":2,"rating":3.9,"reference":"ChIJqwG7v_d1nkcRmBuYTdGkJcA","types":["meal_takeaway","restaurant","food","point_of_interest","establishment"],"user_ratings_total":652},{"business_status":"OPERATIONAL","formatted_address":"Orleanspl. 10, 81667 München","geometry":{"location":{"lat":48.1278246,"lng":11.6045092},"viewport":{"northeast":{"lat":48.12924272989272,"lng":11.60569442989272},"southwest":{"lat":48.12654307010727,"lng":11.60299477010728}}},"icon":"https://maps.gstatic.com/mapfiles/place_api/icons/v1/png_71/restaurant-71.png","icon_background_color":"#FF9E67","icon_mask_base_uri":"https://maps.gstatic.com/mapfiles/place_api/icons/v2/restaurant_pinlet","name":"Subway","opening_hours":{"open_now":false},"photos":[{"height":6936,"html_attributions":["<a href=\"https://maps.google.com/maps/contrib/112984297476623510860\">Sesay Sillah</a>"],"photo_reference":"AeJbb3e1HXh5UreM_nS1Z_QiQI2TLi82ESW02M6nTlR_7SbZniytmjVRlIqxZRqcbFwvnahCynOLssPP8wCKKMTNsCgW3rA2XjbAoBbbJnEvqlmKzhrYN21X9BbZgl6_Pfh9A1Wa6jm2D-fD7n-BJkDKJUyn38-R8LA0dNAON_UyXm2mdYAY","width":9248}],"place_id":"ChIJSyiis4bfnUcRSAxs44RWDws","plus_code":{"compound_code":"4JH3+4R Munich","global_code":"8FWH4JH3+4R"},"price_level":2,"rating":3.9,"reference":"ChIJSyiis4bfnUcRSAxs44RWDws","types":["meal_takeaway","restaurant","food","point_of_interest","establishment"],"user_ratings_total":620},{"business_status":"OPERATIONAL","formatted_address":"Donnersbergerbrücke, 80636 München","geometry":{"location":{"lat":48.1433532,"lng":11.5350638},"viewport":{"northeast":{"lat":48.14470952989272,"lng":11.53631122989272},"southwest":{"lat":48.14200987010728,"lng":11.53361157010728}}},"icon":"https://maps.gstatic.com/mapfiles/place_api/icons/v1/png_71/restaurant-71.png","icon_background_color":"#FF9E67","icon_mask_base_uri":"https://maps.gstatic.com/mapfiles/place_api/icons/v2/restaurant_pinlet","name":"Happy Asia","opening_hours":{"open_now":false},"photos":[{"height":2976,"html_attributions":["<a href=\"https://maps.google.com/maps/contrib/103364212430312678290\">Sarah Kaindl</a>"],"photo_reference":"AeJbb3f7RR25bD4zHy1tSFLS-1SXGBIJ3iXIJKJ-MXZ14u3clicZ6WV3NGHZvNizcjiH6GRZOuhT2VPCMWc-VLsJbOJUwA9vMSFh6_8zo16UcvZlqVmOdcbYapXtpPjb5BHyQyluaShSWwHqG7rhzSB_Nyf9gyIzm7nPMHoH2qbMUmsQSlaC","width":3968}],"place_id":"ChIJteXzUgJ3nkcRbRNFYdRISfo","plus_code":{"compound_code":"4GVP+82 Munich","global_code":"8FWH4GVP+82"},"rating":3.9,"reference":"ChIJteXzUgJ3nkcRbRNFYdRISfo","types":["restaurant","food","point_of_interest","establishment"],"user_ratings_total":14},{"business_status":"OPERATIONAL","formatted_address":"Tal 6, 80331 München","geometry":{"location":{"lat":48.1360963,"lng":11.5781441},"viewport":{"northeast":{"lat":48.13750082989272,"lng":11.57953077989272},"southwest":{"lat":48.13480117010727,"lng":11.57683112010728}}},"icon":"https://maps.gstatic.com/mapfiles/place_api/icons/v1/png_71/restaurant-71.png","icon_background_color":"#FF9E67","icon_mask_base_uri":"https://maps.gstatic.com/mapfiles/place_api/icons/v2/restaurant_pinlet","name":"McDonald's","opening_hours":{"open_now":true},"photos":[{"height":4608,"html_attributions":["<a href=\"https://maps.google.com/maps/contrib/116550697425890762627\">Georg Koller</a>"],"photo_reference":"AeJbb3dNpJnS5ORkVuO_7ZFJZQArtIp2moJRR36wrNHD3p2la-iUhaM1semeFIngU4NupOgVF7cM2rA-JoYvZFdE8KfnIPv7AYbSStaNoN2ZAGAlHSiZYJ1jw9O05mVM363dZESFE9j3OW0BVVEYk2nOJzEYWOowBPqBv7DgnCcYO7EpUSuN","width":3456}],"place_id":"ChIJfXFTWYp1nkcRE_JLWvGyhM4","plus_code":{"compound_code":"4HPH+C7 Munich","global_code":"8FWH4HPH+C7"},"price_level":2,"rating":3.8,"reference":"ChIJfXFTWYp1nkcRE_JLWvGyhM4","types":["restaurant","food","point_of_interest","establishment"],"user_ratings_total":5860},{"business_status":"OPERATIONAL","formatted_address":"Maria-Probst-Straße 1, 80939 München","geometry":{"location":{"lat":48.1922384,"lng":11.5845239},"viewport":{"northeast":{"lat":48.19359452989272,"lng":11.58585612989272},"southwest":{"lat":48.19089487010728,"lng":11.58315647010728}}},"icon":"https://maps.gstatic.com/mapfiles/place_api/icons/v1/png_71/restaurant-71.png","icon_background_color":"#FF9E67","icon_mask_base_uri":"https://maps.gstatic.com/mapfiles/place_api/icons/v2/restaurant_pinlet","name":"McDonald's","opening_hours":{"open_now":true},"photos":[{"height":2268,"html_attributions":["<a href=\"https://maps.google.com/maps/contrib/103719605963737242440\">Hans-Peter Ketterl</a>"],"photo_reference":"AeJbb3fv4qb7TadrCtqBEQ2AUjHCiXhT07kvsPcsVI9m4cObL4kGchGlfNuEn9V2D0fZaznICj-PBC18HDrPno9oAJCJNnNHCbp1dLLIXxP74_2LNVpBHlvs3L75FmviCBxZJOGGLYLXvOQkyA0EwDNa1nLQupSXOV6elA_fFpBTpbPgWDon","width":4032}],"place_id":"ChIJUcJs8OcLnkcRse1PCHZJ1_E","plus_code":{"compound_code":"5HRM+VR Munich","global_code":"8FWH5HRM+VR"},"price_level":2,"rating":3.8,"reference":"ChIJUcJs8OcLnkcRse1PCHZJ1_E","types":["restaurant","food","point_of_interest","establishment"],"user_ratings_total":3021},{"business_status":"OPERATIONAL","formatted_address":"Hanauer Str. 83, 80993 München","geometry":{"location":{"lat":48.1840948,"lng":11.5310641},"viewport":{"northeast":{"lat":48.18538782989272,"lng":11.53248332989272},"southwest":{"lat":48.18268817010728,"lng":11.52978367010728}}},"icon":"https://maps.gstatic.com/mapfiles/place_api/icons/v1/png_71/restaurant-71.png","icon_background_color":"#FF9E67","icon_mask_base_uri":"https://maps.gstatic.com/mapfiles/place_api/icons/v2/restaurant_pinlet","name":"McDonald's","opening_hours":{"open_now":true},"photos":[{"height":2268,"html_attributions":["<a href=\"https://maps.google.com/maps/contrib/114538776684026890174\">Gür Wahram Tim</a>"],"photo_reference":"AeJbb3caRfPG3Mv_2yEuDOwfSkK3qtAoamHFLrh4YL0j5TVWz6wPmVSJkfYZSwqRPB-L2kyGMnjU46_pWQbo8TzkXKh41iGK3ayfxAw18FY7-utwtQa094Pp2XU6it4t-WjID0l1A90EjPB8fEU90Ad9F18tYFFs6byP1YlzvSaMLfnJ4UwJ","width":4032}],"place_id":"ChIJd092EPd2nkcR6jeXmFFeeYI","plus_code":{"compound_code":"5GMJ+JC Munich","global_code":"8FWH5GMJ+JC"},"price_level":2,"rating":3.8,"reference":"ChIJd092EPd2nkcR6jeXmFFeeYI","types":["restaurant","food","point_of_interest","establishment"],"user_ratings_total":2180},{"business_status":"OPERATIONAL","formatted_address":"Arnulfpark, Arnulfstraße 43, 80636 München","geometry":{"location":{"lat":48.1444627,"lng":11.5435243},"viewport":{"northeast":{"lat":48.14588982989272,"lng":11.54486392989272},"southwest":{"lat":48.14319017010727,"lng":11.54216427010728}}},"icon":"https://maps.gstatic.com/mapfiles/place_api/icons/v1/png_71/restaurant-71.png","icon_background_color":"#FF9E67","icon_mask_base_uri":"https://maps.gstatic.com/mapfiles/place_api/icons/v2/restaurant_pinlet","name":"Subway","opening_hours":{"open_now":false},"photos":[{"height":2448,"html_attributions":["<a href=\"https://maps.google.com/maps/contrib/112970378317475441355\">Romulus Colin</a>"],"photo_reference":"AeJbb3eUpWw-pLpzAvJRGvpYBO9jSq41XXhk7MLj9LuXHxByzDOn26asXzEsJA6U3IslWj9c8aGvrqYm6x4rJZPx4dwDNsJz5jByG3RSOaniaYxOgJSFaRnb7LIzBwnQJtSbp_DpRBYyASnPuSkLDWevSGP7EquHbW0TtwMdbcJXsk__kWMg","width":3264}],"place_id":"ChIJW_LcPgR2nkcR1M0BYKo7SVk","plus_code":{"compound_code":"4GVV+QC Munich","global_code":"8FWH4GVV+QC"},"price_level":2,"rating":3.8,"reference":"ChIJW_LcPgR2nkcR1M0BYKo7SVk","types":["meal_takeaway","restaurant","food","point_of_interest","establishment"],"user_ratings_total":534},{"business_status":"OPERATIONAL","formatted_address":"Morassistraße 2, 80469 München","geometry":{"location":{"lat":48.13302299999999,"lng":11.583161},"viewport":{"northeast":{"lat":48.13440537989272,"lng":11.58460497989272},"southwest":{"lat":48.13170572010728,"lng":11.58190532010728}}},"icon":"https://maps.gstatic.com/mapfiles/place_api/icons/v1/png_71/restaurant-71.png","icon_background_color":"#FF9E67","icon_mask_base_uri":"https://maps.gstatic.com/mapfiles/place_api/icons/v2/restaurant_pinlet","name":"Subway","opening_hours":{"open_now":false},"photos":[{"height":3024,"html_attributions":["<a href=\"https://maps.google.com/maps/contrib/101269770045890223333\">101269770045890223333</a>"],"photo_reference":"AeJbb3eNu4jq8zxJlw5ma2hxBd5ehJuTD5dcqZlt_qaBABzeQZX3A4S2GG8q5GmVylo2RHSb_dNXm0srbedt-n4-Yqp-43qHvav8w6tvyK-ZcwqIfl3n-Q5ROqBtrcNwO9t53ayDIXdYChYtOnSon2cOcC7za_LchuI1PBQIOUP8CYOCaq59","width":4032}],"place_id":"ChIJGddMimLfnUcRDKo7CPZxOjM","plus_code":{"compound_code":"4HMM+67 Munich","global_code":"8FWH4HMM+67"},"price_level":2,"rating":3.8,"reference":"ChIJGddMimLfnUcRDKo7CPZxOjM","types":["meal_takeaway","restaurant","food","point_of_interest","establishment"],"user_ratings_total":498},{"business_status":"OPERATIONAL","formatted_address":"Rosenheimer Str. 10, 81669 München","geometry":{"location":{"lat":48.1315166,"lng":11.5890398},"viewport":{"northeast":{"lat":48.13290872989272,"lng":11.59037577989272},"southwest":{"lat":48.13020907010728,"lng":11.58767612010728}}},"icon":"https://maps.gstatic.com/mapfiles/place_api/icons/v1/png_71/restaurant-71.png","icon_background_color":"#FF9E67","icon_mask_base_uri":"https://maps.gstatic.com/mapfiles/place_api/icons/v2/restaurant_pinlet","name":"Sofra","opening_hours":{"open_now":false},"photos":[{"height":3385,"html_attributions":["<a href=\"https://maps.google.com/maps/contrib/101375575289397059384\">Marius Ruf</a>"],"photo_reference":"AeJbb3cY_fSqUvxKZCQjY05rJJBRFSfk-no8d-dctQJkn3tD6x72jND_txoxxU7nfmvWez8B11ahxW1Q3eMi94Rz1igQ1IT92P6J6DgP7PZhLU0edjYt2l3cCb0tKjhbpKwZJGgaarx19ECIODZ1jDPpDRWSYwZ7nMg6CiNT2WTH4q326xJA","width":2944}],"place_id":"ChIJmwIwCH3fnUcRBWh-YpT839M","plus_code":{"compound_code":"4HJQ+JJ Munich","global_code":"8FWH4HJQ+JJ"},"rating":3.8,"reference":"ChIJmwIwCH3fnUcRBWh-YpT839M","types":["restaurant","food","point_of_interest","establishment"],"user_ratings_total":175},{"business_status":"OPERATIONAL","formatted_address":"Senserstraße 20, 81371 München","geometry":{"location":{"lat":48.1226746,"lng":11.5480991},"viewport":{"northeast":{"lat":48.12408242989272,"lng":11.54945302989272},"southwest":{"lat":48.12138277010727,"lng":11.54675337010728}}},"icon":"https://maps.gstatic.com/mapfiles/place_api/icons/v1/png_71/restaurant-71.png","icon_background_color":"#FF9E67","icon_mask_base_uri":"https://maps.gstatic.com/mapfiles/place_api/icons/v2/restaurant_pinlet","name":"Fit Deli","opening_hours":{"open_now":false},"photos":[{"height":3024,"html_attributions":["<a href=\"https://maps.google.com/maps/contrib/100865361197631172905\">A Google User</a>"],"photo_reference":"AeJbb3fuMcQMA8MUCxvTTv1MXKXx8g0_OC88WWWceG78i41ceBJyweGbFp6jWYKo7rRyF_NoYDjeXn8l3pybFsJbuHeIL247BEVJBI2chiMDSNCekyXM1UdZtRSecCt_RGyuzz3BQ-vKQZNfJQt2MX_oHXfp_RNTYnE7GA_MhUZVgKj5nwzK","width":4032}],"place_id":"ChIJc39qAODfnUcRjXxizg1qvRc","plus_code":{"compound_code":"4GFX+36 Munich","global_code":"8FWH4GFX+36"},"rating":3.8,"reference":"ChIJc39qAODfnUcRjXxizg1qvRc","types":["meal_delivery","meal_takeaway","restaurant","food","point_of_interest","establishment"],"user_ratings_total":21},{"business_status":"OPERATIONAL","formatted_address":"Bodenseestraße 319, 81249 München","geometry":{"location":{"lat":48.1410308,"lng":11.4134123},"viewport":{"northeast":{"lat":48.14238707989272,"lng":11.41480717989272},"southwest":{"lat":48.13968742010728,"lng":11.41210752010728}}},"icon":"https://maps.gstatic.com/mapfiles/place_api/icons/v1/png_71/restaurant-71.png","icon_background_color":"#FF9E67","icon_mask_base_uri":"https://maps.gstatic.com/mapfiles/place_api/icons/v2/restaurant_pinlet","name":"Burger King","opening_hours":{"open_now":false},"photos":[{"height":3024,"html_attributions":["<a href=\"https://maps.google.com/maps/contrib/109774504576785724234\">A Google User</a>"],"photo_reference":"AeJbb3daP9dWyg8Ajy8Q3IGNHM7EbGLt-mVo4d32khuFMfVnS3R2o4c_GoHyh95cPfdFVw8XtTH9tLuipOiUjrnVFkv76gyH2k6sypkmUXs2VQ_H04CGiYXnemZTZBUGWuhgH_Td6XJu-w2AF77lJ0e4AYvgNQhr70zV7cq92f44B19WaRl9","width":4032}],"place_id":"ChIJD5t9tNzXnUcRpogmfXCONGI","plus_code":{"compound_code":"4CR7+C8 Munich","global_code":"8FWH4CR7+C8"},"price_level":2,"rating":3.7,"reference":"ChIJD5t9tNzXnUcRpogmfXCONGI","types":["restaurant","food","point_of_interest","establishment"],"user_ratings_total":1595},{"business_status":"OPERATIONAL","formatted_address":"Stachus Passagen UG, Karlspl. 1, 80335 München","geometry":{"location":{"lat":48.1392916,"lng":11.564676},"viewport":{"northeast":{"lat":48.14067447989272,"lng":11.56604547989272},"southwest":{"lat":48.13797482010727,"lng":11.56334582010728}}},"icon":"https://maps.gstatic.com/mapfiles/place_api/icons/v1/png_71/restaurant-71.png","icon_background_color":"#FF9E67","icon_mask_base_uri":"https://maps.gstatic.com/mapfiles/place_api/icons/v2/restaurant_pinlet","name":"Pommes Freunde","opening_hours":{"open_now":false},"photos":[{"height":2340,"html_attributions":["<a href=\"https://maps.google.com/maps/contrib/108852046461780200123\">TAMIM HAIDER</a>"],"photo_reference":"AeJbb3c5_hiasxceMI661sdBGgBciBUq7tz8G0UfMptZts7NcUoKMNZ00jjtH6pWnbjrr02cY4T2UKRs-8x8HUBrAdAqSTDVo4oNFs66i98Ts5bJNBPGDFB98QcsrBSZgQ2Y1588b_ZklkWgaSfJMzZp79bVt5Jl_7BmU-SBlifIxish-MW0","width":4160}],"place_id":"ChIJ_eAR4vZ1nkcRNAntU_Mwybo","plus_code":{"compound_code":"4HQ7+PV Munich","global_code":"8FWH4HQ7+PV"},"price_level":2,"rating":3.7,"reference":"ChIJ_eAR4vZ1nkcRNAntU_Mwybo","types":["restaurant","food","point_of_interest","establishment"],"user_ratings_total":329},{"business_status":"OPERATIONAL","formatted_address":"Karlspl. 10, 80335 München","geometry":{"location":{"lat":48.1389297,"lng":11.5663536},"viewport":{"northeast":{"lat":48.14030282989272,"lng":11.56729977989272},"southwest":{"lat":48.13760317010728,"lng":11.56460012010728}}},"icon":"https://maps.gstatic.com/mapfiles/place_api/icons/v1/png_71/restaurant-71.png","icon_background_color":"#FF9E67","icon_mask_base_uri":"https://maps.gstatic.com/mapfiles/place_api/icons/v2/restaurant_pinlet","name":"McDonald's","opening_hours":{"open_now":true},"photos":[{"height":666,"html_attributions":["<a href=\"https://maps.google.com/maps/contrib/100248975778428004022\">McDonald&#39;s Restaurant</a>"],"photo_reference":"AeJbb3cQ5wTc8W2iTpcBKgPVe8QEXoP6q9cUBeI8SBwTyv4kRplWGWjwBeThcRYjRcQ5GFRsRFB2chVSNtcMnvHPFmO13D5I2JC45JNwjTv_TGXvPF0OI2FNouyqSlsBzwj5JkMtvjzqOUvS84hL2JP9XBRqZfNwr7VXbCMuRXKTr-CXM9A6","width":1000}],"place_id":"ChIJMxRR4fZ1nkcRRuh1AGGTenk","plus_code":{"compound_code":"4HQ8+HG Munich","global_code":"8FWH4HQ8+HG"},"price_level":2,"rating":3.6,"reference":"ChIJMxRR4fZ1nkcRRuh1AGGTenk","types":["restaurant","food","point_of_interest","establishment"],"user_ratings_total":3896},{"business_status":"OPERATIONAL","formatted_address":"Neuhauser Str. 1, 80331 München","geometry":{"location":{"lat":48.13785920000001,"lng":11.5711783},"viewport":{"northeast":{"lat":48.13916972989272,"lng":11.57261592989272},"southwest":{"lat":48.13647007010727,"lng":11.56991627010728}}},"icon":"https://maps.gstatic.com/mapfiles/place_api/icons/v1/png_71/restaurant-71.png","icon_background_color":"#FF9E67","icon_mask_base_uri":"https://maps.gstatic.com/mapfiles/place_api/icons/v2/restaurant_pinlet","name":"Five Guys München Neuhauser Str.","opening_hours":{"open_now":false},"photos":[{"height":3024,"html_attributions":["<a href=\"https://maps.google.com/maps/contrib/110883873123861996919\">Kenny Adam</a>"],"photo_reference":"AeJbb3eogiZDynSojmm3ydPPDsUg_bEbvubkZ1mz2AJy2uPklvJf48Bfc5P6tgHRg763gcV-pQRfRggYXbljveGLU92WmI9iCf2Q_5U7hrjBG8hoxNEb9V_dNEdKyxVogJsfJ135PhCB6EZ618vy0DgXTbXFeNaOmEZZQ4TwT0gTIUz6THbU","width":4032}],"place_id":"ChIJgfa3-wJ1nkcRy8OxkMKO8D0","plus_code":{"compound_code":"4HQC+4F Munich","global_code":"8FWH4HQC+4F"},"price_level":2,"rating":3.6,"reference":"ChIJgfa3-wJ1nkcRy8OxkMKO8D0","types":["meal_takeaway","restaurant","food","point_of_interest","establishment"],"user_ratings_total":1244},{"business_status":"OPERATIONAL","formatted_address":"Bahnhofpl. 2, 80335 München","geometry":{"location":{"lat":48.1405873,"lng":11.5583995},"viewport":{"northeast":{"lat":48.14185112989273,"lng":11.5622914},"southwest":{"lat":48.13915147010728,"lng":11.5571022}}},"icon":"https://maps.gstatic.com/mapfiles/place_api/icons/v1/png_71/restaurant-71.png","icon_background_color":"#FF9E67","icon_mask_base_uri":"https://maps.gstatic.com/mapfiles/place_api/icons/v2/restaurant_pinlet","name":"YORMA'S","opening_hours":{"open_now":false},"photos":[{"height":1536,"html_attributions":["<a href=\"https://maps.google.com/maps/contrib/104525289873759152497\">A Google User</a>"],"photo_reference":"AeJbb3cXTAaKdCapx3GClYR5OF_lRaAQspE7kDEGxf1UX3-SiMhqQBux-pKW4yGQgtEjfxx9vPFwBSTE__uwqupIdbLC8AKTLrG9cpecpnnNxLMXtv8ho0gpFVjD0K2SGrjpfPV-L9Odogcj93vhllUBfcVIVqbx0GYHHnpOx_nsVUCevisB","width":2048}],"place_id":"ChIJO-DhmPl1nkcRVmas8N545fU","plus_code":{"compound_code":"4HR5+69 Munich","global_code":"8FWH4HR5+69"},"price_level":1,"rating":3.6,"reference":"ChIJO-DhmPl1nkcRVmas8N545fU","types":["restaurant","food","point_of_interest","establishment"],"user_ratings_total":242},{"business_status":"OPERATIONAL","formatted_address":"Hanauer Str. 44, 80992 München","geometry":{"location":{"lat":48.1782411,"lng":11.5295657},"viewport":{"northeast":{"lat":48.17976277989272,"lng":11.53094582989272},"southwest":{"lat":48.17706312010728,"lng":11.52824617010728}}},"icon":"https://maps.gstatic.com/mapfiles/place_api/icons/v1/png_71/restaurant-71.png","icon_background_color":"#FF9E67","icon_mask_base_uri":"https://maps.gstatic.com/mapfiles/place_api/icons/v2/restaurant_pinlet","name":"Kentucky Fried Chicken","opening_hours":{"open_now":false},"photos":[{"height":2988,"html_attributions":["<a href=\"https://maps.google.com/maps/contrib/101155451048876912778\">Akiva Wrubel</a>"],"photo_reference":"AeJbb3dC2FJv1UXZFboVCdlU2DM33ahnOXBmhQv_5PIkbXh1Kdcx0HYdoBuwFC4lmFluz6M76uF61GXW7LmM9fzkml6pb-AuN_ezB5x3DsusvPEwBw9AI_BPKkHjfIqtIAKx_6--UKsC70x_BLJx7aRieAXzitQbAWW2WHdn20OGMIXEW66F","width":5312}],"place_id":"ChIJNS_l9Fh2nkcRDnI6M7q6Vus","plus_code":{"compound_code":"5GHH+7R Munich","global_code":"8FWH5GHH+7R"},"price_level":2,"rating":3.5,"reference":"ChIJNS_l9Fh2nkcRDnI6M7q6Vus","types":["restaurant","food","point_of_interest","establishment"],"user_ratings_total":2294},{"business_status":"OPERATIONAL","formatted_address":"Thomas-Dehler-Straße 12, 81737 München","geometry":{"location":{"lat":48.1009055,"lng":11.6448732},"viewport":{"northeast":{"lat":48.10240347989272,"lng":11.64668212989272},"southwest":{"lat":48.09970382010728,"lng":11.64398247010728}}},"icon":"https://maps.gstatic.com/mapfiles/place_api/icons/v1/png_71/restaurant-71.png","icon_background_color":"#FF9E67","icon_mask_base_uri":"https://maps.gstatic.com/mapfiles/place_api/icons/v2/restaurant_pinlet","name":"McDonald's","opening_hours":{"open_now":false},"photos":[{"height":720,"html_attributions":["<a href=\"https://maps.google.com/maps/contrib/113478037580772765306\">Martin Komugovic</a>"],"photo_reference":"AeJbb3fxSCbb6SVUiuZkWXhopHJB_1MB6aV5cwHlUXi0wvltsLivnOPrgoqcFzja9Bjn7k2YfOdxkRBNMTiJwn9lG6u6RTGvfX4m0AVe5oPJ9NH5ocax3oHzjvCKOdon_tHyJflweXOVIhILcIilU15AFsjIFC1aPvLMMyxvprWgCKEr3civ","width":1280}],"place_id":"ChIJh1HVM3HgnUcRX6zHevx0kxs","plus_code":{"compound_code":"4J2V+9W Munich","global_code":"8FWH4J2V+9W"},"price_level":2,"rating":3.5,"reference":"ChIJh1HVM3HgnUcRX6zHevx0kxs","types":["restaurant","food","point_of_interest","establishment"],"user_ratings_total":1843},{"business_status":"OPERATIONAL","formatted_address":"Hohenzollernstraße 152, 80797 München","geometry":{"location":{"lat":48.1611462,"lng":11.5632119},"viewport":{"northeast":{"lat":48.16250327989272,"lng":11.56465572989272},"southwest":{"lat":48.15980362010728,"lng":11.56195607010728}}},"icon":"https://maps.gstatic.com/mapfiles/place_api/icons/v1/png_71/restaurant-71.png","icon_background_color":"#FF9E67","icon_mask_base_uri":"https://maps.gstatic.com/mapfiles/place_api/icons/v2/restaurant_pinlet","name":"McDonald's","opening_hours":{"open_now":false},"photos":[{"height":1080,"html_attributions":["<a href=\"https://maps.google.com/maps/contrib/112213130737088209567\">Christian Haider</a>"],"photo_reference":"AeJbb3ddeql5q6ozZ_t3qd60C0HQHyYpxiB-bjcH9MdosHGCImJWp5FUvm5cfDp_tFdvW3wbBG5P8DsDn0r0WAEjEvc-_WSkj5SKNCeuy6SCmlCzCsNFr5owgae9ZYy0Gp_KpzoAZc8MFyUOGt2qfeLHnSaGNijr4wvV-z1fd0zbKquRe-pJ","width":1920}],"place_id":"ChIJ-bkTNdl1nkcR9QXkretobMQ","plus_code":{"compound_code":"5H67+F7 Munich","global_code":"8FWH5H67+F7"},"price_level":2,"rating":3.5,"reference":"ChIJ-bkTNdl1nkcR9QXkretobMQ","types":["restaurant","food","point_of_interest","establishment"],"user_ratings_total":1040},{"business_status":"OPERATIONAL","formatted_address":"Augustenstraße 53, 80333 München","geometry":{"location":{"lat":48.1491791,"lng":11.5628267},"viewport":{"northeast":{"lat":48.15048902989272,"lng":11.56413337989272},"southwest":{"lat":48.14778937010728,"lng":11.56143372010728}}},"icon":"https://maps.gstatic.com/mapfiles/place_api/icons/v1/png_71/restaurant-71.png","icon_background_color":"#FF9E67","icon_mask_base_uri":"https://maps.gstatic.com/mapfiles/place_api/icons/v2/restaurant_pinlet","name":"McDonald's","opening_hours":{"open_now":false},"photos":[{"height":1888,"html_attributions":["<a href=\"https://maps.google.com/maps/contrib/113976789903607875953\">Haoran Li</a>"],"photo_reference":"AeJbb3dhBrL34TNE6dbx5R-uDosORTwOg42vHHIvwaPIGN0sMafOYVfEsaA4OAZ2IW1KXmf5C-gfY5o26K4ABrP4PZVLHjAjhoCcpyMJwpcBbbOMv0oXLqO55rvmOzbani8vAYICiRPCmoC36GhElcinzlep60cT_a_K16koFOOEK0Xhn-Q","width":4032}],"place_id":"ChIJ4wviTeR1nkcRZz0pYWKDVpY","plus_code":{"compound_code":"4HX7+M4 Munich","global_code":"8FWH4HX7+M4"},"price_level":2,"rating":3.5,"reference":"ChIJ4wviTeR1nkcRZz0pYWKDVpY","types":["restaurant","food","point_of_interest","establishment"],"user_ratings_total":868},{"business_status":"OPERATIONAL","formatted_address":"Hanauer Str. 68, 80993 München","geometry":{"location":{"lat":48.1833592,"lng":11.5352016},"viewport":{"northeast":{"lat":48.18460902989271,"lng":11.53663807989272},"southwest":{"lat":48.18190937010727,"lng":11.53393842010728}}},"icon":"https://maps.gstatic.com/mapfiles/place_api/icons/v1/png_71/restaurant-71.png","icon_background_color":"#FF9E67","icon_mask_base_uri":"https://maps.gstatic.com/mapfiles/place_api/icons/v2/restaurant_pinlet","name":"Pommes Freunde OEZ","opening_hours":{"open_now":false},"photos":[{"height":2158,"html_attributions":["<a href=\"https://maps.google.com/maps/contrib/115102307186632409206\">Torben Mauch</a>"],"photo_reference":"AeJbb3cRY8fdZka-8qQnCNzB7Xg7SnmA4rWg7Dx85JhSlIQIcd01x059td3GBR7_VnLC6sTUVedrESJHu57t6GL9cKfG9XZOhu3vmydpNftaoVl-suE2jvxV3KyQGFZMKbK_UB4Uv3xjbNho1jjcEwVHnzsR9L94CKBJRpQGKLt4lBOVEWmX","width":2951}],"place_id":"ChIJtQIeG_R2nkcRSMwUtp2-SEQ","plus_code":{"compound_code":"5GMP+83 Munich","global_code":"8FWH5GMP+83"},"price_level":2,"rating":3.5,"reference":"ChIJtQIeG_R2nkcRSMwUtp2-SEQ","types":["restaurant","food","point_of_interest","establishment"],"user_ratings_total":584},{"business_status":"OPERATIONAL","formatted_address":"Bayerstraße 7, 80335 München","geometry":{"location":{"lat":48.13912,"lng":11.563229},"viewport":{"northeast":{"lat":48.14057942989272,"lng":11.56617555},"southwest":{"lat":48.13787977010728,"lng":11.56125975}}},"icon":"https://maps.gstatic.com/mapfiles/place_api/icons/v1/png_71/restaurant-71.png","icon_background_color":"#FF9E67","icon_mask_base_uri":"https://maps.gstatic.com/mapfiles/place_api/icons/v2/restaurant_pinlet","name":"Kentucky Fried Chicken","opening_hours":{"open_now":false},"photos":[{"height":2988,"html_attributions":["<a href=\"https://maps.google.com/maps/contrib/102944411218031020224\">Xuân Hiếu Bùi</a>"],"photo_reference":"AeJbb3eEZDrJxv5AYOng6Dz1tkkcRppxKIQCEZ0gVgar0_9i3oKg3ePqDrtuY6r3C3FPqaXfnQBo9Hi4NFJ0QMucy5u49Mv8CE4UPu2GhYV5zf_63Lrw8AD0mDDCKZkqZNft_dZ1RnB_qBvURy7sQ8rUrkLMjiUNPkGBLrr2OkLzmJ6q0u86","width":5312}],"place_id":"ChIJU-1sZfd1nkcRJqNANAsmEEA","plus_code":{"compound_code":"4HQ7+J7 Munich","global_code":"8FWH4HQ7+J7"},"price_level":2,"rating":3.4,"reference":"ChIJU-1sZfd1nkcRJqNANAsmEEA","types":["restaurant","food","point_of_interest","establishment"],"user_ratings_total":3204},{"business_status":"OPERATIONAL","formatted_address":"Eggenfeldener Str. 114, 81929 München","geometry":{"location":{"lat":48.1396738,"lng":11.6457047},"viewport":{"northeast":{"lat":48.14104162989272,"lng":11.64699242989272},"southwest":{"lat":48.13834197010728,"lng":11.64429277010728}}},"icon":"https://maps.gstatic.com/mapfiles/place_api/icons/v1/png_71/restaurant-71.png","icon_background_color":"#FF9E67","icon_mask_base_uri":"https://maps.gstatic.com/mapfiles/place_api/icons/v2/restaurant_pinlet","name":"Burger King München","opening_hours":{"open_now":false},"photos":[{"height":1080,"html_attributions":["<a href=\"https://maps.google.com/maps/contrib/100977477304659045760\">Darius Kroker</a>"],"photo_reference":"AeJbb3f8AJ5jxVS69jWfRnJoPXWdd5DSBxp0UtIIC1RnzT64r-_MF0NxAhnhAtmWDSo3HzivmOpyykDpjDSiDsgvxxUsXURHRoWpQGqS27e9kWQ-0XcWoWBVdLAR4fIB56NgKmQp28IiYzTLcesbzr2-pq1USHNrHE80jj5e0IAjlvcZK98Q","width":1920}],"place_id":"ChIJ37AVV051nkcRjDKnhabrnEQ","plus_code":{"compound_code":"4JQW+V7 Munich","global_code":"8FWH4JQW+V7"},"price_level":2,"rating":3.4,"reference":"ChIJ37AVV051nkcRjDKnhabrnEQ","types":["restaurant","food","point_of_interest","establishment"],"user_ratings_total":2363},{"business_status":"OPERATIONAL","formatted_address":"Feilitzschstraße 13, 80802 München","geometry":{"location":{"lat":48.1615686,"lng":11.5885825},"viewport":{"northeast":{"lat":48.16282842989271,"lng":11.58991532989272},"southwest":{"lat":48.16012877010727,"lng":11.58721567010728}}},"icon":"https://maps.gstatic.com/mapfiles/place_api/icons/v1/png_71/restaurant-71.png","icon_background_color":"#FF9E67","icon_mask_base_uri":"https://maps.gstatic.com/mapfiles/place_api/icons/v2/restaurant_pinlet","name":"McDonald's","opening_hours":{"open_now":false},"photos":[{"height":682,"html_attributions":["<a href=\"https://maps.google.com/maps/contrib/117901479445242739222\">McDonald&#39;s Restaurant</a>"],"photo_reference":"AeJbb3fRvuWVSRPRtTdrEh2I4ig4m0IG8rZUkpX8t9y2_eyM8L-BZh5uJeSbE0Ct9st1iNeU1RmG4s2gSSbdb_oUsRjoghCy-y4ZYXveivgbuJhQF9y9hu0GNli2wgNIHknUyxFvtvXg9JeyZGaRD06L20nmagx64BgUB-MXaMpEgY2zCq6x","width":1000}],"place_id":"ChIJSZ3-rLl1nkcR6VOGLgdlPL0","plus_code":{"compound_code":"5H6Q+JC Munich","global_code":"8FWH5H6Q+JC"},"price_level":2,"rating":3.4,"reference":"ChIJSZ3-rLl1nkcR6VOGLgdlPL0","types":["restaurant","food","point_of_interest","establishment"],"user_ratings_total":1635},{"business_status":"OPERATIONAL","formatted_address":"Landsberger Str. 422, 81241 München","geometry":{"location":{"lat":48.1455332,"lng":11.4770435},"viewport":{"northeast":{"lat":48.14674087989272,"lng":11.47852232989272},"southwest":{"lat":48.14404122010727,"lng":11.47582267010728}}},"icon":"https://maps.gstatic.com/mapfiles/place_api/icons/v1/png_71/restaurant-71.png","icon_background_color":"#FF9E67","icon_mask_base_uri":"https://maps.gstatic.com/mapfiles/place_api/icons/v2/restaurant_pinlet","name":"Burger King","opening_hours":{"open_now":false},"photos":[{"height":1125,"html_attributions":["<a href=\"https://maps.google.com/maps/contrib/111274058141018922635\">Niko A.</a>"],"photo_reference":"AeJbb3efTwBT2T1vrXBO7F18eIVrKuIvYMd-j3RjS3LA-PqidGZhOSur1krRNfn6TQz_jfb7ykYPqdBcJCI-TLeEOqjKk5NssbmdaS8As4X71YzS4y5eNQJOmhmO4McBHwfnNbL7cAPU__tLsNaVz0RxjvgZMJc6jUAwJYRAb1abx-mij_FK","width":2000}],"place_id":"ChIJ1R14b993nkcRmfMH84z5M_k","plus_code":{"compound_code":"4FWG+6R Munich","global_code":"8FWH4FWG+6R"},"price_level":2,"rating":3.4,"reference":"ChIJ1R14b993nkcRmfMH84z5M_k","types":["restaurant","food","point_of_interest","establishment"],"user_ratings_total":876},{"business_status":"OPERATIONAL","formatted_address":"Theresienhöhe 5, 80336 München","geometry":{"location":{"lat":48.1364355,"lng":11.5480347},"viewport":{"northeast":{"lat":48.13779692989272,"lng":11.54911615},"southwest":{"lat":48.13509727010727,"lng":11.54479035}}},"icon":"https://maps.gstatic.com/mapfiles/place_api/icons/v1/png_71/restaurant-71.png","icon_background_color":"#FF9E67","icon_mask_base_uri":"https://maps.gstatic.com/mapfiles/place_api/icons/v2/restaurant_pinlet","name":"Burger King","opening_hours":{"open_now":false},"photos":[{"height":3672,"html_attributions":["<a href=\"https://maps.google.com/maps/contrib/112910301819031218202\">A Google User</a>"],"photo_reference":"AeJbb3crhDPBi5xqY8hWl8vKQlIHpFtGE8yOPGIz01eTSHxtWcYWi6UX-t1ViGSe61lDeFEFQsIaJYxvDmXdKAKEidWFtkWHak_AsKm6gkjcnPLZ-x8lzLFO4JGjkM6YoJFOIGnVsLkxE34cPWyXUWQxPimKCDFnHrlvOIgYoi1Hd7Fexn2Q","width":4896}],"place_id":"ChIJD6HX1mbZnUcRKtV0exvkNSs","plus_code":{"compound_code":"4GPX+H6 Munich","global_code":"8FWH4GPX+H6"},"price_level":2,"rating":3.4,"reference":"ChIJD6HX1mbZnUcRKtV0exvkNSs","types":["restaurant","food","point_of_interest","establishment"],"user_ratings_total":364},{"business_status":"OPERATIONAL","formatted_address":"Goethestraße 74, 80336 München","geometry":{"location":{"lat":48.130329,"lng":11.5580933},"viewport":{"northeast":{"lat":48.13159352989272,"lng":11.55955152989272},"southwest":{"lat":48.12889387010727,"lng":11.55685187010728}}},"icon":"https://maps.gstatic.com/mapfiles/place_api/icons/v1/png_71/restaurant-71.png","icon_background_color":"#FF9E67","icon_mask_base_uri":"https://maps.gstatic.com/mapfiles/place_api/icons/v2/restaurant_pinlet","name":"McDonald's","opening_hours":{"open_now":false},"photos":[{"height":3024,"html_attributions":["<a href=\"https://maps.google.com/maps/contrib/108431155758051148273\">Dinh Lam Tran</a>"],"photo_reference":"AeJbb3e5zhIENBppqE0BWaLMC2-ZKMju3wYtP9bRCSG9pism1QHw3hGr5aeVK4zYQFm8G0bCQ_133J4rEX71Jx0qGvA1pMFW_46gAGse5QpNJ14W2cRqIUHYo81Z7M1GQHRkAKjMd6XaxdMQdKvzGzOKibBjxpt4vxflGwG72lWebRCgNqm9","width":4032}],"place_id":"ChIJORWKmFDfnUcRZEdbRDbVfO4","plus_code":{"compound_code":"4HJ5+46 Munich","global_code":"8FWH4HJ5+46"},"price_level":2,"rating":3.3,"reference":"ChIJORWKmFDfnUcRZEdbRDbVfO4","types":["restaurant","food","point_of_interest","establishment"],"user_ratings_total":1546},{"business_status":"OPERATIONAL","formatted_address":"Frankfurter Ring 243, 80807 München","geometry":{"location":{"lat":48.1868963,"lng":11.6066889},"viewport":{"northeast":{"lat":48.18816667989272,"lng":11.60795687989272},"southwest":{"lat":48.18546702010728,"lng":11.60525722010728}}},"icon":"https://maps.gstatic.com/mapfiles/place_api/icons/v1/png_71/restaurant-71.png","icon_background_color":"#FF9E67","icon_mask_base_uri":"https://maps.gstatic.com/mapfiles/place_api/icons/v2/restaurant_pinlet","name":"McDonald's","opening_hours":{"open_now":false},"photos":[{"height":3968,"html_attributions":["<a href=\"https://maps.google.com/maps/contrib/111482095485238880732\">Qamruddin Mohd</a>"],"photo_reference":"AeJbb3drcIWex7cY_zhD6ZDLikghsqlCKvEWy-W5SFTpIihWi7W8i0FoRGcaebAPvCzeN2B6Z7zkUZ7TrT4-q0qQGF0n1ifzWKLtzrdtQwXN4eFM4dxckt9ukzmR26YUNSbQhgrtLivhY6p_EDQvjaS0b19tzmkUv-c2b8cx7lvxKyIa5XX2","width":2976}],"place_id":"ChIJ_-LCYUN0nkcRQDNwS0dRd6I","plus_code":{"compound_code":"5JP4+QM Munich","global_code":"8FWH5JP4+QM"},"price_level":2,"rating":3.3,"reference":"ChIJ_-LCYUN0nkcRQDNwS0dRd6I","types":["restaurant","food","point_of_interest","establishment"],"user_ratings_total":440},{"business_status":"OPERATIONAL","formatted_address":"Orleanspl. 10, 81667 München","geometry":{"location":{"lat":48.1280695,"lng":11.6046053},"viewport":{"northeast":{"lat":48.12946242989271,"lng":11.60589007989272},"southwest":{"lat":48.12676277010727,"lng":11.60319042010728}}},"icon":"https://maps.gstatic.com/mapfiles/place_api/icons/v1/png_71/restaurant-71.png","icon_background_color":"#FF9E67","icon_mask_base_uri":"https://maps.gstatic.com/mapfiles/place_api/icons/v2/restaurant_pinlet","name":"Burger King","opening_hours":{"open_now":false},"photos":[{"height":2304,"html_attributions":["<a href=\"https://maps.google.com/maps/contrib/103381830108093382974\">A Google User</a>"],"photo_reference":"AeJbb3fzwkPRRl6Lx0SbQhw6VRjoi5VuM8_GnTa08C75I5tTUye2Kb9dxN2lkT_KkjZosXItWDPKiRCzM8SReF2PhI4Uz5m7FvvkPbFMUkKclwntNNVKMQiL3T12ttU9UY-flNWWt5zOeQ7Yrjys0sHaBH1ivJ43YN9hD0i8xij9kEzuoDa7","width":3456}],"place_id":"ChIJPUjfhYbfnUcRZQJPk7Xj8_Y","plus_code":{"compound_code":"4JH3+6R Munich","global_code":"8FWH4JH3+6R"},"price_level":2,"rating":3.2,"reference":"ChIJPUjfhYbfnUcRZQJPk7Xj8_Y","types":["restaurant","food","point_of_interest","establishment"],"user_ratings_total":2000},{"business_status":"OPERATIONAL","formatted_address":"S-Bahnhof, Bahnhofpl. 2, 80335 München","geometry":{"location":{"lat":48.1408321,"lng":11.5595963},"viewport":{"northeast":{"lat":48.14234982989272,"lng":11.56073247989272},"southwest":{"lat":48.13965017010727,"lng":11.55803282010728}}},"icon":"https://maps.gstatic.com/mapfiles/place_api/icons/v1/png_71/restaurant-71.png","icon_background_color":"#FF9E67","icon_mask_base_uri":"https://maps.gstatic.com/mapfiles/place_api/icons/v2/restaurant_pinlet","name":"McDonald's","opening_hours":{"open_now":false},"photos":[{"height":1836,"html_attributions":["<a href=\"https://maps.google.com/maps/contrib/105595901679476289629\">José Gallego Cabello</a>"],"photo_reference":"AeJbb3cMpc4eMvcnmTwGrdYQwdbHYTdP29SG_tTuq0kkmvTUsY__vGzaHuS-sdfgirGXmOWeznztk2QAngmgu28F21fWQEUsRjfNAYF-qe_148T6wvrEFgXAwJljsHrHrZB0GXEc1H2LAEqIqWrHBByMXkFlapGJIx2faXRnZF3V8869ilzX","width":3264}],"place_id":"ChIJSwHJkSZrnkcRqWvnE0PJTd8","plus_code":{"compound_code":"4HR5+8R Munich","global_code":"8FWH4HR5+8R"},"price_level":2,"rating":3.2,"reference":"ChIJSwHJkSZrnkcRqWvnE0PJTd8","types":["restaurant","food","point_of_interest","establishment"],"user_ratings_total":1352},{"business_status":"OPERATIONAL","formatted_address":"Friedenstraße 17A, 81671 München","geometry":{"location":{"lat":48.1269938,"lng":11.6066115},"viewport":{"northeast":{"lat":48.12834597989272,"lng":11.60801132989272},"southwest":{"lat":48.12564632010728,"lng":11.60531167010728}}},"icon":"https://maps.gstatic.com/mapfiles/place_api/icons/v1/png_71/restaurant-71.png","icon_background_color":"#FF9E67","icon_mask_base_uri":"https://maps.gstatic.com/mapfiles/place_api/icons/v2/restaurant_pinlet","name":"Burger King","opening_hours":{"open_now":false},"photos":[{"height":1080,"html_attributions":["<a href=\"https://maps.google.com/maps/contrib/109182155809221309935\">501Learay .</a>"],"photo_reference":"AeJbb3fzHEDBO50EQe4Sm_0qu_aJmjbMFDakqjFrqOoOmuXl_dxeNrcqCquOyYdMMCLBqPJMTe7mYs45M5HKRQ3pq2CfKUVV_oWS8Y3E2CnQbz-5NJsAg5iuU1Mdgc3BfbJ0XmIYjHHXbf8W_bAP8tpVt_YOb1rk8YX3NsEdR3gX0kXOeXB-","width":1920}],"place_id":"ChIJPUjfhYbfnUcRPuZO5Guopk0","plus_code":{"compound_code":"4JG4+QJ Munich","global_code":"8FWH4JG4+QJ"},"price_level":2,"rating":3.2,"reference":"ChIJPUjfhYbfnUcRPuZO5Guopk0","types":["restaurant","food","point_of_interest","establishment"],"user_ratings_total":814},{"business_status":"OPERATIONAL","formatted_address":"Hackerbrücke 4, 80335 München","geometry":{"location":{"lat":48.14218469999999,"lng":11.550605},"viewport":{"northeast":{"lat":48.14370297989271,"lng":11.55207372989272},"southwest":{"lat":48.14100332010727,"lng":11.54937407010728}}},"icon":"https://maps.gstatic.com/mapfiles/place_api/icons/v1/png_71/restaurant-71.png","icon_background_color":"#FF9E67","icon_mask_base_uri":"https://maps.gstatic.com/mapfiles/place_api/icons/v2/restaurant_pinlet","name":"McDonald's","opening_hours":{"open_now":false},"photos":[{"height":672,"html_attributions":["<a href=\"https://maps.google.com/maps/contrib/114499998969719034085\">McDonald&#39;s Restaurant</a>"],"photo_reference":"AeJbb3ete1o0b_kzazoYWGGHSiBexo916350ef0dMODmtoTE-488A12SgzJTG0vVcYqUOBmfe3_BXhxSNGG4zuAJ95xXi4Vk6akSxcIKmbk-viBoZfBHRI0JOHWr5ASyC5pgk0_OzcqHbfEj2OGelIekEZ_5HVep86-iZlST0K_k-_XKILyB","width":1000}],"place_id":"ChIJTapZtQB2nkcR6_euBU8RTGY","plus_code":{"compound_code":"4HR2+V6 Munich","global_code":"8FWH4HR2+V6"},"price_level":2,"rating":3.2,"reference":"ChIJTapZtQB2nkcR6_euBU8RTGY","types":["restaurant","food","point_of_interest","establishment"],"user_ratings_total":747},{"business_status":"OPERATIONAL","formatted_address":"Willy-Brandt-Platz 5, 81829 München","geometry":{"location":{"lat":48.1320816,"lng":11.6914208},"viewport":{"northeast":{"lat":48.13343582989272,"lng":11.69277057989272},"southwest":{"lat":48.13073617010728,"lng":11.69007092010728}}},"icon":"https://maps.gstatic.com/mapfiles/place_api/icons/v1/png_71/restaurant-71.png","icon_background_color":"#FF9E67","icon_mask_base_uri":"https://maps.gstatic.com/mapfiles/place_api/icons/v2/restaurant_pinlet","name":"McDonald's","opening_hours":{"open_now":false},"photos":[{"height":645,"html_attributions":["<a href=\"https://maps.google.com/maps/contrib/116171252074780063341\">McDonald&#39;s Restaurant</a>"],"photo_reference":"AeJbb3dipzXutZAb1Myk4rfCkFCtW2EnQUCL64KkjEbjPHFY_DNPC5-6qWPKtzMB90HYu6J7NnY9YLcBiyjG_vfkej-Gjwbl8TY-ThgzRDoLF8gsMkIl-TwnSsEw4LjNHwNTPZQFUtaZOXaoMAY6DbmGoybPNaU6bSX6HcHOlaOgA9m1ch8L","width":1000}],"place_id":"ChIJ6_4bW4UKnkcRGqdETMgud8U","plus_code":{"compound_code":"4MJR+RH Munich","global_code":"8FWH4MJR+RH"},"price_level":2,"rating":3.2,"reference":"ChIJ6_4bW4UKnkcRGqdETMgud8U","types":["restaurant","food","point_of_interest","establishment"],"user_ratings_total":512},{"business_status":"OPERATIONAL","formatted_address":"Am Olympiapark 1, 80809 München","geometry":{"location":{"lat":48.1782216,"lng":11.5559768},"viewport":{"northeast":{"lat":48.17958267989273,"lng":11.55744582989272},"southwest":{"lat":48.17688302010728,"lng":11.55474617010728}}},"icon":"https://maps.gstatic.com/mapfiles/place_api/icons/v1/png_71/restaurant-71.png","icon_background_color":"#FF9E67","icon_mask_base_uri":"https://maps.gstatic.com/mapfiles/place_api/icons/v2/restaurant_pinlet","name":"Fast Food Caravan","opening_hours":{"open_now":false},"photos":[{"height":3024,"html_attributions":["<a href=\"https://maps.google.com/maps/contrib/100818798086096343091\">Anil</a>"],"photo_reference":"AeJbb3ek7jsiW0JSHJEx9qwV39JhkR9orpgZH-V6DCW8_EkfYUIMUeDhFTT1lSs5c0TU3-uHLxv0-YR_gYmVsZs0Jk1_hMuC2uORTDzlHA5YxyahJSQeAH_W7qfP_x-PgXpaCFgiDEHzmpDpUoPA9mO-HBjKCJOi3qf6UAgp88JOxIZ9aI8s","width":4032}],"place_id":"ChIJeaRgnWN3nkcR7YrIDe9OVps","plus_code":{"compound_code":"5HH4+79 Munich","global_code":"8FWH5HH4+79"},"rating":3,"reference":"ChIJeaRgnWN3nkcR7YrIDe9OVps","types":["restaurant","food","point_of_interest","establishment"],"user_ratings_total":4},{"business_status":"OPERATIONAL","formatted_address":"Sonnenstraße 6, 80331 München","geometry":{"location":{"lat":48.1377712,"lng":11.5643884},"viewport":{"northeast":{"lat":48.13910457989272,"lng":11.56595092989272},"southwest":{"lat":48.13640492010727,"lng":11.56325127010728}}},"icon":"https://maps.gstatic.com/mapfiles/place_api/icons/v1/png_71/restaurant-71.png","icon_background_color":"#FF9E67","icon_mask_base_uri":"https://maps.gstatic.com/mapfiles/place_api/icons/v2/restaurant_pinlet","name":"Burger King Munich","opening_hours":{"open_now":false},"photos":[{"height":2988,"html_attributions":["<a href=\"https://maps.google.com/maps/contrib/108423456024476339879\">Mladen Brkić</a>"],"photo_reference":"AeJbb3f-PeFnM5DpKQZTEnxWgEZk1LLvxFwVp1tWsY9y0wQY2MaKWtWqITerNh4NSB2CrZ52Wccl1_zCcrCiYKEbabWjStNJFVwS5DIdzT8x-qaZoxWNSmtG7scVy0byASL02zL034MxzOFv0_-J07oIlduMIOk0EivJ9P65F7KWgd7hji1r","width":5312}],"place_id":"ChIJiQaMr_d1nkcRhZgP1_GEwAQ","plus_code":{"compound_code":"4HQ7+4Q Munich","global_code":"8FWH4HQ7+4Q"},"price_level":2,"rating":2.9,"reference":"ChIJiQaMr_d1nkcRhZgP1_GEwAQ","types":["restaurant","food","point_of_interest","establishment"],"user_ratings_total":2369},{"business_status":"OPERATIONAL","formatted_address":"Bayerstraße 10A, 80335 München","geometry":{"location":{"lat":48.1396297,"lng":11.5588825},"viewport":{"northeast":{"lat":48.14095577989272,"lng":11.56015317989272},"southwest":{"lat":48.13825612010727,"lng":11.55745352010728}}},"icon":"https://maps.gstatic.com/mapfiles/place_api/icons/v1/png_71/restaurant-71.png","icon_background_color":"#FF9E67","icon_mask_base_uri":"https://maps.gstatic.com/mapfiles/place_api/icons/v2/restaurant_pinlet","name":"Pommes Freunde","opening_hours":{"open_now":false},"photos":[{"height":5120,"html_attributions":["<a href=\"https://maps.google.com/maps/contrib/114399984804042020558\">Anton Schmucker</a>"],"photo_reference":"AeJbb3cl8BqShUabp6cztYT915Td1kRYZB84eJ-NYy4_Ufaftr2H1Va2YmrcqNcQyA5ljSUtRicmNVgnYuH0H690y3Dq7r1zvYVG_2jgMCiHEInDheqXS4_k6C1AZtWX2yP5Sir7jA7lLa0aJdBHTCRCbxKCbek_SkOdQs8TgABJTmmFIM7s","width":3840}],"place_id":"ChIJF-Q-f_l1nkcRxOAOTlkN734","plus_code":{"compound_code":"4HQ5+VH Munich","global_code":"8FWH4HQ5+VH"},"price_level":2,"rating":2.8,"reference":"ChIJF-Q-f_l1nkcRxOAOTlkN734","types":["restaurant","food","point_of_interest","establishment"],"user_ratings_total":213},{"business_status":"OPERATIONAL","formatted_address":"Arnulfstraße 61, 80636 München","geometry":{"location":{"lat":48.145495,"lng":11.536646},"viewport":{"northeast":{"lat":48.14706517989272,"lng":11.53796302989272},"southwest":{"lat":48.14436552010727,"lng":11.53526337010728}}},"icon":"https://maps.gstatic.com/mapfiles/place_api/icons/v1/png_71/restaurant-71.png","icon_background_color":"#FF9E67","icon_mask_base_uri":"https://maps.gstatic.com/mapfiles/place_api/icons/v2/restaurant_pinlet","name":"Meet & Eat","opening_hours":{"open_now":false},"photos":[{"height":1200,"html_attributions":["<a href=\"https://maps.google.com/maps/contrib/116626404257177097689\">СЕРГЕЙ ДРАЧ</a>"],"photo_reference":"AeJbb3dGgNbf5dkTW82WwmXpTppkleRLlCXc5affJTzjWcP7EgepdVxrjABHLfvrRTLs3FtlH5i6txeUYqZudXM2aHZeJ2NzE8I4YAOBS-vMiQ9qfKSGCSEAOh9zaPhzzAovXwCy_yGrafaLBczJBvDl72Ue-9FiRwv8ghTMY5qbdo42tDtZ","width":1600}],"place_id":"ChIJ3cCEYmLfnUcRXCIPN8bEkFU","plus_code":{"compound_code":"4GWP+5M Munich","global_code":"8FWH4GWP+5M"},"rating":1,"reference":"ChIJ3cCEYmLfnUcRXCIPN8bEkFU","types":["restaurant","food","point_of_interest","establishment"],"user_ratings_total":1}]