[{"business_status":"OPERATIONAL","formatted_address":"61b Listerhills Rd, Bradford BD7 1HZ","geometry":{"location":{"lat":53.7942848,"lng":-1.7664935},"viewport":{"northeast":{"lat":53.79568557989273,"lng":-1.765149520107278},"southwest":{"lat":53.79298592010728,"lng":-1.767849179892722}}},"icon":"https://maps.gstatic.com/mapfiles/place_api/icons/v1/png_71/shopping-71.png","icon_background_color":"#4B96F3","icon_mask_base_uri":"https://maps.gstatic.com/mapfiles/place_api/icons/v2/shopping_pinlet","name":"Sweetland Bradford","opening_hours":{"open_now":true},"photos":[{"height":768,"html_attributions":["<a href=\"https://maps.google.com/maps/contrib/118196017192066980576\">A Google User</a>"],"photo_reference":"AeJbb3dx5dvSJikIvUSZ0VtvZqMAkDrRt94MBCnNls6-4sT0iJLYKJEG3hinxuNEMANRSeuUQ5LtF6GnKEifMajP833-qB7Rw_u0v32rEn2L_V-VYv3hj5NHj1-vgw0iGh7YbI8kTn0APVjznpsZMEwEB92HmDEA10Y2c5whkOX_ozfrO-bK","width":1024}],"place_id":"ChIJl5ps6jLne0gRdV83CAddHT8","plus_code":{"compound_code":"Q6VM+PC Bradford","global_code":"9C5WQ6VM+PC"},"rating":5,"reference":"ChIJl5ps6jLne0gRdV83CAddHT8","types":["bakery","restaurant","food","point_of_interest","store","establishment"],"user_ratings_total":44},{"business_status":"OPERATIONAL","formatted_address":"294 Keighley Rd, Frizinghall, Bradford BD9 4LH","geometry":{"location":{"lat":53.8192125,"lng":-1.7737979},"viewport":{"northeast":{"lat":53.82053942989273,"lng":-1.772564520107277},"southwest":{"lat":53.81783977010728,"lng":-1.775264179892722}}},"icon":"https://maps.gstatic.com/mapfiles/place_api/icons/v1/png_71/restaurant-71.png","icon_background_color":"#FF9E67","icon_mask_base_uri":"https://maps.gstatic.com/mapfiles/place_api/icons/v2/restaurant_pinlet","name":"Li Beirut","opening_hours":{"open_now":true},"photos":[{"height":1800,"html_attributions":["<a href=\"https://maps.google.com/maps/contrib/101322303125173287513\">A Google User</a>"],"photo_reference":"AeJbb3dDcu753DFpKHAFwI_eIPevDI1Qu529baS0cB9wIgCuHUSBpYr2WWlHBZc57ZuxYWWywRjbhc0wPrOHk8Dv7d4PBc-sy-xDUNENY8t0GXLa4npoixzYymOMr8ovWePOspYLVQ7jL0jdxtd5ccQxo-lZnuC7cZF3RN6Z537MfcmjtC3O","width":4000}],"place_id":"ChIJxwN_kjTle0gR4zRg45QS1Os","plus_code":{"compound_code":"R69G+MF Bradford","global_code":"9C5WR69G+MF"},"rating":5,"reference":"ChIJxwN_kjTle0gR4zRg45QS1Os","types":["meal_takeaway","restaurant","food","point_of_interest","establishment"],"user_ratings_total":25},{"business_status":"OPERATIONAL","formatted_address":"96 Barnsley Rd, Wakefield WF1 5NP","geometry":{"location":{"lat":53.6675626,"lng":-1.4874437},"viewport":{"northeast":{"lat":53.66891767989273,"lng":-1.485971070107278},"southwest":{"lat":53.66621802010729,"lng":-1.488670729892722}}},"icon":"https://maps.gstatic.com/mapfiles/place_api/icons/v1/png_71/restaurant-71.png","icon_background_color":"#FF9E67","icon_mask_base_uri":"https://maps.gstatic.com/mapfiles/place_api/icons/v2/restaurant_pinlet","name":"Nergz pizza&grill","opening_hours":{"open_now":true},"photos":[{"height":4032,"html_attributions":["<a href=\"https://maps.google.com/maps/contrib/114066464808330772472\">A Google User</a>"],"photo_reference":"AeJbb3esmXOooqPxSjzP12xQrkmbChY0rdiBf_QqiEMl4t1MwAsH_gV-eRX6SJkIKgQlgMtjAh0DuBsxCUHdaq4Npmu3YJUQIH4NPeyupAuEFL767NECbI3qPY63dy5b5OG0v1anYTmgs0ZGuujR3ZAvzl4A3AC2EPT0Slv3kqqNDnXHObSu","width":3024}],"place_id":"ChIJ9SjIR7NneUgRrJyqZ61A8LU","plus_code":{"compound_code":"MG97+22 Wakefield","global_code":"9C5WMG97+22"},"rating":5,"reference":"ChIJ9SjIR7NneUgRrJyqZ61A8LU","types":["restaurant","food","point_of_interest","establishment"],"user_ratings_total":16},{"business_status":"OPERATIONAL","formatted_address":"7a Westgate, Dewsbury WF13 1JF","geometry":{"location":{"lat":53.6912984,"lng":-1.6287371},"viewport":{"northeast":{"lat":53.69270737989272,"lng":-1.627439020107278},"southwest":{"lat":53.69000772010727,"lng":-1.630138679892722}}},"icon":"https://maps.gstatic.com/mapfiles/place_api/icons/v1/png_71/restaurant-71.png","icon_background_color":"#FF9E67","icon_mask_base_uri":"https://maps.gstatic.com/mapfiles/place_api/icons/v2/restaurant_pinlet","name":"MIDDLE EAST FOOD","opening_hours":{"open_now":true},"photos":[{"height":3024,"html_attributions":["<a href=\"https://maps.google.com/maps/contrib/112295223543972654327\">zubair yusuf</a>"],"photo_reference":"AeJbb3erg2cNK-yxuGAHbLrWqxctayX0a5AhXGFeOd7q5PKVrwEcmu8lK6uKwDgZbNLaHEMGM-hdxqUy8JeUqZr6cTcBYDseOIQwXRvbRrpinVuAUAws2uR3qGj0x7nm9jidR-q6dvePy9v9w66bPGXF_KvHcYWRqrQzPVEsK3FsdnDMT7ZA","width":4032}],"place_id":"ChIJ4-2cPmxheUgRK-Ey9HdESRw","plus_code":{"compound_code":"M9RC+GG Dewsbury","global_code":"9C5WM9RC+GG"},"rating":5,"reference":"ChIJ4-2cPmxheUgRK-Ey9HdESRw","types":["restaurant","food","point_of_interest","establishment"],"user_ratings_total":1},{"business_status":"OPERATIONAL","formatted_address":"293-295 Spen Ln, Leeds LS16 5BD","geometry":{"location":{"lat":53.8334494,"lng":-1.6035663},"viewport":{"northeast":{"lat":53.83477577989272,"lng":-1.602189220107278},"southwest":{"lat":53.83207612010728,"lng":-1.604888879892722}}},"icon":"https://maps.gstatic.com/mapfiles/place_api/icons/v1/png_71/restaurant-71.png","icon_background_color":"#FF9E67","icon_mask_base_uri":"https://maps.gstatic.com/mapfiles/place_api/icons/v2/restaurant_pinlet","name":"The Heat","opening_hours":{"open_now":true},"photos":[{"height":1800,"html_attributions":["<a href=\"https://maps.google.com/maps/contrib/113097895400341142099\">Justin Keenan</a>"],"photo_reference":"AeJbb3cWbB6m8wgxS6qp1A5nwS9grAKTqG8rHozjoqiLkQsh7l4mG6iWeuHmFFP11DWfX05sGXcFlkxtGwC1XqS8uzCFsvwrten96JFOKXtSt3jN2QHEYKXrdZywVR4g3zSvqUwtBZSni_U7W1eGXq9WujxPy1-UIlRb0XHVUPFBvIsNEL-c","width":4000}],"place_id":"ChIJ_3a159BZeUgRp3bnTm6qRYg","plus_code":{"compound_code":"R9MW+9H Leeds","global_code":"9C5WR9MW+9H"},"rating":4.9,"reference":"ChIJ_3a159BZeUgRp3bnTm6qRYg","types":["meal_takeaway","restaurant","food","point_of_interest","establishment"],"user_ratings_total":146},{"business_status":"OPERATIONAL","formatted_address":"150 Thornton Rd, Bradford BD1 2JH","geometry":{"location":{"lat":53.7947615,"lng":-1.7635207},"viewport":{"northeast":{"lat":53.79610257989273,"lng":-1.762185070107278},"southwest":{"lat":53.79340292010728,"lng":-1.764884729892722}}},"icon":"https://maps.gstatic.com/mapfiles/place_api/icons/v1/png_71/restaurant-71.png","icon_background_color":"#FF9E67","icon_mask_base_uri":"https://maps.gstatic.com/mapfiles/place_api/icons/v2/restaurant_pinlet","name":"Kunafa Tea","opening_hours":{"open_now":true},"photos":[{"height":3024,"html_attributions":["<a href=\"https://maps.google.com/maps/contrib/112570135654919303472\">Hamzah Ahmed</a>"],"photo_reference":"AeJbb3cNBNSMKD6LzjhYd1e9ZJ5xVfHabo9sDKO0p4PyIfDYthV9C_UJ_PAZ6w8Hp1SKFN3TfTKQE4KKy3t58EZaMuncKsi1Q2v_-ALPKHN6aO3OifBPopUaqIyhQ3zhT_8UeOXoZD24oZ6VOpthLEC6DdPocDMvcpXc89tjfuuZHMFt8nvb","width":4032}],"place_id":"ChIJgxLLclPne0gR3qV6VJNyqOg","plus_code":{"compound_code":"Q6VP+WJ Bradford","global_code":"9C5WQ6VP+WJ"},"rating":4.8,"reference":"ChIJgxLLclPne0gR3qV6VJNyqOg","types":["restaurant","food","point_of_interest","establishment"],"user_ratings_total":760},{"business_status":"OPERATIONAL","formatted_address":"34 Great Horton Rd, Bradford BD7 1AL","geometry":{"location":{"lat":53.79177970000001,"lng":-1.75784},"viewport":{"northeast":{"lat":53.79306902989273,"lng":-1.756576520107278},"southwest":{"lat":53.79036937010729,"lng":-1.759276179892722}}},"icon":"https://maps.gstatic.com/mapfiles/place_api/icons/v1/png_71/restaurant-71.png","icon_background_color":"#FF9E67","icon_mask_base_uri":"https://maps.gstatic.com/mapfiles/place_api/icons/v2/restaurant_pinlet","name":"Aleppo","opening_hours":{"open_now":true},"photos":[{"height":842,"html_attributions":["<a href=\"https://maps.google.com/maps/contrib/109556017883027519703\">A Google User</a>"],"photo_reference":"AeJbb3ddX7yPYlre1yrXv5RRSoW1Y2kJeY_l3u5NOt-KNbVgwvpUil3_TPYilb--wN57dbfCqsXUySwoxRQlh0FgnL7h4OAJ3RnsSPzAB2jvnQIy1H9sk6NxhPqF1UkWDDfJT5E9Jyi5lokbePH9P75ncQIQzCbxxFzAGwpekrj5wDu_ZsIo","width":1496}],"place_id":"ChIJ-XsOVUrhe0gRFSMD5lm5TQE","plus_code":{"compound_code":"Q6RR+PV Bradford","global_code":"9C5WQ6RR+PV"},"rating":4.8,"reference":"ChIJ-XsOVUrhe0gRFSMD5lm5TQE","types":["restaurant","food","point_of_interest","establishment"],"user_ratings_total":471},{"business_status":"OPERATIONAL","formatted_address":"18 Wilton St, Bradford BD5 0AX","geometry":{"location":{"lat":53.7904704,"lng":-1.7587766},"viewport":{"northeast":{"lat":53.79176022989272,"lng":-1.757459220107278},"southwest":{"lat":53.78906057010727,"lng":-1.760158879892722}}},"icon":"https://maps.gstatic.com/mapfiles/place_api/icons/v1/png_71/restaurant-71.png","icon_background_color":"#FF9E67","icon_mask_base_uri":"https://maps.gstatic.com/mapfiles/place_api/icons/v2/restaurant_pinlet","name":"Tadmur","opening_hours":{"open_now":true},"photos":[{"height":4032,"html_attributions":["<a href=\"https://maps.google.com/maps/contrib/101192812630641429762\">Arbab Khan</a>"],"photo_reference":"AeJbb3fxQVGpwA6fW20mJkxCxK56PIpazVLkhwgyj1hahlC8CGIK62jDirE1NqL3FhbiSq47ojY6AsJb21U9aTGKh41-siMtbpbocLoE1Eby8w4h_j19dgC8Ow3CyotbbzRE52dmlYfuYKahAn3MhcYwaKFsd14bIVhxjOyqVqEqwM_p4kgk","width":2268}],"place_id":"ChIJDahDQAnhe0gRINmv-aqTic8","plus_code":{"compound_code":"Q6RR+5F Bradford","global_code":"9C5WQ6RR+5F"},"rating":4.8,"reference":"ChIJDahDQAnhe0gRINmv-aqTic8","types":["restaurant","food","point_of_interest","establishment"],"user_ratings_total":285},{"business_status":"OPERATIONAL","formatted_address":"56 Albion St, Leeds LS1 6AD","geometry":{"location":{"lat":53.7979764,"lng":-1.5449789},"viewport":{"northeast":{"lat":53.79949937989272,"lng":-1.543674220107278},"southwest":{"lat":53.79679972010728,"lng":-1.546373879892722}}},"icon":"https://maps.gstatic.com/mapfiles/place_api/icons/v1/png_71/restaurant-71.png","icon_background_color":"#FF9E67","icon_mask_base_uri":"https://maps.gstatic.com/mapfiles/place_api/icons/v2/restaurant_pinlet","name":"Akkawi","opening_hours":{"open_now":true},"photos":[{"height":3902,"html_attributions":["<a href=\"https://maps.google.com/maps/contrib/102724461929082283255\">Alberto Guedes</a>"],"photo_reference":"AeJbb3e8viHAKbVmdGv7iIsY7cfkAJiLiU6BskxL6-ODm1s_bx6NlAwiNTP-Mt_41q4N1E3EoUbF0QoZhadut0f4k7wJ9Q2HG5zKEoh0OzN2l1YSCh6LlPIMda0bCMSr_SF22X7ndN7VMZvVhe9fRaIxGJpJozclq4XxzKEb_LvDEvy9hnTc","width":3121}],"place_id":"ChIJm4dLBxxceUgRSKMFbuFRUsc","plus_code":{"compound_code":"QFX4+52 Leeds","global_code":"9C5WQFX4+52"},"rating":4.8,"reference":"ChIJm4dLBxxceUgRSKMFbuFRUsc","types":["meal_takeaway","restaurant","food","point_of_interest","establishment"],"user_ratings_total":54},{"business_status":"OPERATIONAL","formatted_address":"4 Rodley Ln, Rodley, Leeds LS13 1HU","geometry":{"location":{"lat":53.8232195,"lng":-1.6634746},"viewport":{"northeast":{"lat":53.82450667989272,"lng":-1.662093520107278},"southwest":{"lat":53.82180702010727,"lng":-1.664793179892722}}},"icon":"https://maps.gstatic.com/mapfiles/place_api/icons/v1/png_71/restaurant-71.png","icon_background_color":"#FF9E67","icon_mask_base_uri":"https://maps.gstatic.com/mapfiles/place_api/icons/v2/restaurant_pinlet","name":"Ephesus Restaurant","opening_hours":{"open_now":true},"photos":[{"height":3024,"html_attributions":["<a href=\"https://maps.google.com/maps/contrib/109432009101804983489\">David Dobby</a>"],"photo_reference":"AeJbb3eXQ2L_mA9L-_pobn5eunAC9hSdMk1a6gXDSYX4aBNv1SVFaUFS6qKkRfzTMVTW0RZZxaEL9CjSyamBAQxdQmMgA61C9_fv9D47KJ_npSn73H4iJy67VBzoUTX93jTmBjXoU76QDw0F8Q8u8UTSGRXdNVVC1DLP67vyGVJLmDWoU1Ot","width":4032}],"place_id":"ChIJub5uoAjie0gRVIKY1hJ5fME","plus_code":{"compound_code":"R8FP+7J Leeds","global_code":"9C5WR8FP+7J"},"price_level":2,"rating":4.7,"reference":"ChIJub5uoAjie0gRVIKY1hJ5fME","types":["restaurant","food","point_of_interest","establishment"],"user_ratings_total":737},{"business_status":"OPERATIONAL","formatted_address":"28 Queen St, Morley, Leeds LS27 9BR","geometry":{"location":{"lat":53.7466142,"lng":-1.602265},"viewport":{"northeast":{"lat":53.74799857989272,"lng":-1.600909970107278},"southwest":{"lat":53.74529892010727,"lng":-1.603609629892722}}},"icon":"https://maps.gstatic.com/mapfiles/place_api/icons/v1/png_71/restaurant-71.png","icon_background_color":"#FF9E67","icon_mask_base_uri":"https://maps.gstatic.com/mapfiles/place_api/icons/v2/restaurant_pinlet","name":"Lime Tree Bistro","opening_hours":{"open_now":true},"photos":[{"height":1860,"html_attributions":["<a href=\"https://maps.google.com/maps/contrib/113736796581318934950\">Ian Sharpe</a>"],"photo_reference":"AeJbb3ew4cKZXcbCcDTHjzkx-aGT4CzvM1ZBtzJmTNnV2_f1dgQlfZifDNAzRroiHIS6c8RiXk5tn8wXKfM3Znb3cKNFuG10FJlWt6L-HXnQPP4BHTlVofarhHilwwUsyW6-07edgofbKf_ANL0WguVBwn23pr1RSbxOCcD_qBIl3nmdtTm1","width":4032}],"place_id":"ChIJX6sWv8pfeUgRWDFhyvfBBcg","plus_code":{"compound_code":"P9WX+J3 Leeds","global_code":"9C5WP9WX+J3"},"price_level":2,"rating":4.7,"reference":"ChIJX6sWv8pfeUgRWDFhyvfBBcg","types":["meal_takeaway","bar","restaurant","food","point_of_interest","establishment"],"user_ratings_total":512},{"business_status":"OPERATIONAL","formatted_address":"180 Woodhouse Ln., Woodhouse, Leeds LS2 9HB","geometry":{"location":{"lat":53.8085724,"lng":-1.5521307},"viewport":{"northeast":{"lat":53.80988392989272,"lng":-1.550903170107278},"southwest":{"lat":53.80718427010728,"lng":-1.553602829892722}}},"icon":"https://maps.gstatic.com/mapfiles/place_api/icons/v1/png_71/restaurant-71.png","icon_background_color":"#FF9E67","icon_mask_base_uri":"https://maps.gstatic.com/mapfiles/place_api/icons/v2/restaurant_pinlet","name":"Lebanese Bites","opening_hours":{"open_now":true},"photos":[{"height":3369,"html_attributions":["<a href=\"https://maps.google.com/maps/contrib/114828165011427938400\">A Google User</a>"],"photo_reference":"AeJbb3eUCHzGcK23ceV1cXOze0IBCalfxEJoFD_OA8Gc9LmeceFcySEQH4_q1XE-7flryUc-tXvms81h-Umzx4UcSHCe8mS1O2bBpU10EIrNEOL5gSnYsmCWYeu6fV-NBHEn4qQ7mEPilSpMyboyQne1nKANXM4sbBFvSy4SQjJgunPhUGrT","width":3024}],"place_id":"ChIJ6XQUNE1feUgRX2xojFbkx3g","plus_code":{"compound_code":"RC5X+C4 Leeds","global_code":"9C5WRC5X+C4"},"rating":4.7,"reference":"ChIJ6XQUNE1feUgRX2xojFbkx3g","types":["restaurant","food","point_of_interest","establishment"],"user_ratings_total":319},{"business_status":"OPERATIONAL","formatted_address":"5 Crown St, Leeds LS2 7DA","geometry":{"location":{"lat":53.7961458,"lng":-1.5398539},"viewport":{"northeast":{"lat":53.79746487989272,"lng":-1.538473470107278},"southwest":{"lat":53.79476522010728,"lng":-1.541173129892722}}},"icon":"https://maps.gstatic.com/mapfiles/place_api/icons/v1/png_71/cafe-71.png","icon_background_color":"#FF9E67","icon_mask_base_uri":"https://maps.gstatic.com/mapfiles/place_api/icons/v2/cafe_pinlet","name":"Kada's","opening_hours":{"open_now":true},"photos":[{"height":2988,"html_attributions":["<a href=\"https://maps.google.com/maps/contrib/105570424083095273126\">rytis lacias</a>"],"photo_reference":"AeJbb3e9yO6WWWHkSNrpaT0e70IRDGRqKCtazGy2dcmgtszmjJ4jDpoMXEQaWmSNlMIFOhyYXJUJ3GG-_w2XK5EIn1pE44O02BqpSsTGxe3ReU9JGNUbIqz7oDtwLmNocU20F4iYcvDtBtr4tB5xLsPWfogL7miqTpc7FG_utsx7z-YCuIT3","width":5312}],"place_id":"ChIJGRKJsBlceUgR6MC7YPV1_T0","plus_code":{"compound_code":"QFW6+F3 Leeds","global_code":"9C5WQFW6+F3"},"price_level":1,"rating":4.7,"reference":"ChIJGRKJsBlceUgR6MC7YPV1_T0","types":["cafe","restaurant","food","point_of_interest","establishment"],"user_ratings_total":279},{"business_status":"OPERATIONAL","formatted_address":"283 Roundhay Rd, Harehills, Leeds LS8 4HS","geometry":{"location":{"lat":53.8176617,"lng":-1.5165176},"viewport":{"northeast":{"lat":53.81896667989272,"lng":-1.515025220107278},"southwest":{"lat":53.81626702010728,"lng":-1.517724879892722}}},"icon":"https://maps.gstatic.com/mapfiles/place_api/icons/v1/png_71/restaurant-71.png","icon_background_color":"#FF9E67","icon_mask_base_uri":"https://maps.gstatic.com/mapfiles/place_api/icons/v2/restaurant_pinlet","name":"Darvish Restaurant","opening_hours":{"open_now":true},"photos":[{"height":3012,"html_attributions":["<a href=\"https://maps.google.com/maps/contrib/106530026540081488554\">A Google User</a>"],"photo_reference":"AeJbb3fTiz8G2_F90z3zHUHUS9zFOltbJuafsmSLH0jvBpn-nE3ASLj4Pv4LB7w1MHFtb-lUgglY617bDHS--n3w-PVsYDh57trC4dPZWmnnTPRJjJcYg-OYasYrdd77w5LgxJjpOvc-DAkQYKHJsGDOwEVGDVemZ_PpiouogSKjXl43XXiP","width":4519}],"place_id":"ChIJXXiACIlbeUgR2GOOqbtCcQQ","plus_code":{"compound_code":"RF9M+39 Leeds","global_code":"9C5WRF9M+39"},"rating":4.7,"reference":"ChIJXXiACIlbeUgR2GOOqbtCcQQ","types":["cafe","restaurant","food","point_of_interest","establishment"],"user_ratings_total":219},{"business_status":"OPERATIONAL","formatted_address":"1312 Leeds Rd, Bradford BD3 8LF","geometry":{"location":{"lat":53.79502309999999,"lng":-1.7142214},"viewport":{"northeast":{"lat":53.79614742989272,"lng":-1.713313070107278},"southwest":{"lat":53.79344777010728,"lng":-1.716012729892722}}},"icon":"https://maps.gstatic.com/mapfiles/place_api/icons/v1/png_71/restaurant-71.png","icon_background_color":"#FF9E67","icon_mask_base_uri":"https://maps.gstatic.com/mapfiles/place_api/icons/v2/restaurant_pinlet","name":"Bab Tooma Grande","opening_hours":{"open_now":true},"photos":[{"height":3036,"html_attributions":["<a href=\"https://maps.google.com/maps/contrib/101066991171618550870\">Tarek Haloubi</a>"],"photo_reference":"AeJbb3c502xTM5LtyOHNMNDl2nc0CLKWL_2ngoAWUZWvqYcyxWS8k9Btk-vPJtUjuNHsDxeKvJwhJT1PFMhN8Bxg5DbnuI4YGUYOQxo2dzaKoR03REeOsrKTB0p4y1GJQ2UWgAnzLuEIi3jHZMEmJ1le5AoSbdvWdS7Z6LFVDifb_ZIAIE8U","width":4048}],"place_id":"ChIJT6sULhzhe0gRl1O22Txc6bY","plus_code":{"compound_code":"Q7WP+28 Bradford","global_code":"9C5WQ7WP+28"},"rating":4.6,"reference":"ChIJT6sULhzhe0gRl1O22Txc6bY","types":["restaurant","food","point_of_interest","establishment"],"user_ratings_total":2235},{"business_status":"OPERATIONAL","formatted_address":"142 Cardigan Rd, Burley, Leeds LS6 1LU","geometry":{"location":{"lat":53.8113585,"lng":-1.5758617},"viewport":{"northeast":{"lat":53.81273982989273,"lng":-1.574521020107278},"southwest":{"lat":53.81004017010729,"lng":-1.577220679892722}}},"icon":"https://maps.gstatic.com/mapfiles/place_api/icons/v1/png_71/restaurant-71.png","icon_background_color":"#FF9E67","icon_mask_base_uri":"https://maps.gstatic.com/mapfiles/place_api/icons/v2/restaurant_pinlet","name":"Mogador Restaurant","opening_hours":{"open_now":true},"photos":[{"height":3036,"html_attributions":["<a href=\"https://maps.google.com/maps/contrib/110724783090349441807\">Aissa Marfoua</a>"],"photo_reference":"AeJbb3dg5vhz7uMz5agR62_hF9SZvVagHZYPcCygWpk2EIcQRwejAmrcQEaejVhdhQyixkJFtRJSpSWvnrcTIi8vmK79yR1UIfsmukqnhX2G_Q_AbE3oYwsSe0-oXuff0iua2hwEd0tN0RZuw1iU612-Cfjrcdin-kD9yjVZTZHeGngCp4HM","width":4048}],"place_id":"ChIJo4QuBbVeeUgRqOrEUTISCWY","plus_code":{"compound_code":"RC6F+GM Leeds","global_code":"9C5WRC6F+GM"},"price_level":1,"rating":4.6,"reference":"ChIJo4QuBbVeeUgRqOrEUTISCWY","types":["restaurant","food","point_of_interest","establishment"],"user_ratings_total":242},{"business_status":"OPERATIONAL","formatted_address":"613 Roundhay Rd, Roundhay, Leeds LS8 4AR","geometry":{"location":{"lat":53.8249822,"lng":-1.5080775},"viewport":{"northeast":{"lat":53.82631307989272,"lng":-1.506550770107278},"southwest":{"lat":53.82361342010728,"lng":-1.509250429892722}}},"icon":"https://maps.gstatic.com/mapfiles/place_api/icons/v1/png_71/restaurant-71.png","icon_background_color":"#FF9E67","icon_mask_base_uri":"https://maps.gstatic.com/mapfiles/place_api/icons/v2/restaurant_pinlet","name":"Persian Restaurant , Soosi Mediterranean Grilled","opening_hours":{"open_now":true},"photos":[{"height":3262,"html_attributions":["<a href=\"https://maps.google.com/maps/contrib/101167025388309740475\">Selections</a>"],"photo_reference":"AeJbb3dxS9QsMW7hcNDegXLWzhzXflSB0cUknnglrMa--9HG1N5tCECZ4Ikgp1sc-BpvRpX9tGjwgmWJhP4DMPyQ09Y1GC2VtTxSIz_2zsz0EGp_NBgPK4EIoUF31GKWQateSOVTuAshaIH5jwBfIVrGq9lneWXp5QwMgMUHFeLLgVgOnOLJ","width":4926}],"place_id":"ChIJ5RqtrYRbeUgR8IzHN4ZxL3w","plus_code":{"compound_code":"RFFR+XQ Leeds","global_code":"9C5WRFFR+XQ"},"price_level":2,"rating":4.6,"reference":"ChIJ5RqtrYRbeUgR8IzHN4ZxL3w","types":["restaurant","food","point_of_interest","establishment"],"user_ratings_total":239},{"business_status":"OPERATIONAL","formatted_address":"227 Roundhay Rd, Harehills, Leeds LS8 4HS","geometry":{"location":{"lat":53.8163822,"lng":-1.518043},"viewport":{"northeast":{"lat":53.81766367989272,"lng":-1.516528970107278},"southwest":{"lat":53.81496402010728,"lng":-1.519228629892722}}},"icon":"https://maps.gstatic.com/mapfiles/place_api/icons/v1/png_71/restaurant-71.png","icon_background_color":"#FF9E67","icon_mask_base_uri":"https://maps.gstatic.com/mapfiles/place_api/icons/v2/restaurant_pinlet","name":"Mazar Restaurant","opening_hours":{"open_now":true},"photos":[{"height":3024,"html_attributions":["<a href=\"https://maps.google.com/maps/contrib/101269834333156223346\">A Google User</a>"],"photo_reference":"AeJbb3fF4Z9j7tX4URPPSxf0Zg_BlS-YuSrC0n4ssxOg29pHboWByREslwWZFjLGc33E0FueLLc5yAvVoIq_-61-2kX86ZPR-8WNLgv8pWMlWrQ8E6z2AlpcHwavUiX_OybLKeQgKycjYkxmsFuGgq36lmOvv1QV1dlyhKZsH9h5OD4A_vOK","width":4032}],"place_id":"ChIJATW9qXVbeUgRETqRxEW-YBw","plus_code":{"compound_code":"RF8J+HQ Leeds","global_code":"9C5WRF8J+HQ"},"rating":4.6,"reference":"ChIJATW9qXVbeUgRETqRxEW-YBw","types":["meal_delivery","restaurant","food","point_of_interest","establishment"],"user_ratings_total":65},{"business_status":"OPERATIONAL","formatted_address":"13 Cherry Row, Leeds LS9 7LY","geometry":{"location":{"lat":53.8039202,"lng":-1.5291233},"viewport":{"northeast":{"lat":53.80514917989272,"lng":-1.527745970107278},"southwest":{"lat":53.80244952010727,"lng":-1.530445629892722}}},"icon":"https://maps.gstatic.com/mapfiles/place_api/icons/v1/png_71/restaurant-71.png","icon_background_color":"#FF9E67","icon_mask_base_uri":"https://maps.gstatic.com/mapfiles/place_api/icons/v2/restaurant_pinlet","name":"Medina restaurant (ڕێستورانتی مەدینە)","opening_hours":{"open_now":true},"photos":[{"height":3024,"html_attributions":["<a href=\"https://maps.google.com/maps/contrib/107126670170873838069\">Soran Suleiman</a>"],"photo_reference":"AeJbb3fLr_SWsJHmiF_4mXl-isdM4DVX4wbVOufTz_FcwLu3U_ymaj2FXHcaEwhWdosUn5si1o0WFPdBLv769zFMv1KMhZL0SbMn7ig4bVZtFobuSw1L95kC5db9c-oS-oPXx2hQDEbrgfW7nvmkFFNLSV2Scpdf7STCJSDTSCrAqMizuyNs","width":4032}],"place_id":"ChIJ454t5jZdeUgRwGvFyKngeh0","plus_code":{"compound_code":"RF3C+H9 Leeds","global_code":"9C5WRF3C+H9"},"rating":4.6,"reference":"ChIJ454t5jZdeUgRwGvFyKngeh0","types":["restaurant","food","point_of_interest","establishment"],"user_ratings_total":9},{"business_status":"OPERATIONAL","formatted_address":"60-62 Burley Rd, Woodhouse, Leeds LS3 1JX","geometry":{"location":{"lat":53.8028138,"lng":-1.5659829},"viewport":{"northeast":{"lat":53.80411722989272,"lng":-1.564629970107278},"southwest":{"lat":53.80141757010728,"lng":-1.567329629892722}}},"icon":"https://maps.gstatic.com/mapfiles/place_api/icons/v1/png_71/restaurant-71.png","icon_background_color":"#FF9E67","icon_mask_base_uri":"https://maps.gstatic.com/mapfiles/place_api/icons/v2/restaurant_pinlet","name":"Haftsin","opening_hours":{"open_now":true},"photos":[{"height":3024,"html_attributions":["<a href=\"https://maps.google.com/maps/contrib/105570555880758599188\">Mansour Javanmardi</a>"],"photo_reference":"AeJbb3dVYe2w1Nc0uCMygUQfdn_UWGSWwx7GNz-dv5HXq5id5I6Kw0YVdJqhqWBS3aH5Ua5Wv0JObHw_VypSwxJBesXFAq6IXpu0EAq4ciAO7RWI75n9ncVfL8FhX_RN1xnwLwZvx0jOpkeYrbBYtPusBpB-tEncxrLzW-vbmmCz72r2E9at","width":4032}],"place_id":"ChIJXzFbgKheeUgR69rb0pQbRUg","plus_code":{"compound_code":"RC3M+4J Leeds","global_code":"9C5WRC3M+4J"},"price_level":2,"rating":4.5,"reference":"ChIJXzFbgKheeUgR69rb0pQbRUg","types":["meal_takeaway","restaurant","food","point_of_interest","establishment"],"user_ratings_total":938},{"business_status":"OPERATIONAL","formatted_address":"22 Harrogate Rd, Rawdon, Leeds LS19 6HJ","geometry":{"location":{"lat":53.853917,"lng":-1.6844375},"viewport":{"northeast":{"lat":53.85527612989272,"lng":-1.683204970107278},"southwest":{"lat":53.85257647010728,"lng":-1.685904629892722}}},"icon":"https://maps.gstatic.com/mapfiles/place_api/icons/v1/png_71/restaurant-71.png","icon_background_color":"#FF9E67","icon_mask_base_uri":"https://maps.gstatic.com/mapfiles/place_api/icons/v2/restaurant_pinlet","name":"The Turkuaz Restaurant","opening_hours":{"open_now":true},"photos":[{"height":3024,"html_attributions":["<a href=\"https://maps.google.com/maps/contrib/105960642976282140578\">A Google User</a>"],"photo_reference":"AeJbb3eFLAmcjvth4rHLyveMold4Mke-EluzXdUGbHR1OmW0dYceD6p5Sr-qHsZlp7h8CcWex4ICPY3igZqWGA2rz2A7q4uGikKO1Z85ouFXn2FFk7HxaQXTBWsXETeexyIQtu3zytipWtfFbOrfQGrwCu0eddXvFLRBLqNLwRDYGKMRlOk","width":4032}],"place_id":"ChIJdziZI4JQeUgRrERj4TWmrcc","plus_code":{"compound_code":"V838+H6 Leeds","global_code":"9C5WV838+H6"},"price_level":2,"rating":4.5,"reference":"ChIJdziZI4JQeUgRrERj4TWmrcc","types":["bar","restaurant","food","point_of_interest","establishment"],"user_ratings_total":493},{"business_status":"OPERATIONAL","formatted_address":"139 Street Ln, Roundhay, Leeds LS8 1AA","geometry":{"location":{"lat":53.8445902,"lng":-1.5172248},"viewport":{"northeast":{"lat":53.84597762989272,"lng":-1.515855970107278},"southwest":{"lat":53.84327797010728,"lng":-1.518555629892722}}},"icon":"https://maps.gstatic.com/mapfiles/place_api/icons/v1/png_71/restaurant-71.png","icon_background_color":"#FF9E67","icon_mask_base_uri":"https://maps.gstatic.com/mapfiles/place_api/icons/v2/restaurant_pinlet","name":"The Olive Branch","opening_hours":{"open_now":true},"photos":[{"height":4016,"html_attributions":["<a href=\"https://maps.google.com/maps/contrib/107913600006037976383\">Bevan Cockerill</a>"],"photo_reference":"AeJbb3ci7vOAQLlQFZMmDJlRrSlg4qypsBt1D2QawN3ZLmiqrau4kifmdRAcFwTxrD-9rM7tFEHsjXneAK5ZqbNaMBYYqSqJ9lBnpwaHrut1l7elaCpLqcTZfmlkCWILp0xRLpU0SOLDQcdKZKzPxI_ns0lH47ZfsfCL6vbMjtOLCVKF8Uwe","width":6016}],"place_id":"ChIJbWsu5bpbeUgRlOf39XRzg8Q","plus_code":{"compound_code":"RFVM+R4 Leeds","global_code":"9C5WRFVM+R4"},"price_level":2,"rating":4.5,"reference":"ChIJbWsu5bpbeUgRlOf39XRzg8Q","types":["restaurant","food","point_of_interest","establishment"],"user_ratings_total":403},{"business_status":"OPERATIONAL","formatted_address":"12 Market Pl, Otley LS21 3AQ","geometry":{"location":{"lat":53.9057802,"lng":-1.6940045},"viewport":{"northeast":{"lat":53.90709932989272,"lng":-1.692647620107278},"southwest":{"lat":53.90439967010727,"lng":-1.695347279892722}}},"icon":"https://maps.gstatic.com/mapfiles/place_api/icons/v1/png_71/restaurant-71.png","icon_background_color":"#FF9E67","icon_mask_base_uri":"https://maps.gstatic.com/mapfiles/place_api/icons/v2/restaurant_pinlet","name":"M'deena Restaurant","opening_hours":{"open_now":true},"photos":[{"height":3024,"html_attributions":["<a href=\"https://maps.google.com/maps/contrib/111248601858630690922\">Simon Reed</a>"],"photo_reference":"AeJbb3cpmZlYSGXsCBazey2GXnQh-ESnArw8PH2_Z4XzKQdK_IA7MHDpNG7Q83rk_RSseB7uEJo-xI6Lnz1pBsqDQIXaFZyvxRuIAwPCY03gEo5eT7c0X--C7RmF8m0mLmF_SaIz7gPy1L9koFhZZl7eL1hpQs78nR0WCn3aZK17olO9TYYJ","width":4032}],"place_id":"ChIJ_8R46zb9e0gRXNiL40s9jj4","plus_code":{"compound_code":"W844+89 Otley","global_code":"9C5WW844+89"},"price_level":2,"rating":4.5,"reference":"ChIJ_8R46zb9e0gRXNiL40s9jj4","types":["meal_delivery","meal_takeaway","restaurant","food","point_of_interest","establishment"],"user_ratings_total":153},{"business_status":"OPERATIONAL","formatted_address":"77 Raglan Rd, Woodhouse, Leeds LS2 9DZ","geometry":{"location":{"lat":53.8107283,"lng":-1.555982},"viewport":{"northeast":{"lat":53.81207147989273,"lng":-1.554700270107278},"southwest":{"lat":53.80937182010728,"lng":-1.557399929892722}}},"icon":"https://maps.gstatic.com/mapfiles/place_api/icons/v1/png_71/restaurant-71.png","icon_background_color":"#FF9E67","icon_mask_base_uri":"https://maps.gstatic.com/mapfiles/place_api/icons/v2/restaurant_pinlet","name":"Al Arzeh Shawarma","opening_hours":{"open_now":true},"photos":[{"height":1080,"html_attributions":["<a href=\"https://maps.google.com/maps/contrib/108070189772631604108\">Zayn Umar</a>"],"photo_reference":"AeJbb3fO_UU3JZaKaFRyEm1IJdr2mM6IzBRyiwRwkJMxvy-c2TAPWWM_LQgtlk8yNR-D5f6MI1I9wJDJ0IrfQ3UPdMlN3HeRvGlLk5sx39oxGM99m7GVTf6FE_zh0SSI6ust750bnRKRqUOA9w6a5FDXW8BR-PXlXVInc44HeeYlZn3t5o1i","width":1920}],"place_id":"ChIJr-5sqateeUgRnfP228RdIIo","plus_code":{"compound_code":"RC6V+7J Leeds","global_code":"9C5WRC6V+7J"},"rating":4.5,"reference":"ChIJr-5sqateeUgRnfP228RdIIo","types":["restaurant","food","point_of_interest","establishment"],"user_ratings_total":87},{"business_status":"OPERATIONAL","formatted_address":"52 Harehills Rd, Harehills, Leeds LS8 5PB","geometry":{"location":{"lat":53.8112219,"lng":-1.517449},"viewport":{"northeast":{"lat":53.81262932989272,"lng":-1.516022770107278},"southwest":{"lat":53.80992967010728,"lng":-1.518722429892722}}},"icon":"https://maps.gstatic.com/mapfiles/place_api/icons/v1/png_71/restaurant-71.png","icon_background_color":"#FF9E67","icon_mask_base_uri":"https://maps.gstatic.com/mapfiles/place_api/icons/v2/restaurant_pinlet","name":"Rayan","opening_hours":{"open_now":true},"photos":[{"height":2736,"html_attributions":["<a href=\"https://maps.google.com/maps/contrib/118031977044427662154\">Shomuj Miah</a>"],"photo_reference":"AeJbb3ed2Y6XSFHROFMWfkSbzbPCWLgW7hsWg77-Jj07VUyx4l10wZeQrbxiPkP0Tp1BTSxFMxeN15b9HG_2zDVKoThEgBkwSK9P0pNVudMLizg6F3eNgkdXoSaUIoLk4RoBFhbucH0e8spaCH-G3gwUmi09yX2pGQ0N3NQLD9DAo0vvS-ea","width":3648}],"place_id":"ChIJ-_ym_JFdeUgRuEEgIgCnQJg","plus_code":{"compound_code":"RF6M+F2 Leeds","global_code":"9C5WRF6M+F2"},"rating":4.5,"reference":"ChIJ-_ym_JFdeUgRuEEgIgCnQJg","types":["meal_takeaway","restaurant","food","point_of_interest","establishment"],"user_ratings_total":11},{"business_status":"OPERATIONAL","formatted_address":"1 The Crescent, Woodhouse, Leeds LS6 2NW","geometry":{"location":{"lat":53.814452,"lng":-1.561004},"viewport":{"northeast":{"lat":53.81577262989271,"lng":-1.559708520107278},"southwest":{"lat":53.81307297010727,"lng":-1.562408179892722}}},"icon":"https://maps.gstatic.com/mapfiles/place_api/icons/v1/png_71/cafe-71.png","icon_background_color":"#FF9E67","icon_mask_base_uri":"https://maps.gstatic.com/mapfiles/place_api/icons/v2/cafe_pinlet","name":"Oranaise Café","opening_hours":{"open_now":true},"photos":[{"height":4608,"html_attributions":["<a href=\"https://maps.google.com/maps/contrib/110246368136231966232\">Paramita Pal</a>"],"photo_reference":"AeJbb3fgumEFISgHpc5yQlGKzC8vewp0HnAjT6ZkZxfl3FmetwtLjTmyuxVBrFAeeiFA8WjlTXvXijG76tVobLk9yPctSRmjmIjzJ3tty2HlD897Eh1DFruSizhNK1EzYZLprsIaM0hL579UtioYkf9Xc5IA-lOKD32-dFEnBlhfrtRuug6K","width":3456}],"place_id":"ChIJbVJEOVNZeUgREn0aXPB3ejc","plus_code":{"compound_code":"RC7Q+QH Leeds","global_code":"9C5WRC7Q+QH"},"price_level":2,"rating":4.4,"reference":"ChIJbVJEOVNZeUgREn0aXPB3ejc","types":["cafe","restaurant","food","point_of_interest","establishment"],"user_ratings_total":593},{"business_status":"OPERATIONAL","formatted_address":"Cherry Row, Leeds LS9 7LY","geometry":{"location":{"lat":53.804409,"lng":-1.527899},"viewport":{"northeast":{"lat":53.80573337989272,"lng":-1.526576570107278},"southwest":{"lat":53.80303372010727,"lng":-1.529276229892722}}},"icon":"https://maps.gstatic.com/mapfiles/place_api/icons/v1/png_71/restaurant-71.png","icon_background_color":"#FF9E67","icon_mask_base_uri":"https://maps.gstatic.com/mapfiles/place_api/icons/v2/restaurant_pinlet","name":"Gzing Restaurant خواردنگەی گزنگ","opening_hours":{"open_now":true},"photos":[{"height":4032,"html_attributions":["<a href=\"https://maps.google.com/maps/contrib/113199517759123083883\">SULTAN ALHARBI</a>"],"photo_reference":"AeJbb3dVpitIIdfc-LgahQjoaOvXf1_2J_vAMKvENFGRtrDQlWPXdV_Gny3aHWfnKYjcXUOmvdVm8vPWvzQ78IJkH-S1HLmpdNOsPy3O0U9PB159LqGd0A7WNhaYT9lB3ereOzCT4Py67pNHd_Fpy_GPM7WwXj4UyrjkxuKeqJ0WZrFHpf1g","width":3024}],"place_id":"ChIJ81DTdg1ceUgRFV6h7_SmRjs","plus_code":{"compound_code":"RF3C+QR Leeds","global_code":"9C5WRF3C+QR"},"price_level":1,"rating":4.4,"reference":"ChIJ81DTdg1ceUgRFV6h7_SmRjs","types":["restaurant","food","point_of_interest","establishment"],"user_ratings_total":580},{"business_status":"OPERATIONAL","formatted_address":"81 Kirkgate, Leeds LS2 7DJ","geometry":{"location":{"lat":53.795826,"lng":-1.5379236},"viewport":{"northeast":{"lat":53.79720792989272,"lng":-1.536538620107278},"southwest":{"lat":53.79450827010728,"lng":-1.539238279892722}}},"icon":"https://maps.gstatic.com/mapfiles/place_api/icons/v1/png_71/restaurant-71.png","icon_background_color":"#FF9E67","icon_mask_base_uri":"https://maps.gstatic.com/mapfiles/place_api/icons/v2/restaurant_pinlet","name":"Safran Charcoal","opening_hours":{"open_now":true},"photos":[{"height":1122,"html_attributions":["<a href=\"https://maps.google.com/maps/contrib/109665771869566747044\">Amani Albalawi</a>"],"photo_reference":"AeJbb3d7FIkDupnUilWUlJZmHIaRqzNxPg3Yekg1pwVVpzlBQW0SaBtGOb7Yddl_GNY1otPHhRiLJrbjbknALy5GVIETFiWm9yePuQlTG7-UaDmz_VhAefYRv5loueCeaLtvht2nCodx7UlEaGfsdbV4a2K_zsWKZw1DkY1uGJOht4uw529_","width":2208}],"place_id":"ChIJt2xNYhdceUgRNuzFb8NIgEE","plus_code":{"compound_code":"QFW6+8R Leeds","global_code":"9C5WQFW6+8R"},"price_level":2,"rating":4.4,"reference":"ChIJt2xNYhdceUgRNuzFb8NIgEE","types":["restaurant","food","point_of_interest","establishment"],"user_ratings_total":467},{"business_status":"OPERATIONAL","formatted_address":"172 Westgate, Bradford BD1 2RN","geometry":{"location":{"lat":53.7973291,"lng":-1.7611489},"viewport":{"northeast":{"lat":53.79862282989272,"lng":-1.759852520107278},"southwest":{"lat":53.79592317010728,"lng":-1.762552179892722}}},"icon":"https://maps.gstatic.com/mapfiles/place_api/icons/v1/png_71/restaurant-71.png","icon_background_color":"#FF9E67","icon_mask_base_uri":"https://maps.gstatic.com/mapfiles/place_api/icons/v2/restaurant_pinlet","name":"Zaffran","opening_hours":{"open_now":true},"photos":[{"height":3024,"html_attributions":["<a href=\"https://maps.google.com/maps/contrib/102005784523551761744\">Umair Khan Awan</a>"],"photo_reference":"AeJbb3dZE0hsHvvigBr_KUrJ3aju5REKQuSxBfxg0y05UKRSJ-9WFqayPO23RShF-EXSCtQUfZ7wxqAwewgvEhgmCKkaJr_OM8EvDRpdBnW2Mk3g80lHKEPLNxHnmU4mttx2pksx_4JMTLaQBGPFTyE3n15dzpB-vijzrfBmZ3zcAasPzshB","width":4032}],"place_id":"ChIJ0aci1kzhe0gRQrM9s-ulZI8","plus_code":{"compound_code":"Q6WQ+WG Bradford","global_code":"9C5WQ6WQ+WG"},"price_level":2,"rating":4.4,"reference":"ChIJ0aci1kzhe0gRQrM9s-ulZI8","types":["restaurant","food","point_of_interest","establishment"],"user_ratings_total":356},{"business_status":"OPERATIONAL","formatted_address":"Legrams Mill, Bradford BD7 1NH","geometry":{"location":{"lat":53.7919145,"lng":-1.7746127},"viewport":{"northeast":{"lat":53.79334697989272,"lng":-1.773314570107278},"southwest":{"lat":53.79064732010728,"lng":-1.776014229892722}}},"icon":"https://maps.gstatic.com/mapfiles/place_api/icons/v1/png_71/restaurant-71.png","icon_background_color":"#FF9E67","icon_mask_base_uri":"https://maps.gstatic.com/mapfiles/place_api/icons/v2/restaurant_pinlet","name":"Mezza Restaurant","opening_hours":{"open_now":true},"photos":[{"height":1982,"html_attributions":["<a href=\"https://maps.google.com/maps/contrib/106305731489654195099\">Radosław Kwiatkowski</a>"],"photo_reference":"AeJbb3fuk2qB86jRuco8ZB1GsrIEuv6Fbr7Okys2fmxGoOR6Pk_MWj4N7eE3RjtvlKbdDl3bzPUy2uS3CFrh9VUI7QufmarY8oahjO9EKnu08w4RqoO_NQMFwLtSkIrepFyrRVSVFRcT4ZAoon4G2t5KmqVjsDtPu45RhlK-g6Nucbumk-iP","width":3701}],"place_id":"ChIJR5-hXSnne0gRmSjYuMJcJnA","plus_code":{"compound_code":"Q6RG+Q5 Bradford","global_code":"9C5WQ6RG+Q5"},"rating":4.3,"reference":"ChIJR5-hXSnne0gRmSjYuMJcJnA","types":["restaurant","store","food","point_of_interest","establishment"],"user_ratings_total":560},{"business_status":"OPERATIONAL","formatted_address":"62 Harehills Rd, Harehills, Leeds LS8 5LE","geometry":{"location":{"lat":53.8102712,"lng":-1.5174198},"viewport":{"northeast":{"lat":53.81162332989271,"lng":-1.515969870107278},"southwest":{"lat":53.80892367010727,"lng":-1.518669529892722}}},"icon":"https://maps.gstatic.com/mapfiles/place_api/icons/v1/png_71/restaurant-71.png","icon_background_color":"#FF9E67","icon_mask_base_uri":"https://maps.gstatic.com/mapfiles/place_api/icons/v2/restaurant_pinlet","name":"Leeds Shawarma","opening_hours":{"open_now":true},"photos":[{"height":4618,"html_attributions":["<a href=\"https://maps.google.com/maps/contrib/118031977044427662154\">Shomuj Miah</a>"],"photo_reference":"AeJbb3fWlMpiNmyhENDpzWUgnudSUsdsfU4OtpSMPFPuyiCLrY-2RmD-vK0mSyVCmZ57Z0Rfxm9NKgD6b4EcScF6dOrRXGWVNT5jnSaRbNWW9Bqb-VZypczsbHmqQHZgaWfV1mdN1osMbB5U1wchcLCrd2MLLKhjg8bbL4cHWsa1mUCUAbn5","width":3464}],"place_id":"ChIJSwAy6nZceUgRAc45X_mDEOE","plus_code":{"compound_code":"RF6M+42 Leeds","global_code":"9C5WRF6M+42"},"price_level":1,"rating":4.3,"reference":"ChIJSwAy6nZceUgRAc45X_mDEOE","types":["meal_takeaway","restaurant","food","point_of_interest","establishment"],"user_ratings_total":269},{"business_status":"OPERATIONAL","formatted_address":"7ly, west, 11 Cherry Row, Leeds LS9 7LY","geometry":{"location":{"lat":53.8036797,"lng":-1.5293396},"viewport":{"northeast":{"lat":53.80496717989272,"lng":-1.527881970107278},"southwest":{"lat":53.80226752010728,"lng":-1.530581629892722}}},"icon":"https://maps.gstatic.com/mapfiles/place_api/icons/v1/png_71/restaurant-71.png","icon_background_color":"#FF9E67","icon_mask_base_uri":"https://maps.gstatic.com/mapfiles/place_api/icons/v2/restaurant_pinlet","name":"Newroz Restaurant خواردنگەی نەورۆز","opening_hours":{"open_now":true},"photos":[{"height":4160,"html_attributions":["<a href=\"https://maps.google.com/maps/contrib/106454800545643769112\">Neal Jackson</a>"],"photo_reference":"AeJbb3fcXbbtkjlxgBKCtWZHM5RvjnLZaaSvAX9p3pRdv4JbX6E3Lm3zzpJCOOGWY_h9-SieY-c9oOiVFcbo76mZkJOKLXTllsHAxQfHgJvMF8--9Q-F1AGrXm9Ai-kyKjhlPrrY-EU3I16PLNBly_i4b717DQORslmc8qNDqqGSAUnbizzw","width":3120}],"place_id":"ChIJYXCLhA1ceUgRHCGcDwkzWaE","plus_code":{"compound_code":"RF3C+F7 Leeds","global_code":"9C5WRF3C+F7"},"price_level":1,"rating":4.3,"reference":"ChIJYXCLhA1ceUgRHCGcDwkzWaE","types":["restaurant","food","point_of_interest","establishment"],"user_ratings_total":265},{"business_status":"OPERATIONAL","formatted_address":"64-66 Manningham Ln, Bradford BD1 3EP","geometry":{"location":{"lat":53.8004556,"lng":-1.7590779},"viewport":{"northeast":{"lat":53.80181617989272,"lng":-1.757813170107278},"southwest":{"lat":53.79911652010728,"lng":-1.760512829892722}}},"icon":"https://maps.gstatic.com/mapfiles/place_api/icons/v1/png_71/restaurant-71.png","icon_background_color":"#FF9E67","icon_mask_base_uri":"https://maps.gstatic.com/mapfiles/place_api/icons/v2/restaurant_pinlet","name":"Nusret Shawarma (شاورمەی نوسرەت)","opening_hours":{"open_now":true},"photos":[{"height":3024,"html_attributions":["<a href=\"https://maps.google.com/maps/contrib/117804313973577460263\">Tamoor Hussain</a>"],"photo_reference":"AeJbb3dry50knQCFYVpGfJqBzmUUSWnYKzRjH7dK9zEaZNi9qpAVPHz3JusBWep68OBhK5qBsji5RfBPv5cMn2DQPs1gHpPbSbU_yP6rFIziLjoGlUxjk6Z3pEYtvc92gIXOE_RodtSjWrQPeJELn0GP2akxQYO7qXxX_BiR8yL0wlpybbM","width":4032}],"place_id":"ChIJp4iFbT7he0gRMI5Ulobgip4","plus_code":{"compound_code":"R62R+59 Bradford","global_code":"9C5WR62R+59"},"price_level":1,"rating":4.3,"reference":"ChIJp4iFbT7he0gRMI5Ulobgip4","types":["restaurant","food","point_of_interest","establishment"],"user_ratings_total":180},{"business_status":"OPERATIONAL","formatted_address":"South St, Dewsbury WF13 1JT","geometry":{"location":{"lat":53.6902656,"lng":-1.6305505},"viewport":{"northeast":{"lat":53.69156582989272,"lng":-1.629247770107278},"southwest":{"lat":53.68886617010727,"lng":-1.631947429892722}}},"icon":"https://maps.gstatic.com/mapfiles/place_api/icons/v1/png_71/restaurant-71.png","icon_background_color":"#FF9E67","icon_mask_base_uri":"https://maps.gstatic.com/mapfiles/place_api/icons/v2/restaurant_pinlet","name":"Dubai Shawarma","opening_hours":{"open_now":true},"photos":[{"height":3024,"html_attributions":["<a href=\"https://maps.google.com/maps/contrib/112708088418786916704\">A Google User</a>"],"photo_reference":"AeJbb3cdrQKnMX3yu77gpRSmXKSSq-rYD0Y0EDYLLpzKa_nlQ9OYkiPGLFq3wSXZocRmCz_2MnmTqrUxaS70hj80KR56MbupZwEHso8T6hN8n7esNypBlkk059n-_SE-8Dm3r42Xaj4FqINvZ9R_5ntasG6hOYy9qmCk3Z7Tb-QAZ7ekRaNi","width":4032}],"place_id":"ChIJU4IUpqlheUgR4V2qJw7gJ84","plus_code":{"compound_code":"M9R9+4Q Dewsbury","global_code":"9C5WM9R9+4Q"},"price_level":1,"rating":4.3,"reference":"ChIJU4IUpqlheUgR4V2qJw7gJ84","types":["restaurant","food","point_of_interest","establishment"],"user_ratings_total":159},{"business_status":"OPERATIONAL","formatted_address":"1045 Leeds Rd, Bradford BD3 7DB","geometry":{"location":{"lat":53.8013207,"lng":-1.7076942},"viewport":{"northeast":{"lat":53.80262132989272,"lng":-1.706315670107278},"southwest":{"lat":53.79992167010728,"lng":-1.709015329892722}}},"icon":"https://maps.gstatic.com/mapfiles/place_api/icons/v1/png_71/restaurant-71.png","icon_background_color":"#FF9E67","icon_mask_base_uri":"https://maps.gstatic.com/mapfiles/place_api/icons/v2/restaurant_pinlet","name":"Ariana Flame Grill","opening_hours":{"open_now":true},"photos":[{"height":615,"html_attributions":["<a href=\"https://maps.google.com/maps/contrib/101935429834889398863\">A Google User</a>"],"photo_reference":"AeJbb3fQB1-ps5UEXt79MmphfWX9gpkjDEZOdLlwSHnPFDZ7F46ZQyZv12tLub-1hY5EqozqMpZ6zvaZxIgyjx5u9LRXV6MS_ppqA6-f2j6_gQEHhp4zG1O-PELLoR1zck1-PWcz3a8FP3MdY-dFfnaE7cp88fxkTHM6wcxny5TGe7ziVfTb","width":1097}],"place_id":"ChIJAWcy9gzhe0gRDRKfyEft8cA","plus_code":{"compound_code":"R72R+GW Bradford","global_code":"9C5WR72R+GW"},"rating":4.3,"reference":"ChIJAWcy9gzhe0gRDRKfyEft8cA","types":["restaurant","food","point_of_interest","establishment"],"user_ratings_total":33},{"business_status":"OPERATIONAL","formatted_address":"Trinity Shopping Centre, 27 Albion St, Leeds LS1 5AY","geometry":{"location":{"lat":53.79680459999999,"lng":-1.5439358},"viewport":{"northeast":{"lat":53.79782977989272,"lng":-1.542745220107278},"southwest":{"lat":53.79513012010727,"lng":-1.545444879892722}}},"icon":"https://maps.gstatic.com/mapfiles/place_api/icons/v1/png_71/restaurant-71.png","icon_background_color":"#FF9E67","icon_mask_base_uri":"https://maps.gstatic.com/mapfiles/place_api/icons/v2/restaurant_pinlet","name":"Comptoir Libanais","opening_hours":{"open_now":true},"photos":[{"height":3024,"html_attributions":["<a href=\"https://maps.google.com/maps/contrib/116764931892236049890\">Natali Andrushchenko</a>"],"photo_reference":"AeJbb3dziL4e5RSX-Z-eTdPnDemEufbljVsbg3FK8I_7SKTQvKn2fkhrP58EyAnB3uzaZzkkb84rcXK3cfIyKepg6UHqFOFZbuXAlrCMc8vm_edjia_6WjgU8XNf3JUswnVk91PjexBXuzbrgblmzmVz3WamMQGcGQkCyopl1VxPw1ZuQCkv","width":4032}],"place_id":"ChIJ1_pKsh5ceUgRX47vQRLD5Bg","plus_code":{"compound_code":"QFW4+PC Leeds","global_code":"9C5WQFW4+PC"},"price_level":2,"rating":4.2,"reference":"ChIJ1_pKsh5ceUgRX47vQRLD5Bg","types":["restaurant","food","point_of_interest","establishment"],"user_ratings_total":769},{"business_status":"OPERATIONAL","formatted_address":"106 Burley Rd, Woodhouse, Leeds LS3 1JP","geometry":{"location":{"lat":53.8046359,"lng":-1.5689213},"viewport":{"northeast":{"lat":53.80592837989273,"lng":-1.567628820107278},"southwest":{"lat":53.80322872010728,"lng":-1.570328479892722}}},"icon":"https://maps.gstatic.com/mapfiles/place_api/icons/v1/png_71/restaurant-71.png","icon_background_color":"#FF9E67","icon_mask_base_uri":"https://maps.gstatic.com/mapfiles/place_api/icons/v2/restaurant_pinlet","name":"MoroccOriental","opening_hours":{"open_now":true},"photos":[{"height":2048,"html_attributions":["<a href=\"https://maps.google.com/maps/contrib/108427096267441483187\">A Google User</a>"],"photo_reference":"AeJbb3fBOnXh2mVt0-m-pFzDzfqwEvaV6hSCTKqQ1cqZPFzp2UvxNtYkTZu5zMk4GdTCTyTjpkFhCeV8KIrzZQNgt71YlNHAZUhBawJlXMTQGDPD6bSqfCCPrI43qQFcZ363YCutuvRU_UjH_-de4G-A4dIYR-D49if_WaONMFk5j75wrn1v","width":1536}],"place_id":"ChIJ1Zb3-9xfeUgRx568qFMHT1Q","plus_code":{"compound_code":"RC3J+VC Leeds","global_code":"9C5WRC3J+VC"},"rating":4.2,"reference":"ChIJ1Zb3-9xfeUgRx568qFMHT1Q","types":["meal_takeaway","restaurant","food","point_of_interest","establishment"],"user_ratings_total":43},{"business_status":"OPERATIONAL","formatted_address":"Harehills, Leeds LS8 5LE","geometry":{"location":{"lat":53.8108245,"lng":-1.5170745},"viewport":{"northeast":{"lat":53.81223392989272,"lng":-1.515725820107278},"southwest":{"lat":53.80953427010728,"lng":-1.518425479892722}}},"icon":"https://maps.gstatic.com/mapfiles/place_api/icons/v1/png_71/restaurant-71.png","icon_background_color":"#FF9E67","icon_mask_base_uri":"https://maps.gstatic.com/mapfiles/place_api/icons/v2/restaurant_pinlet","name":"Baba Jaga","opening_hours":{"open_now":true},"photos":[{"height":2268,"html_attributions":["<a href=\"https://maps.google.com/maps/contrib/102661518173065986591\">A Google User</a>"],"photo_reference":"AeJbb3fKobEqmYOTwCb2qdWF2lrRmQ8v3wY9hbhA3wLQid5bg40ksIiKgaO0tu8DHyAnjfXcJirBhePJSsBz8h9jHw8gXbk8ly_LYx1Jdifg7nrjlZ-TgPQlIUnoly65Y2s74oDfO7Ug5d-KkWTnGB8Ou5i8I6kp31zICkuO6n0SFA4s4CK4","width":4032}],"place_id":"ChIJA6I78HZceUgRZSI93BMQimw","plus_code":{"compound_code":"RF6M+85 Leeds","global_code":"9C5WRF6M+85"},"rating":4.1,"reference":"ChIJA6I78HZceUgRZSI93BMQimw","types":["restaurant","food","point_of_interest","establishment"],"user_ratings_total":50},{"business_status":"OPERATIONAL","formatted_address":"17a Ivegate, Bradford BD1 1SQ","geometry":{"location":{"lat":53.7914347,"lng":-1.7539024},"viewport":{"northeast":{"lat":53.79278452989273,"lng":-1.752552570107277},"southwest":{"lat":53.79008487010729,"lng":-1.755252229892722}}},"icon":"https://maps.gstatic.com/mapfiles/place_api/icons/v1/png_71/restaurant-71.png","icon_background_color":"#FF9E67","icon_mask_base_uri":"https://maps.gstatic.com/mapfiles/place_api/icons/v2/restaurant_pinlet","name":"Asia restaurant","opening_hours":{"open_now":true},"photos":[{"height":3024,"html_attributions":["<a href=\"https://maps.google.com/maps/contrib/113517671093563389377\">Safin Restaurant</a>"],"photo_reference":"AeJbb3f785scJWaLelT7VnTnEjvq-HMauqPyX1WbgxFtg5zks4i9mT1Qkf5ySFur5mNs75VenymMjeiN6kVxw1jBE5dNHHuOGCVZGnzlfTsKQhrpT5TtaZSF9CYt0wzMF4ktnmOFiuceSWVXByQ22iJTabBUBEhczB-XNd4Dkwt4FFafItOq","width":4032}],"place_id":"ChIJT55OREnhe0gRI8mCBFr8POU","plus_code":{"compound_code":"Q6RW+HC Bradford","global_code":"9C5WQ6RW+HC"},"rating":4.1,"reference":"ChIJT55OREnhe0gRI8mCBFr8POU","types":["restaurant","food","point_of_interest","establishment"],"user_ratings_total":8},{"business_status":"OPERATIONAL","formatted_address":"27 Hyde Park Rd, Burley, Leeds LS6 1PY","geometry":{"location":{"lat":53.8059287,"lng":-1.5690259},"viewport":{"northeast":{"lat":53.80724512989272,"lng":-1.567578520107278},"southwest":{"lat":53.80454547010728,"lng":-1.570278179892722}}},"icon":"https://maps.gstatic.com/mapfiles/place_api/icons/v1/png_71/restaurant-71.png","icon_background_color":"#FF9E67","icon_mask_base_uri":"https://maps.gstatic.com/mapfiles/place_api/icons/v2/restaurant_pinlet","name":"AlKhaleej Arabic Restaurant","opening_hours":{"open_now":true},"photos":[{"height":4032,"html_attributions":["<a href=\"https://maps.google.com/maps/contrib/102666615691899237058\">Al-Khaleej</a>"],"photo_reference":"AeJbb3fmstvEeKqacNEzTyw02m8SYovMIHG2odxiDaC5D-G2YsDYtgWlH677VrtyVIXtgNcmfjD1tucYOFi7h_VcmKuBAPQjhADputmyfyc-DBf54jNFr-YZQUIqLR3qfbc7_xqIEhevdiOdxwp-ze8BhN11G8_cbDoqP-eU6Z8L3lWu-Ecg","width":3024}],"place_id":"ChIJ8VefBbFeeUgREbCR46__mRY","plus_code":{"compound_code":"RC4J+99 Leeds","global_code":"9C5WRC4J+99"},"price_level":2,"rating":4,"reference":"ChIJ8VefBbFeeUgREbCR46__mRY","types":["restaurant","food","point_of_interest","establishment"],"user_ratings_total":241},{"business_status":"OPERATIONAL","formatted_address":"29 Kirkgate, Leeds LS2 7DR","geometry":{"location":{"lat":53.7962248,"lng":-1.5385429},"viewport":{"northeast":{"lat":53.79754962989272,"lng":-1.537201220107278},"southwest":{"lat":53.79484997010727,"lng":-1.539900879892722}}},"icon":"https://maps.gstatic.com/mapfiles/place_api/icons/v1/png_71/restaurant-71.png","icon_background_color":"#FF9E67","icon_mask_base_uri":"https://maps.gstatic.com/mapfiles/place_api/icons/v2/restaurant_pinlet","name":"Albaba Restaurant","opening_hours":{"open_now":true},"photos":[{"height":3024,"html_attributions":["<a href=\"https://maps.google.com/maps/contrib/117371645153848061612\">A Google User</a>"],"photo_reference":"AeJbb3fnP9zn_BQglK8dkXwb3tXqMQ8YeKj1KJeY9c9ptZSEqm8UfjbcWRo8v6nhmmUTFwlHBvrlXXUHYDqquhpMvrB4tpl97kEvYISX5vL6zzxlHb-xyUH2DW12BX-Bvq_5Fob_i89vMsTsys19L_R0HxO44dFCtyFdvPBzRpHuNZ9VRjlB","width":4032}],"place_id":"ChIJpdX4hBlceUgRa-wDt_D8DKM","plus_code":{"compound_code":"QFW6+FH Leeds","global_code":"9C5WQFW6+FH"},"price_level":1,"rating":4,"reference":"ChIJpdX4hBlceUgRa-wDt_D8DKM","types":["restaurant","food","point_of_interest","establishment"],"user_ratings_total":208},{"business_status":"OPERATIONAL","formatted_address":"19 Merrion St, Leeds LS2 8JE","geometry":{"location":{"lat":53.8005039,"lng":-1.5416333},"viewport":{"northeast":{"lat":53.80189152989273,"lng":-1.540344770107278},"southwest":{"lat":53.79919187010729,"lng":-1.543044429892722}}},"icon":"https://maps.gstatic.com/mapfiles/place_api/icons/v1/png_71/restaurant-71.png","icon_background_color":"#FF9E67","icon_mask_base_uri":"https://maps.gstatic.com/mapfiles/place_api/icons/v2/restaurant_pinlet","name":"Shawarma King","opening_hours":{"open_now":true},"photos":[{"height":590,"html_attributions":["<a href=\"https://maps.google.com/maps/contrib/103736376775104421757\">A Google User</a>"],"photo_reference":"AeJbb3dGCynzlOHxbkcxgBxETb4p3kB_40tB2mE2Dk8kBkf1wlIpYypTTgu3EfuQ13Cnugf3Ri-7dnJjB1AnUqZZgvyQpA8PJVMjaUwcrwK9wHVjdm9gQwrsRcRIuDeV7BrJAUqOKHqP1NNoKVhewK-rp69y2bnn3D9bJt0fBpxwk-1rlPYT","width":1280}],"place_id":"ChIJe_5E_hpceUgRrMF8KYKHxXc","plus_code":{"compound_code":"RF25+68 Leeds","global_code":"9C5WRF25+68"},"rating":4,"reference":"ChIJe_5E_hpceUgRrMF8KYKHxXc","types":["restaurant","food","point_of_interest","establishment"],"user_ratings_total":192},{"business_status":"OPERATIONAL","formatted_address":"18 Woodsley Rd, Woodhouse, Leeds LS3 1DT","geometry":{"location":{"lat":53.8053929,"lng":-1.5689428},"viewport":{"northeast":{"lat":53.80677672989272,"lng":-1.567543170107278},"southwest":{"lat":53.80407707010728,"lng":-1.570242829892722}}},"icon":"https://maps.gstatic.com/mapfiles/place_api/icons/v1/png_71/restaurant-71.png","icon_background_color":"#FF9E67","icon_mask_base_uri":"https://maps.gstatic.com/mapfiles/place_api/icons/v2/restaurant_pinlet","name":"Dewan Restaurant &","opening_hours":{"open_now":true},"photos":[{"height":2848,"html_attributions":["<a href=\"https://maps.google.com/maps/contrib/105840346589204458667\">A Google User</a>"],"photo_reference":"AeJbb3ff2NINeIbnz_r8VZiR9D2BA8irzuRrSFw9_6fGZqHGT5PH8i8PDMOVHFlZU6SdbKFSli_fKZimulDzQMckewG_uhLH2dkIvMOX2WlQQ71n8t6PZBmdcvuYzXzc7GW0RGbcmD59-LBU04ROhAsDfpzoWFVRXQYlF-ztyWXabBvF2rtT","width":4272}],"place_id":"ChIJSwGI_7pfeUgR8cQ559aafYw","plus_code":{"compound_code":"RC4J+5C Leeds","global_code":"9C5WRC4J+5C"},"rating":3.9,"reference":"ChIJSwGI_7pfeUgR8cQ559aafYw","types":["restaurant","food","point_of_interest","establishment"],"user_ratings_total":252},{"business_status":"OPERATIONAL","formatted_address":"11a Cherry Row, Leeds LS9 7LY","geometry":{"location":{"lat":53.803814,"lng":-1.529111},"viewport":{"northeast":{"lat":53.80510272989271,"lng":-1.527681870107278},"southwest":{"lat":53.80240307010727,"lng":-1.530381529892722}}},"icon":"https://maps.gstatic.com/mapfiles/place_api/icons/v1/png_71/restaurant-71.png","icon_background_color":"#FF9E67","icon_mask_base_uri":"https://maps.gstatic.com/mapfiles/place_api/icons/v2/restaurant_pinlet","name":"Eritrean African & Middle East Food Restaurant & Bar","opening_hours":{"open_now":true},"place_id":"ChIJaRSb5EpdeUgRTrpxg97bM2M","plus_code":{"compound_code":"RF3C+G9 Leeds","global_code":"9C5WRF3C+G9"},"rating":3,"reference":"ChIJaRSb5EpdeUgRTrpxg97bM2M","types":["restaurant","food","point_of_interest","establishment"],"user_ratings_total":4},{"business_status":"OPERATIONAL","formatted_address":"149 Harehills Rd, Harehills, Leeds LS8 5BW","geometry":{"location":{"lat":53.8087518,"lng":-1.516708},"viewport":{"northeast":{"lat":53.81009162989272,"lng":-1.515487520107277},"southwest":{"lat":53.80739197010728,"lng":-1.518187179892722}}},"icon":"https://maps.gstatic.com/mapfiles/place_api/icons/v1/png_71/restaurant-71.png","icon_background_color":"#FF9E67","icon_mask_base_uri":"https://maps.gstatic.com/mapfiles/place_api/icons/v2/restaurant_pinlet","name":"Shawarma expres","opening_hours":{"open_now":true},"photos":[{"height":2160,"html_attributions":["<a href=\"https://maps.google.com/maps/contrib/113254960912767283873\">A Google User</a>"],"photo_reference":"AeJbb3dV3EybFmO8eTylgnBvYcsoHOz61fHTeoIHuDv3MnPtajEYrFg38NiqlaI3cF7eTZRa-AgzmIiHh2PoNXVxr2-KsaXTmDJTIq_fJspDY8A8RX9tnIDq7y97kZxg7wCYrln0iO41nfqajm0A8KYjcy6T04_NFGOMW9HiAqhE2541IGCG","width":3840}],"place_id":"ChIJ73-eMdtdeUgRrUVFtEq292A","plus_code":{"compound_code":"RF5M+G8 Leeds","global_code":"9C5WRF5M+G8"},"rating":2.7,"reference":"ChIJ73-eMdtdeUgRrUVFtEq292A","types":["restaurant","food","point_of_interest","establishment"],"user_ratings_total":7}]