[{"business_status":"OPERATIONAL","formatted_address":"Via Enrico Parisi, 9, 90141 Palermo PA","geometry":{"location":{"lat":38.126396,"lng":13.3533131},"viewport":{"northeast":{"lat":38.12769772989272,"lng":13.35469322989272},"southwest":{"lat":38.12499807010728,"lng":13.35199357010728}}},"icon":"https://maps.gstatic.com/mapfiles/place_api/icons/v1/png_71/restaurant-71.png","icon_background_color":"#FF9E67","icon_mask_base_uri":"https://maps.gstatic.com/mapfiles/place_api/icons/v2/restaurant_pinlet","name":"aiko sushi restaurant","opening_hours":{"open_now":false},"photos":[{"height":915,"html_attributions":["<a href=\"https://maps.google.com/maps/contrib/115258149497784053472\">A Google User</a>"],"photo_reference":"AeJbb3ceIItLMcfQrg9-1fgb_54FDjirs33GEf8C9w4sYhs_minY63Oqw_95n0ggxpjCiHy9UlGdqDQIki6Lz0a4xPe1t7CF9RxX60HoZFwrTnFfbLviwiOvYIeXXHPmYAXDC9DWroVv-1ZUhlC6pNswwlmlXtOZyLSCS2LJgAtOUHB9HhF7","width":1080}],"place_id":"ChIJg0G_1__vGRMRyEM7u42IMSo","plus_code":{"compound_code":"49G3+H8 Palermo, Metropolitan City of Palermo","global_code":"8FCM49G3+H8"},"rating":4.7,"reference":"ChIJg0G_1__vGRMRyEM7u42IMSo","types":["meal_takeaway","restaurant","food","point_of_interest","establishment"],"user_ratings_total":100},{"business_status":"OPERATIONAL","formatted_address":"Via Giuseppe Mazzini, 36, 90139 Palermo PA","geometry":{"location":{"lat":38.1274433,"lng":13.3552588},"viewport":{"northeast":{"lat":38.12885162989272,"lng":13.35664152989272},"southwest":{"lat":38.12615197010728,"lng":13.35394187010728}}},"icon":"https://maps.gstatic.com/mapfiles/place_api/icons/v1/png_71/restaurant-71.png","icon_background_color":"#FF9E67","icon_mask_base_uri":"https://maps.gstatic.com/mapfiles/place_api/icons/v2/restaurant_pinlet","name":"Wok One","opening_hours":{"open_now":false},"photos":[{"height":2250,"html_attributions":["<a href=\"https://maps.google.com/maps/contrib/100600887804982582991\">Gaudia Gallina</a>"],"photo_reference":"AeJbb3e2qu8n0gEWn-PGd5tpNXh4UdwuiWRxSG7iBZ6YogyiAp0_lqg_D-Qt_RycbLg89qKCgqDFoVFbkNOKA55TV7UL_QDHBrQ6vZ6xm4I-za_Rqp9h7Y37wh8yD3cSUikISkBu175l9P86Iby5e-hMsZ9cT5WXUCfsB6xIBpopi-8zpH4r","width":4000}],"place_id":"ChIJ8d0Ez1nvGRMRkskTeLeuUkc","plus_code":{"compound_code":"49G4+X4 Palermo, Metropolitan City of Palermo","global_code":"8FCM49G4+X4"},"price_level":1,"rating":4.5,"reference":"ChIJ8d0Ez1nvGRMRkskTeLeuUkc","types":["meal_takeaway","restaurant","food","point_of_interest","establishment"],"user_ratings_total":716},{"business_status":"OPERATIONAL","formatted_address":"Via Francesco Laurana, 17, 90143 Palermo PA","geometry":{"location":{"lat":38.1364277,"lng":13.3541517},"viewport":{"northeast":{"lat":38.13778517989272,"lng":13.35547527989272},"southwest":{"lat":38.13508552010727,"lng":13.35277562010728}}},"icon":"https://maps.gstatic.com/mapfiles/place_api/icons/v1/png_71/restaurant-71.png","icon_background_color":"#FF9E67","icon_mask_base_uri":"https://maps.gstatic.com/mapfiles/place_api/icons/v2/restaurant_pinlet","name":"Milí","opening_hours":{"open_now":false},"photos":[{"height":1440,"html_attributions":["<a href=\"https://maps.google.com/maps/contrib/112082985210124189769\">A Google User</a>"],"photo_reference":"AeJbb3dKHihN3JZN0ZnFMoGDfwM8Ju_uYgSzaIcuLmmISv85bhrjovWNlMXNsUSn4aL62_OrUrsAeoZF339DhII-W5dAIrCpmiP_7_Hgd0i2JE1QH5944xoM4uYSEGcdIyQauUAvPfQI62cyqBQZVPyuLsr_0rqNCNdnQSwQCsRv7N-KshOL","width":1440}],"place_id":"ChIJO3BGfY_vGRMRAozaoPXkHA4","plus_code":{"compound_code":"49P3+HM Palermo, Metropolitan City of Palermo","global_code":"8FCM49P3+HM"},"price_level":2,"rating":4.4,"reference":"ChIJO3BGfY_vGRMRAozaoPXkHA4","types":["restaurant","food","point_of_interest","establishment"],"user_ratings_total":1083},{"business_status":"OPERATIONAL","formatted_address":"Via dei Cassari, 6, 90133 Palermo PA","geometry":{"location":{"lat":38.1183735,"lng":13.3662727},"viewport":{"northeast":{"lat":38.11974822989272,"lng":13.36760532989272},"southwest":{"lat":38.11704857010728,"lng":13.36490567010728}}},"icon":"https://maps.gstatic.com/mapfiles/place_api/icons/v1/png_71/restaurant-71.png","icon_background_color":"#FF9E67","icon_mask_base_uri":"https://maps.gstatic.com/mapfiles/place_api/icons/v2/restaurant_pinlet","name":"Bocum Fuoco","opening_hours":{"open_now":false},"photos":[{"height":5248,"html_attributions":["<a href=\"https://maps.google.com/maps/contrib/103193780029952372315\">Vicio Di Cara</a>"],"photo_reference":"AeJbb3d5KWzmj_R-NvqTBI3yeGrQpzaeKbyAzvkvSI6GhhVhc1_QPAeDDGLcvX1fJFML6T0DE8xK2lF13TUqOWKTH1WS6R9iIdOtEyulF2n1cTfc8LFdzsqBykqDWUjYZrFImpxxdEkbAeKniFqNsEq2E_C4xGd2wO0pSfoicHbHG84X7Ann","width":3936}],"place_id":"ChIJHUv3BPPlGRMRDaNmN1KiHD4","plus_code":{"compound_code":"4998+8G Palermo, Metropolitan City of Palermo","global_code":"8FCM4998+8G"},"price_level":3,"rating":4.4,"reference":"ChIJHUv3BPPlGRMRDaNmN1KiHD4","types":["restaurant","food","point_of_interest","establishment"],"user_ratings_total":295},{"business_status":"OPERATIONAL","formatted_address":"Via E. Amari, 57 A/B, 90139 Palermo PA","geometry":{"location":{"lat":38.1264263,"lng":13.360465},"viewport":{"northeast":{"lat":38.12778437989272,"lng":13.36210092989272},"southwest":{"lat":38.12508472010727,"lng":13.35940127010728}}},"icon":"https://maps.gstatic.com/mapfiles/place_api/icons/v1/png_71/restaurant-71.png","icon_background_color":"#FF9E67","icon_mask_base_uri":"https://maps.gstatic.com/mapfiles/place_api/icons/v2/restaurant_pinlet","name":"Ristorante Kuaizi","opening_hours":{"open_now":false},"photos":[{"height":1824,"html_attributions":["<a href=\"https://maps.google.com/maps/contrib/103344297811060542679\">giuseppe pinto</a>"],"photo_reference":"AeJbb3c6SBKPqRXtmjx__UAveQasHAWNe61f1OX3sZITNGC9YC2mpi7X7Urts0vvFSRI4rQ974l-Jkh5yZkCJTnDsE0QlU5-yn4hu04RrqmCFoKFShF1mWlCLZ22gIPHsNso_jZf1RG0PrX3CMItEzwQbNwHeJ71_iyFE9EDSBEK62bHKXcC","width":4000}],"place_id":"ChIJ67HovfflGRMRdHCs6aRhQ4k","plus_code":{"compound_code":"49G6+H5 Palermo, Metropolitan City of Palermo","global_code":"8FCM49G6+H5"},"price_level":2,"rating":4.3,"reference":"ChIJ67HovfflGRMRdHCs6aRhQ4k","types":["restaurant","food","point_of_interest","establishment"],"user_ratings_total":1854},{"business_status":"OPERATIONAL","formatted_address":"P.za Castelnuovo, 35, 90141 Palermo PA","geometry":{"location":{"lat":38.1240155,"lng":13.3538018},"viewport":{"northeast":{"lat":38.12536782989272,"lng":13.35513617989272},"southwest":{"lat":38.12266817010727,"lng":13.35243652010728}}},"icon":"https://maps.gstatic.com/mapfiles/place_api/icons/v1/png_71/restaurant-71.png","icon_background_color":"#FF9E67","icon_mask_base_uri":"https://maps.gstatic.com/mapfiles/place_api/icons/v2/restaurant_pinlet","name":"Gohan Palermo","opening_hours":{"open_now":false},"photos":[{"height":4032,"html_attributions":["<a href=\"https://maps.google.com/maps/contrib/103085785894787797434\">libo li</a>"],"photo_reference":"AeJbb3dRxr3sDZ2PX75aOqokiQfhCle6yOHCOP8divLPX_7166aI9HsZG4z7H26BHgYRfOkaKsKYM0BOrnGdw3DUEhlmSWe64HUCcDFbUnuEu0wqqlaJRv0EwF2ECmKIF4gEn1Mx_uZGRQyh-Nlj9O86K6r6CloNgKmv27n2bU3O9lXTggc0","width":3024}],"place_id":"ChIJVVVlT1nvGRMRCwqCwToRhEU","plus_code":{"compound_code":"49F3+JG Palermo, Metropolitan City of Palermo","global_code":"8FCM49F3+JG"},"price_level":2,"rating":4.3,"reference":"ChIJVVVlT1nvGRMRCwqCwToRhEU","types":["restaurant","food","point_of_interest","establishment"],"user_ratings_total":1549},{"business_status":"OPERATIONAL","formatted_address":"Via Mariano Stabile, 84, 90139 Palermo PA","geometry":{"location":{"lat":38.1242769,"lng":13.3612176},"viewport":{"northeast":{"lat":38.12561987989272,"lng":13.36258742989272},"southwest":{"lat":38.12292022010728,"lng":13.35988777010728}}},"icon":"https://maps.gstatic.com/mapfiles/place_api/icons/v1/png_71/restaurant-71.png","icon_background_color":"#FF9E67","icon_mask_base_uri":"https://maps.gstatic.com/mapfiles/place_api/icons/v2/restaurant_pinlet","name":"Felice (Ristorante Cinese)","opening_hours":{"open_now":false},"photos":[{"height":4032,"html_attributions":["<a href=\"https://maps.google.com/maps/contrib/113369651025770264664\">peter cupedo</a>"],"photo_reference":"AeJbb3fj-s1ZAna8yyL23vH3JA3hxSoZVignnnQc8Flz-ywh0jay90Zy7JjMpJMcVRBFpgi_RMQWQBraWkDVjh_2rHRPijvvTnK8LaAqMKoTGoIgTCpvVnd27gEwUHQed3uj1GZSWHc9A9Hgnd8PBMcukzyA0-7sH0t1HbI42dz3Y8fd360U","width":3024}],"place_id":"ChIJCaM0WvblGRMRCwzSk_-OR3w","plus_code":{"compound_code":"49F6+PG Palermo, Metropolitan City of Palermo","global_code":"8FCM49F6+PG"},"price_level":1,"rating":4.3,"reference":"ChIJCaM0WvblGRMRCwzSk_-OR3w","types":["restaurant","food","point_of_interest","establishment"],"user_ratings_total":257},{"business_status":"OPERATIONAL","formatted_address":"Viale Strasburgo, 348/350, 90146 Palermo PA","geometry":{"location":{"lat":38.1568202,"lng":13.3259888},"viewport":{"northeast":{"lat":38.15828597989272,"lng":13.32740797989272},"southwest":{"lat":38.15558632010728,"lng":13.32470832010728}}},"icon":"https://maps.gstatic.com/mapfiles/place_api/icons/v1/png_71/restaurant-71.png","icon_background_color":"#FF9E67","icon_mask_base_uri":"https://maps.gstatic.com/mapfiles/place_api/icons/v2/restaurant_pinlet","name":"Sushi Dao","opening_hours":{"open_now":false},"photos":[{"height":4608,"html_attributions":["<a href=\"https://maps.google.com/maps/contrib/114363840231189332065\">A Google User</a>"],"photo_reference":"AeJbb3fp_pu6nY5SpeMEFj5K3nZh3utUt04VRmQfSV-jGDOhY0ECKEqZV44dQRzjcPWpRJuqyf-z1DWaFsgP_FtTeRyf73vwHwyASzIOvs8N5i6GfSEYQMCQprLJxj-6DR6CHY9AFL3YRaSj-d3uPm0oDE95W1sv23UrVPee-mz4pxcjUXYX","width":3456}],"place_id":"ChIJV0PHX8ToGRMRGi07mpB3kOk","plus_code":{"compound_code":"584G+P9 Palermo, Metropolitan City of Palermo","global_code":"8FCM584G+P9"},"price_level":2,"rating":4.2,"reference":"ChIJV0PHX8ToGRMRGi07mpB3kOk","types":["restaurant","food","point_of_interest","establishment"],"user_ratings_total":1073},{"business_status":"OPERATIONAL","formatted_address":"Via della Libertà, 189/D, 90143 Palermo PA","geometry":{"location":{"lat":38.1415938,"lng":13.344981},"viewport":{"northeast":{"lat":38.14307807989273,"lng":13.34620097989272},"southwest":{"lat":38.14037842010729,"lng":13.34350132010728}}},"icon":"https://maps.gstatic.com/mapfiles/place_api/icons/v1/png_71/restaurant-71.png","icon_background_color":"#FF9E67","icon_mask_base_uri":"https://maps.gstatic.com/mapfiles/place_api/icons/v2/restaurant_pinlet","name":"Duomi Sushi (Ex Il Grande Mondo)","opening_hours":{"open_now":true},"photos":[{"height":1536,"html_attributions":["<a href=\"https://maps.google.com/maps/contrib/110427834828274094197\">Il Grande Mondo</a>"],"photo_reference":"AeJbb3fRl_Sy5sXf_H63od9cg9r5e7GPbynTakmZX_hY2xxQ6dvT1nvjlJgI6CGwoVr7q0RyNdkWbPxw7INT1DWZfV97huomPyUCVtRrU-lP8DPOT5PrZvLHcwgFKiYxgW80PUgtGUPPdq0eZI-n42PgEt3ghqJhUNVJ_tvfPrE0S7N27AHx","width":2048}],"place_id":"ChIJrXWgw7LoGRMRqa3JHZz0eq0","plus_code":{"compound_code":"48RV+JX Palermo, Metropolitan City of Palermo","global_code":"8FCM48RV+JX"},"price_level":1,"rating":4.2,"reference":"ChIJrXWgw7LoGRMRqa3JHZz0eq0","types":["meal_delivery","restaurant","food","point_of_interest","establishment"],"user_ratings_total":1065},{"business_status":"OPERATIONAL","formatted_address":"Via Francesco Maurolico, 11, 90127 Palermo PA","geometry":{"location":{"lat":38.1097112,"lng":13.3657656},"viewport":{"northeast":{"lat":38.11115437989271,"lng":13.36708687989272},"southwest":{"lat":38.10845472010727,"lng":13.36438722010728}}},"icon":"https://maps.gstatic.com/mapfiles/place_api/icons/v1/png_71/restaurant-71.png","icon_background_color":"#FF9E67","icon_mask_base_uri":"https://maps.gstatic.com/mapfiles/place_api/icons/v2/restaurant_pinlet","name":"Kampai Restaurant","opening_hours":{"open_now":true},"photos":[{"height":3006,"html_attributions":["<a href=\"https://maps.google.com/maps/contrib/101667145454190779284\">Valentina Moncada</a>"],"photo_reference":"AeJbb3eys_lbP4KdlyUJXiwdsD7oVsU09RqgkLk27qXzooaM88Pr1r5MZRnyEKfCXDGttpwGkowOw1BVoVElaBBxU3IIPOWeiyljwEmXgwzmFIoNpBg7roCCiLQChfY8gn5ZydR9RpyWA1NEON2r1TaVe3q_vveixA-NTsJnxipzdh3CC9tC","width":5344}],"place_id":"ChIJDfPlwo7lGRMR4QUdg0pM0ek","plus_code":{"compound_code":"4958+V8 Palermo, Metropolitan City of Palermo","global_code":"8FCM4958+V8"},"price_level":2,"rating":4.2,"reference":"ChIJDfPlwo7lGRMR4QUdg0pM0ek","types":["restaurant","food","point_of_interest","establishment"],"user_ratings_total":828},{"business_status":"OPERATIONAL","formatted_address":"Via Francesco Cilea, 77, 90144 Palermo PA","geometry":{"location":{"lat":38.1360928,"lng":13.3376714},"viewport":{"northeast":{"lat":38.13721182989272,"lng":13.33927837989272},"southwest":{"lat":38.13451217010728,"lng":13.33657872010728}}},"icon":"https://maps.gstatic.com/mapfiles/place_api/icons/v1/png_71/restaurant-71.png","icon_background_color":"#FF9E67","icon_mask_base_uri":"https://maps.gstatic.com/mapfiles/place_api/icons/v2/restaurant_pinlet","name":"Shao sushi","opening_hours":{"open_now":false},"photos":[{"height":2304,"html_attributions":["<a href=\"https://maps.google.com/maps/contrib/105779201710958559196\">Piero Romolo</a>"],"photo_reference":"AeJbb3e_NkjwO8qCSbayypnhUCro5d-_43SDH5hDSMXsZFLLdpXm1xNPSi1h6U_30BaM0vXUFQ-PgZTX5M74o9SPMVmkYM2INV-3EUPYXactu2Xqz1_TVCvTu0n0NGtxG99VXVjno6uf5UrTPbGyynndomUg7-ECYAG5nRg2g7Yxe70pRxYV","width":4608}],"place_id":"ChIJt3ToLR7vGRMRs0GpVQIFVj8","plus_code":{"compound_code":"48PQ+C3 Palermo, Metropolitan City of Palermo","global_code":"8FCM48PQ+C3"},"price_level":1,"rating":4.2,"reference":"ChIJt3ToLR7vGRMRs0GpVQIFVj8","types":["restaurant","food","point_of_interest","establishment"],"user_ratings_total":299},{"business_status":"OPERATIONAL","formatted_address":"Via Imperatore Federico, 114/a, 90143 Palermo PA","geometry":{"location":{"lat":38.1475797,"lng":13.3518799},"viewport":{"northeast":{"lat":38.14857517989272,"lng":13.35342642989272},"southwest":{"lat":38.14587552010728,"lng":13.35072677010728}}},"icon":"https://maps.gstatic.com/mapfiles/place_api/icons/v1/png_71/restaurant-71.png","icon_background_color":"#FF9E67","icon_mask_base_uri":"https://maps.gstatic.com/mapfiles/place_api/icons/v2/restaurant_pinlet","name":"Sakura","opening_hours":{"open_now":false},"photos":[{"height":3096,"html_attributions":["<a href=\"https://maps.google.com/maps/contrib/103181565831759242070\">Rosalia Merlo</a>"],"photo_reference":"AeJbb3cWlCESQvOO9_7064HHQeZKrxGJlUps7wO2zZNKOqO5J0mreFCdqIEv_0kcS3_73RPxNJso2_ID3SAzM_37UEQ15IzlToC_juxkklCbDf9BmUPaMHVYimj4rJ0HL1DRDUNuic-o2Q3s3E1p-3b_6W-devPGKck7bjqzCOLhJUTgiqRF","width":4128}],"place_id":"ChIJI2UPK6_oGRMRl_e1TNsU--Q","plus_code":{"compound_code":"49X2+2Q Palermo, Metropolitan City of Palermo","global_code":"8FCM49X2+2Q"},"price_level":2,"rating":4.1,"reference":"ChIJI2UPK6_oGRMRl_e1TNsU--Q","types":["restaurant","food","point_of_interest","establishment"],"user_ratings_total":1468},{"business_status":"OPERATIONAL","formatted_address":"Via Giuseppe Sciuti, 104, 90144 Palermo PA","geometry":{"location":{"lat":38.1362014,"lng":13.3404706},"viewport":{"northeast":{"lat":38.13762787989272,"lng":13.34195217989272},"southwest":{"lat":38.13492822010728,"lng":13.33925252010728}}},"icon":"https://maps.gstatic.com/mapfiles/place_api/icons/v1/png_71/restaurant-71.png","icon_background_color":"#FF9E67","icon_mask_base_uri":"https://maps.gstatic.com/mapfiles/place_api/icons/v2/restaurant_pinlet","name":"Chan Sushi Bar","opening_hours":{"open_now":true},"photos":[{"height":5520,"html_attributions":["<a href=\"https://maps.google.com/maps/contrib/108736645078313560093\">Ristorante Chan Sushi Bar</a>"],"photo_reference":"AeJbb3dqyepZttkBArB9aFDEq9Fcbu1sEMFN7MNrMW0BfXcLf-C41uSrI5CH33V6Q09vPyrun9_xi3H-CATjMm2LZZseuDc3i5H7YjAnwrlMRKSRx1ruasb0dsOiRRBf6-VVpd5gde1LdTWPQKZQByVwEYBWvTdp5YjvyKe2FnX_-dPE6aFU","width":3680}],"place_id":"ChIJ5QkZ7kvvGRMRVjWLv2u_Xuc","plus_code":{"compound_code":"48PR+F5 Palermo, Metropolitan City of Palermo","global_code":"8FCM48PR+F5"},"price_level":2,"rating":4.1,"reference":"ChIJ5QkZ7kvvGRMRVjWLv2u_Xuc","types":["restaurant","food","point_of_interest","establishment"],"user_ratings_total":979},{"business_status":"OPERATIONAL","formatted_address":"Via Principe di Granatelli, 29, 90139 Palermo PA","geometry":{"location":{"lat":38.1241556,"lng":13.3588157},"viewport":{"northeast":{"lat":38.12545827989273,"lng":13.36019472989272},"southwest":{"lat":38.12275862010728,"lng":13.35749507010728}}},"icon":"https://maps.gstatic.com/mapfiles/place_api/icons/v1/png_71/restaurant-71.png","icon_background_color":"#FF9E67","icon_mask_base_uri":"https://maps.gstatic.com/mapfiles/place_api/icons/v2/restaurant_pinlet","name":"Yoshi","opening_hours":{"open_now":true},"photos":[{"height":2336,"html_attributions":["<a href=\"https://maps.google.com/maps/contrib/103919884379848812392\">Carmine CATALANO</a>"],"photo_reference":"AeJbb3do57WJMEDfCYNpeWZUhtRHX8GupILwSSBbt18faGsjMQ6H6_bjDMDsyRfQO-OYNbo8P9eZ3olBgMIGkQAusbl-fgrZeOHs4GEEh6WGu-p6x3vf5ebG-wAMFh13rNco5xm9YBQ1yt-IPvBPtMNUNJQsTmj1M6jwj6yCANm-gRXittRi","width":4160}],"place_id":"ChIJbaSLH_blGRMRGri9MBpphT8","plus_code":{"compound_code":"49F5+MG Palermo, Metropolitan City of Palermo","global_code":"8FCM49F5+MG"},"price_level":2,"rating":4.1,"reference":"ChIJbaSLH_blGRMRGri9MBpphT8","types":["restaurant","food","point_of_interest","establishment"],"user_ratings_total":919},{"business_status":"OPERATIONAL","formatted_address":"Via Francesco Crispi, 56, 90139 Palermo PA","geometry":{"location":{"lat":38.1241951,"lng":13.3639183},"viewport":{"northeast":{"lat":38.12556832989272,"lng":13.36532592989272},"southwest":{"lat":38.12286867010728,"lng":13.36262627010728}}},"icon":"https://maps.gstatic.com/mapfiles/place_api/icons/v1/png_71/restaurant-71.png","icon_background_color":"#FF9E67","icon_mask_base_uri":"https://maps.gstatic.com/mapfiles/place_api/icons/v2/restaurant_pinlet","name":"Gold","opening_hours":{"open_now":true},"photos":[{"height":2448,"html_attributions":["<a href=\"https://maps.google.com/maps/contrib/113495831831309476973\">Ristorante Gold</a>"],"photo_reference":"AeJbb3cPwjXkmttyDKUs0dw5OfSIne2xRPJNgkVR9Xs78jfYMIxhUAT6MO0xruld5RShef8nDouhvjL73fPcpPcNTN1nSAjruwC6x7Y1pCgTWkE1zQsBzZILmhudlu2xI8NpyRb7-xWYLtqtnBkwQXc8UnLPPupMJGf-jZIL8Si71jWu_FGr","width":3264}],"place_id":"ChIJzQN6zPblGRMRzXxRGHmgrPU","plus_code":{"compound_code":"49F7+MH Palermo, Metropolitan City of Palermo","global_code":"8FCM49F7+MH"},"price_level":1,"rating":4.1,"reference":"ChIJzQN6zPblGRMRzXxRGHmgrPU","types":["restaurant","food","point_of_interest","establishment"],"user_ratings_total":884},{"business_status":"OPERATIONAL","formatted_address":"Via Galileo Galilei, 10, 90145 Palermo PA","geometry":{"location":{"lat":38.130273,"lng":13.3345733},"viewport":{"northeast":{"lat":38.13164067989272,"lng":13.33599642989272},"southwest":{"lat":38.12894102010728,"lng":13.33329677010728}}},"icon":"https://maps.gstatic.com/mapfiles/place_api/icons/v1/png_71/restaurant-71.png","icon_background_color":"#FF9E67","icon_mask_base_uri":"https://maps.gstatic.com/mapfiles/place_api/icons/v2/restaurant_pinlet","name":"Yuki Sushi Palermo","opening_hours":{"open_now":true},"photos":[{"height":3264,"html_attributions":["<a href=\"https://maps.google.com/maps/contrib/104016496049143671478\">vincenzo Coronati</a>"],"photo_reference":"AeJbb3eotWQT8T7vQ3twPfV3wQ6QDArmP67mW6N5EhT9vxg_R3JvpuFEjfHsv_gYnsQGO0mvbulCYok7B0ZDDsT_2OyocXPZx32K6LLGLuCypgk845Rw0BAYa5GMbPkj86oAyeheNLt9b-N7x2rRkmhtxAl5ckTfVAOb7CVdvW279GRwtmeI","width":2448}],"place_id":"ChIJ_3MCUUPvGRMRb6PvLgtbajQ","plus_code":{"compound_code":"48JM+4R Palermo, Metropolitan City of Palermo","global_code":"8FCM48JM+4R"},"price_level":2,"rating":4.1,"reference":"ChIJ_3MCUUPvGRMRb6PvLgtbajQ","types":["restaurant","food","point_of_interest","establishment"],"user_ratings_total":639},{"business_status":"OPERATIONAL","formatted_address":"Via Marchese di Villabianca, 179, 90100 Palermo PA","geometry":{"location":{"lat":38.140597,"lng":13.3486677},"viewport":{"northeast":{"lat":38.14189172989273,"lng":13.34999592989272},"southwest":{"lat":38.13919207010728,"lng":13.34729627010728}}},"icon":"https://maps.gstatic.com/mapfiles/place_api/icons/v1/png_71/restaurant-71.png","icon_background_color":"#FF9E67","icon_mask_base_uri":"https://maps.gstatic.com/mapfiles/place_api/icons/v2/restaurant_pinlet","name":"Abbannia","opening_hours":{"open_now":false},"photos":[{"height":3000,"html_attributions":["<a href=\"https://maps.google.com/maps/contrib/103095654101893850722\">Francesco Russo</a>"],"photo_reference":"AeJbb3eqJK7XRsHZDs1MsMVomtCj_RiGNXNJmIfhTHIMjyLme92Dfy7oQn_kL8brKwCQmunzz9-BnSNufZLkW8OlZbsclPcNGIUo_tzFKOpMCRHk8QcmqqdG5vvLwDoWmipQpZ3GCZo9Yls3NIdtMYTFgq4k537-PQ08Z5rpty7O1ucEAKwv","width":4000}],"place_id":"ChIJCYISM7joGRMRi62Y7STCrUY","plus_code":{"compound_code":"48RX+6F Palermo, Metropolitan City of Palermo","global_code":"8FCM48RX+6F"},"price_level":2,"rating":4.1,"reference":"ChIJCYISM7joGRMRi62Y7STCrUY","types":["bar","restaurant","food","point_of_interest","establishment"],"user_ratings_total":285},{"business_status":"OPERATIONAL","formatted_address":"Piazza S. Francesco di Paola, 45, 90138 Palermo PA","geometry":{"location":{"lat":38.1215636,"lng":13.3533939},"viewport":{"northeast":{"lat":38.12285027989272,"lng":13.35473002989272},"southwest":{"lat":38.12015062010728,"lng":13.35203037010728}}},"icon":"https://maps.gstatic.com/mapfiles/place_api/icons/v1/png_71/restaurant-71.png","icon_background_color":"#FF9E67","icon_mask_base_uri":"https://maps.gstatic.com/mapfiles/place_api/icons/v2/restaurant_pinlet","name":"Koy Sushi","opening_hours":{"open_now":false},"photos":[{"height":899,"html_attributions":["<a href=\"https://maps.google.com/maps/contrib/116349158689054047451\">A Google User</a>"],"photo_reference":"AeJbb3ewLslpHPBoMT_vmGWxfDXAzg1St0XWo9Ci5KMrlWOLrCfDfN5o4XASftDXWBQrbWm8n0H3vM2h6TDttng45igwGWh0HoCKJ6XlxDJkj0mJKpAhjsl0WGcLdrzDpUnaEgzo3rH1r1V28PC_NVsl9K-h2Z2QVsFxD8MAle9RwNAv8Fdd","width":1599}],"place_id":"ChIJQaPMpJjvGRMRE5u0CgY4dm0","plus_code":{"compound_code":"49C3+J9 Palermo, Metropolitan City of Palermo","global_code":"8FCM49C3+J9"},"price_level":2,"rating":4.1,"reference":"ChIJQaPMpJjvGRMRE5u0CgY4dm0","types":["restaurant","food","point_of_interest","establishment"],"user_ratings_total":261},{"business_status":"OPERATIONAL","formatted_address":"Via Pasquale Calvi, 2B, 90139 Palermo PA","geometry":{"location":{"lat":38.1298064,"lng":13.3551656},"viewport":{"northeast":{"lat":38.13117057989271,"lng":13.35655407989272},"southwest":{"lat":38.12847092010727,"lng":13.35385442010728}}},"icon":"https://maps.gstatic.com/mapfiles/place_api/icons/v1/png_71/restaurant-71.png","icon_background_color":"#FF9E67","icon_mask_base_uri":"https://maps.gstatic.com/mapfiles/place_api/icons/v2/restaurant_pinlet","name":"Aiko","opening_hours":{"open_now":false},"photos":[{"height":904,"html_attributions":["<a href=\"https://maps.google.com/maps/contrib/109782705597469876664\">Federica Impellitteri</a>"],"photo_reference":"AeJbb3cTA-FgBomoBbFuw83NFBHSaf5gS0ZKS-3KL3OlRp-iFsSMrt1--ONs1vSEKQsNxyuVymuXyBN2dKYv1aRgkVMDirEy6vaVCUSFAeLVsJ3ffJgiaS5-xenfn1jjq7f9mmL8eki9qWDy2pcSUE3bUBbDObENOwZuYafwH3AtxBF9KwYq","width":1080}],"place_id":"ChIJ8zD8DFfvGRMRpmqx1P_dt3g","plus_code":{"compound_code":"49H4+W3 Palermo, Metropolitan City of Palermo","global_code":"8FCM49H4+W3"},"rating":4.1,"reference":"ChIJ8zD8DFfvGRMRpmqx1P_dt3g","types":["restaurant","food","point_of_interest","establishment"],"user_ratings_total":7},{"business_status":"OPERATIONAL","formatted_address":"Via Catania, 44, 90100 Palermo PA","geometry":{"location":{"lat":38.127777,"lng":13.3493647},"viewport":{"northeast":{"lat":38.12915157989273,"lng":13.35066622989272},"southwest":{"lat":38.12645192010729,"lng":13.34796657010728}}},"icon":"https://maps.gstatic.com/mapfiles/place_api/icons/v1/png_71/restaurant-71.png","icon_background_color":"#FF9E67","icon_mask_base_uri":"https://maps.gstatic.com/mapfiles/place_api/icons/v2/restaurant_pinlet","name":"Sal Capone Sushi Club","opening_hours":{"open_now":false},"photos":[{"height":3968,"html_attributions":["<a href=\"https://maps.google.com/maps/contrib/115988279604365014336\">Carmelo Di Salvo</a>"],"photo_reference":"AeJbb3eKZM5wlOAM0WiLMUG7ONG08kPyjt03fyW7unCxYiNIsBxCGbpZKpuW-dViE1wO-XwbPn2fveigShIr_F8i9ga-YB8JSYtJjSib3BKZrDSG0b0Px_qGA6dOtFz_1gzp5XD63JT6FSIGF2L6zsVbFxIF0VJk3xlsxF9iit8O1_uVM3jw","width":2976}],"place_id":"ChIJ5bVX7VrvGRMRKSa_q09T3Vo","plus_code":{"compound_code":"48HX+4P Palermo, Metropolitan City of Palermo","global_code":"8FCM48HX+4P"},"price_level":2,"rating":4,"reference":"ChIJ5bVX7VrvGRMRKSa_q09T3Vo","types":["restaurant","food","point_of_interest","establishment"],"user_ratings_total":725},{"business_status":"OPERATIONAL","formatted_address":"Viale della Regione Siciliana Nord Ovest, 2645, 90146 Palermo PA","geometry":{"location":{"lat":38.1274624,"lng":13.330026},"viewport":{"northeast":{"lat":38.12879837989271,"lng":13.33130052989272},"southwest":{"lat":38.12609872010727,"lng":13.32860087010728}}},"icon":"https://maps.gstatic.com/mapfiles/place_api/icons/v1/png_71/restaurant-71.png","icon_background_color":"#FF9E67","icon_mask_base_uri":"https://maps.gstatic.com/mapfiles/place_api/icons/v2/restaurant_pinlet","name":"Asia","opening_hours":{"open_now":false},"photos":[{"height":3968,"html_attributions":["<a href=\"https://maps.google.com/maps/contrib/113991554936871867907\">Miao Yang</a>"],"photo_reference":"AeJbb3cxb9_9T4OZAegFGH9sAkAZNu9KNZOTaMiNQEv8JIUSXiGoINK5ZCtctrnOErnZ_-K52xsft-89RFSuDhc68fsYGVoszY7S9jAaVIvxklT_FDTQTtU7TptbZgau9oqyiAsu2z0JWqcN0QQYtZh-d2lVUbZlKtTwTppPEafSHejyDTKe","width":2976}],"place_id":"ChIJs-R9bY_vGRMR6BGP4KYQWyk","plus_code":{"compound_code":"48GJ+V2 Palermo, Metropolitan City of Palermo","global_code":"8FCM48GJ+V2"},"price_level":1,"rating":4,"reference":"ChIJs-R9bY_vGRMR6BGP4KYQWyk","types":["restaurant","food","point_of_interest","establishment"],"user_ratings_total":647},{"business_status":"OPERATIONAL","formatted_address":"Via Empedocle Restivo, 90/A, 90144 Palermo PA","geometry":{"location":{"lat":38.1454905,"lng":13.3346749},"viewport":{"northeast":{"lat":38.14689757989272,"lng":13.33616872989272},"southwest":{"lat":38.14419792010727,"lng":13.33346907010728}}},"icon":"https://maps.gstatic.com/mapfiles/place_api/icons/v1/png_71/restaurant-71.png","icon_background_color":"#FF9E67","icon_mask_base_uri":"https://maps.gstatic.com/mapfiles/place_api/icons/v2/restaurant_pinlet","name":"Fujiyama Sushi Bar","opening_hours":{"open_now":false},"photos":[{"height":3024,"html_attributions":["<a href=\"https://maps.google.com/maps/contrib/116714023075919057794\">crash752</a>"],"photo_reference":"AeJbb3cRiPbYwwu__d_Qj_ZnbELuJksXZZX6Xfy0AHoIjtyJvMOnwBWdSe7FHh_Bk8clss6O-zdqkyALsqO3NNlv1n3RWRCr0Y8HeaOeGybp4V9qJ6WxaGoXIFbbPaIn7H_DyqZlZ76V1Fs0H_2bx3jMXYrFOpXw0d1fjG-E4Ds_NAGN-lSu","width":4032}],"place_id":"ChIJmU96BcroGRMRQhXqebFzfn0","plus_code":{"compound_code":"48WM+5R Palermo, Metropolitan City of Palermo","global_code":"8FCM48WM+5R"},"price_level":2,"rating":4,"reference":"ChIJmU96BcroGRMRQhXqebFzfn0","types":["restaurant","food","point_of_interest","establishment"],"user_ratings_total":516},{"business_status":"OPERATIONAL","formatted_address":"P.za Castelnuovo, 49, 90141 Palermo PA","geometry":{"location":{"lat":38.12481,"lng":13.3545869},"viewport":{"northeast":{"lat":38.12611527989272,"lng":13.35596512989272},"southwest":{"lat":38.12341562010727,"lng":13.35326547010728}}},"icon":"https://maps.gstatic.com/mapfiles/place_api/icons/v1/png_71/restaurant-71.png","icon_background_color":"#FF9E67","icon_mask_base_uri":"https://maps.gstatic.com/mapfiles/place_api/icons/v2/restaurant_pinlet","name":"Ristorante Arashi","opening_hours":{"open_now":false},"photos":[{"height":3024,"html_attributions":["<a href=\"https://maps.google.com/maps/contrib/110113539830809927802\">Pei Wang</a>"],"photo_reference":"AeJbb3f3GP2H7AXOIO3CM7RJG1QJLtbUMCnqTiOcCEJc3OK_DRdSXctWvTgXuwfUPQ7r9-2buwQssO5_dnfbb08uwMQHjOoT0hVqtCbH62m9fermJaDAMZuKIER_TMF3uX589kf5IDwfRLSS4e-d97Kal1o5-vbD8PgMz4Dl2T6P_rlCFevS","width":4032}],"place_id":"ChIJEXavFrHvGRMRYj7NXyuNBwM","plus_code":{"compound_code":"49F3+WR Palermo, Metropolitan City of Palermo","global_code":"8FCM49F3+WR"},"price_level":2,"rating":4,"reference":"ChIJEXavFrHvGRMRYj7NXyuNBwM","types":["restaurant","food","point_of_interest","establishment"],"user_ratings_total":443},{"business_status":"OPERATIONAL","formatted_address":"Via Giorgio Castriota, 2, 90139 Palermo PA","geometry":{"location":{"lat":38.1294269,"lng":13.3543792},"viewport":{"northeast":{"lat":38.13078572989272,"lng":13.35582767989272},"southwest":{"lat":38.12808607010728,"lng":13.35312802010728}}},"icon":"https://maps.gstatic.com/mapfiles/place_api/icons/v1/png_71/restaurant-71.png","icon_background_color":"#FF9E67","icon_mask_base_uri":"https://maps.gstatic.com/mapfiles/place_api/icons/v2/restaurant_pinlet","name":"ishi","opening_hours":{"open_now":true},"photos":[{"height":2583,"html_attributions":["<a href=\"https://maps.google.com/maps/contrib/112748343262588584090\">Tiziana Romano</a>"],"photo_reference":"AeJbb3cYALYZFSGOhjizlnoCt6Rzm0FMiWXriOJM9TroMr9o0nWsrW6rGIwcrAJGJLQAJ4dNnOMLPadbmk0NyWS6_fB8RXvBsZquIb9E1U7CccSohPKgYeXCLuxCnLjGQypQcvr1rY8_f3bMrfBl1go3m_Mht5Ezvr4fZgnHIgz4QsqBkMcL","width":2581}],"place_id":"ChIJL5iMPlfvGRMRqMaKTWU6K2E","plus_code":{"compound_code":"49H3+QQ Palermo, Metropolitan City of Palermo","global_code":"8FCM49H3+QQ"},"rating":4,"reference":"ChIJL5iMPlfvGRMRqMaKTWU6K2E","types":["restaurant","food","point_of_interest","establishment"],"user_ratings_total":111},{"business_status":"OPERATIONAL","formatted_address":"Via Isidoro la Lumia, 51, 90139 Palermo PA","geometry":{"location":{"lat":38.1284473,"lng":13.3553617},"viewport":{"northeast":{"lat":38.12977132989273,"lng":13.35664757989272},"southwest":{"lat":38.12707167010728,"lng":13.35394792010728}}},"icon":"https://maps.gstatic.com/mapfiles/place_api/icons/v1/png_71/restaurant-71.png","icon_background_color":"#FF9E67","icon_mask_base_uri":"https://maps.gstatic.com/mapfiles/place_api/icons/v2/restaurant_pinlet","name":"Troppo","opening_hours":{"open_now":false},"photos":[{"height":4032,"html_attributions":["<a href=\"https://maps.google.com/maps/contrib/111762706338813971879\">Ninni Novello</a>"],"photo_reference":"AeJbb3cCiesJdN0EzgBm35LOCaovRZERkvrMIAtxQfKRlcPRYS8ClVXE3i52uDj3VhexGWE11ndTlogqaTNqy6umVcHcOu6SGGUm6myJKtz8XRewTRY1xu3XlMu-h42mWpyeL6i0I5eOKemjK81R16JnNLYtA3Q-wYOGL0Th7tEgREgEOSH0","width":3024}],"place_id":"ChIJiSfP1lnvGRMRubjQ-KPMT4M","plus_code":{"compound_code":"49H4+94 Palermo, Metropolitan City of Palermo","global_code":"8FCM49H4+94"},"rating":4,"reference":"ChIJiSfP1lnvGRMRubjQ-KPMT4M","types":["restaurant","food","point_of_interest","establishment"],"user_ratings_total":83},{"business_status":"OPERATIONAL","formatted_address":"Via Maggiore Pietro Toselli, 32, 90143 Palermo PA","geometry":{"location":{"lat":38.136609,"lng":13.3520753},"viewport":{"northeast":{"lat":38.13798507989272,"lng":13.35349062989272},"southwest":{"lat":38.13528542010727,"lng":13.35079097010728}}},"icon":"https://maps.gstatic.com/mapfiles/place_api/icons/v1/png_71/restaurant-71.png","icon_background_color":"#FF9E67","icon_mask_base_uri":"https://maps.gstatic.com/mapfiles/place_api/icons/v2/restaurant_pinlet","name":"IDA SUSHI","opening_hours":{"open_now":true},"photos":[{"height":2976,"html_attributions":["<a href=\"https://maps.google.com/maps/contrib/107042860453844687849\">A Google User</a>"],"photo_reference":"AeJbb3fSU1SNccByc46USOOXfeOwPDP6F908uhNy04A2Gm4H3UuVWR4knW6rzy2o1XUqMKjElhdkPOlLFph4c3sDOkWwnyHOMsIUlcQVfR9YE23-5iD4uPaJbmORy-yuMSXlmPFDA5IuKfqAQWqQPho3fBjlJBwRr4d8qZ8GMoLgV6Q68zzw","width":3968}],"place_id":"ChIJKWlwnMPvGRMRvrz3kG8ltPU","plus_code":{"compound_code":"49P2+JR Palermo, Metropolitan City of Palermo","global_code":"8FCM49P2+JR"},"rating":4,"reference":"ChIJKWlwnMPvGRMRvrz3kG8ltPU","types":["restaurant","food","point_of_interest","establishment"],"user_ratings_total":47},{"business_status":"OPERATIONAL","formatted_address":"Via Michele Amari, 24, 90139 Palermo PA","geometry":{"location":{"lat":38.1247768,"lng":13.3596698},"viewport":{"northeast":{"lat":38.12615167989272,"lng":13.36107722989272},"southwest":{"lat":38.12345202010727,"lng":13.35837757010728}}},"icon":"https://maps.gstatic.com/mapfiles/place_api/icons/v1/png_71/restaurant-71.png","icon_background_color":"#FF9E67","icon_mask_base_uri":"https://maps.gstatic.com/mapfiles/place_api/icons/v2/restaurant_pinlet","name":"Hong Kong Sushi & Ristorante Cinese","opening_hours":{"open_now":false},"photos":[{"height":2988,"html_attributions":["<a href=\"https://maps.google.com/maps/contrib/108142394213944656204\">The Wolf Official</a>"],"photo_reference":"AeJbb3fvBHGHiDR6oEZOraZfBN6x3jSyp91vKx2mhvmPTrR975UkxCzKahdSh-dfrBIT3Fcq9HEXy0s25LTGXRj-jogo7UfuB65P7gMq7AY779X7jq4s_njz-wlVBCEiZbDGhwqTxum9hzJux2ON5AkHI9r6wBHpy2Iyh_Ny3N-T6I-tSSVe","width":5312}],"place_id":"ChIJrSR1MfblGRMRJmgPgERAwrk","plus_code":{"compound_code":"49F5+WV Palermo, Metropolitan City of Palermo","global_code":"8FCM49F5+WV"},"price_level":1,"rating":3.7,"reference":"ChIJrSR1MfblGRMRJmgPgERAwrk","types":["restaurant","food","point_of_interest","establishment"],"user_ratings_total":364},{"business_status":"OPERATIONAL","formatted_address":"Via Cavour, 149, 90133 Palermo PA","geometry":{"location":{"lat":38.1216077,"lng":13.3584945},"viewport":{"northeast":{"lat":38.12285612989272,"lng":13.35988312989272},"southwest":{"lat":38.12015647010728,"lng":13.35718347010728}}},"icon":"https://maps.gstatic.com/mapfiles/place_api/icons/v1/png_71/restaurant-71.png","icon_background_color":"#FF9E67","icon_mask_base_uri":"https://maps.gstatic.com/mapfiles/place_api/icons/v2/restaurant_pinlet","name":"Wok Royal 149 - All You Can Eat","opening_hours":{"open_now":true},"photos":[{"height":1960,"html_attributions":["<a href=\"https://maps.google.com/maps/contrib/113334944786368951330\">Francesco Agliuzza</a>"],"photo_reference":"AeJbb3fcmRCpXp_Afiyi7gUuTE9KhY7juo00d0uzKvNC9MwxjpPW182l781kfJNGsUVUQVtBDsFk-Yb7Aq5H-Ah-9XFdhpnTJclrQbPrsHlV9bisl4nrqrC1VPnye1y06fJ3Xd8zGP3ShkO8rJaaUzSBjgdbbBPgrfrtZBXOemEfb0YPtCa7","width":4032}],"place_id":"ChIJ22fP-H_vGRMR7yWpIPUcGIs","plus_code":{"compound_code":"49C5+J9 Palermo, Metropolitan City of Palermo","global_code":"8FCM49C5+J9"},"rating":3.4,"reference":"ChIJ22fP-H_vGRMR7yWpIPUcGIs","types":["restaurant","food","point_of_interest","establishment"],"user_ratings_total":58},{"business_status":"OPERATIONAL","formatted_address":"Via Roma, 68, 90133 Palermo PA","geometry":{"location":{"lat":38.1127437,"lng":13.3653791},"viewport":{"northeast":{"lat":38.11410947989272,"lng":13.36678012989272},"southwest":{"lat":38.11140982010727,"lng":13.36408047010728}}},"icon":"https://maps.gstatic.com/mapfiles/place_api/icons/v1/png_71/restaurant-71.png","icon_background_color":"#FF9E67","icon_mask_base_uri":"https://maps.gstatic.com/mapfiles/place_api/icons/v2/restaurant_pinlet","name":"Fusion","opening_hours":{"open_now":false},"photos":[{"height":2620,"html_attributions":["<a href=\"https://maps.google.com/maps/contrib/106575458801971101112\">Yakubu Suleman</a>"],"photo_reference":"AeJbb3dj6ggHx6S9BgZr6ULzXzzOzjyWYV-R7D2J6tYf7smTudyitdFtIxng23r3R5rghUamAjHFHDsZNdH-AaN05qwMkm66ILoQZrQqhAk8vUoHY8mNu-qNKP7OEo211IxdF5SYdM2zhPME4FJBW1K8IyPwDrlEeM-WVEwa-pyTI_eS58py","width":4656}],"place_id":"ChIJD2-fE4zlGRMRMUkbPgy9PbA","plus_code":{"compound_code":"4978+34 Palermo, Metropolitan City of Palermo","global_code":"8FCM4978+34"},"rating":3,"reference":"ChIJD2-fE4zlGRMRMUkbPgy9PbA","types":["restaurant","food","point_of_interest","establishment"],"user_ratings_total":5},{"business_status":"OPERATIONAL","formatted_address":"Via Francesco Guardione, 14, 90139 Palermo PA","geometry":{"location":{"lat":38.1234706,"lng":13.3630836},"viewport":{"northeast":{"lat":38.12484067989273,"lng":13.36441287989272},"southwest":{"lat":38.12214102010729,"lng":13.36171322010728}}},"icon":"https://maps.gstatic.com/mapfiles/place_api/icons/v1/png_71/restaurant-71.png","icon_background_color":"#FF9E67","icon_mask_base_uri":"https://maps.gstatic.com/mapfiles/place_api/icons/v2/restaurant_pinlet","name":"Ristorante Sushi Bar Chan","opening_hours":{"open_now":false},"place_id":"ChIJk3TTv_blGRMRQt992VNkXbc","plus_code":{"compound_code":"49F7+96 Palermo, Metropolitan City of Palermo","global_code":"8FCM49F7+96"},"rating":3,"reference":"ChIJk3TTv_blGRMRQt992VNkXbc","types":["bar","restaurant","food","point_of_interest","establishment"],"user_ratings_total":3},{"business_status":"OPERATIONAL","formatted_address":"Via Messina, 38, 90141 Palermo PA","geometry":{"location":{"lat":38.1260973,"lng":13.3517746},"viewport":{"northeast":{"lat":38.12746612989272,"lng":13.35311067989272},"southwest":{"lat":38.12476647010727,"lng":13.35041102010728}}},"icon":"https://maps.gstatic.com/mapfiles/place_api/icons/v1/png_71/restaurant-71.png","icon_background_color":"#FF9E67","icon_mask_base_uri":"https://maps.gstatic.com/mapfiles/place_api/icons/v2/restaurant_pinlet","name":"Fusion Sushi","place_id":"ChIJVVVxy1vvGRMR3t0U8m5hiy8","plus_code":{"compound_code":"49G2+CP Palermo, Metropolitan City of Palermo","global_code":"8FCM49G2+CP"},"rating":0,"reference":"ChIJVVVxy1vvGRMR3t0U8m5hiy8","types":["restaurant","food","point_of_interest","establishment"],"user_ratings_total":0},{"business_status":"OPERATIONAL","formatted_address":"Via Francesco Maurolico, 13, 90127 Palermo PA","geometry":{"location":{"lat":38.1097237,"lng":13.3657565},"viewport":{"northeast":{"lat":38.11116062989272,"lng":13.36708232989272},"southwest":{"lat":38.10846097010727,"lng":13.36438267010728}}},"icon":"https://maps.gstatic.com/mapfiles/place_api/icons/v1/png_71/restaurant-71.png","icon_background_color":"#FF9E67","icon_mask_base_uri":"https://maps.gstatic.com/mapfiles/place_api/icons/v2/restaurant_pinlet","name":"Hua Qiao Sushi","opening_hours":{"open_now":false},"place_id":"ChIJ2Sonw47lGRMRcZWdOonj4J0","plus_code":{"compound_code":"4958+V8 Palermo, Metropolitan City of Palermo","global_code":"8FCM4958+V8"},"rating":0,"reference":"ChIJ2Sonw47lGRMRcZWdOonj4J0","types":["restaurant","food","point_of_interest","establishment"],"user_ratings_total":0},{"business_status":"OPERATIONAL","formatted_address":"Piazza Unità d'Italia, 10, 90146 Palermo PA","geometry":{"location":{"lat":38.1388738,"lng":13.3436819},"viewport":{"northeast":{"lat":38.14024902989273,"lng":13.34498007989272},"southwest":{"lat":38.13754937010729,"lng":13.34228042010728}}},"icon":"https://maps.gstatic.com/mapfiles/place_api/icons/v1/png_71/restaurant-71.png","icon_background_color":"#FF9E67","icon_mask_base_uri":"https://maps.gstatic.com/mapfiles/place_api/icons/v2/restaurant_pinlet","name":"RISTORANTE GIAPPONESE PALERMO PLAZA","place_id":"ChIJh_j_50zvGRMRYdLkvflNGR0","plus_code":{"compound_code":"48QV+GF Palermo, Metropolitan City of Palermo","global_code":"8FCM48QV+GF"},"rating":0,"reference":"ChIJh_j_50zvGRMRYdLkvflNGR0","types":["restaurant","food","point_of_interest","establishment"],"user_ratings_total":0}]