[{"business_status":"OPERATIONAL","formatted_address":"Wega 1, 3297 VK Puttershoek","geometry":{"location":{"lat":51.803315,"lng":4.567203699999999},"viewport":{"northeast":{"lat":51.80493257989273,"lng":4.568480529892721},"southwest":{"lat":51.80223292010728,"lng":4.565780870107277}}},"icon":"https://maps.gstatic.com/mapfiles/place_api/icons/v1/png_71/restaurant-71.png","icon_background_color":"#FF9E67","icon_mask_base_uri":"https://maps.gstatic.com/mapfiles/place_api/icons/v2/restaurant_pinlet","name":"Maison Vietnamese Specialiteiten","opening_hours":{"open_now":true},"place_id":"ChIJ0a0TYNQvxEcRCWD5lcgY2Dk","plus_code":{"compound_code":"RH38+8V Puttershoek","global_code":"9F36RH38+8V"},"rating":5,"reference":"ChIJ0a0TYNQvxEcRCWD5lcgY2Dk","types":["restaurant","food","point_of_interest","establishment"],"user_ratings_total":1},{"business_status":"OPERATIONAL","formatted_address":"Aart van der Leeuwlaan, 2624 PK Delft","geometry":{"location":{"lat":51.9965317,"lng":4.3501177},"viewport":{"northeast":{"lat":51.99789077989271,"lng":4.351523479892721},"southwest":{"lat":51.99519112010727,"lng":4.348823820107278}}},"icon":"https://maps.gstatic.com/mapfiles/place_api/icons/v1/png_71/restaurant-71.png","icon_background_color":"#FF9E67","icon_mask_base_uri":"https://maps.gstatic.com/mapfiles/place_api/icons/v2/restaurant_pinlet","name":"Tan Vietnamese Snacks","opening_hours":{"open_now":true},"photos":[{"height":3024,"html_attributions":["<a href=\"https://maps.google.com/maps/contrib/117157082197841658352\">Ika Bee</a>"],"photo_reference":"AeJbb3dHcoX-txrBMP46K9HYos77yf9eqZS5irYczPWoAmuHmNe1iEE9S-2ScwY56FLSb5bvNjpxeArLD4mmEtC90w5kN2J2wHLt3qfDtAVIl7tGt0OblA4ZtvyxAZh8Rc1x0yf0gcvq7gL5rJCCp625yFWXipSU5zxjUU9RNNJnXxfyKSY","width":4032}],"place_id":"ChIJu1GtALC1xUcR2R0Ef37w0CU","plus_code":{"compound_code":"X9W2+J2 Delft","global_code":"9F36X9W2+J2"},"rating":4.9,"reference":"ChIJu1GtALC1xUcR2R0Ef37w0CU","types":["restaurant","food","point_of_interest","establishment"],"user_ratings_total":23},{"business_status":"OPERATIONAL","formatted_address":"Voorstraat 349, 3311 CT Dordrecht","geometry":{"location":{"lat":51.8141526,"lng":4.6652436},"viewport":{"northeast":{"lat":51.81552202989273,"lng":4.666645529892722},"southwest":{"lat":51.81282237010728,"lng":4.663945870107278}}},"icon":"https://maps.gstatic.com/mapfiles/place_api/icons/v1/png_71/restaurant-71.png","icon_background_color":"#FF9E67","icon_mask_base_uri":"https://maps.gstatic.com/mapfiles/place_api/icons/v2/restaurant_pinlet","name":"Xian Tran Vietnamese spring rolls","opening_hours":{"open_now":true},"photos":[{"height":2117,"html_attributions":["<a href=\"https://maps.google.com/maps/contrib/102663108446016120287\">J.F.TIRADOR</a>"],"photo_reference":"AeJbb3c4TmX-kdNmf57aEunAsAiU5tp7jihQVfVlqf5gknIOauSYwhfGOYfrcOdiVcUVC1yaLrft9H_Q6wLI2dDLevjXwVCkpQqXzYK1p4wM_-7h0OMY5Nqv2yXiVlFP3a7p06jxezCV7M3UiYpRidQcdFsQxtGBy-ikiQDnbvP1UsVgcsbu","width":2680}],"place_id":"ChIJaYUlDc0uxEcRtGfZ7Qu0Buc","plus_code":{"compound_code":"RM78+M3 Dordrecht","global_code":"9F36RM78+M3"},"rating":4.8,"reference":"ChIJaYUlDc0uxEcRtGfZ7Qu0Buc","types":["meal_takeaway","restaurant","food","point_of_interest","establishment"],"user_ratings_total":12},{"business_status":"OPERATIONAL","formatted_address":"Karel Doormanstraat, Binnenwegplein 35, 3012 KA Rotterdam","geometry":{"location":{"lat":51.9179059,"lng":4.476967699999999},"viewport":{"northeast":{"lat":51.91929717989272,"lng":4.478233229892722},"southwest":{"lat":51.91659752010728,"lng":4.475533570107278}}},"icon":"https://maps.gstatic.com/mapfiles/place_api/icons/v1/png_71/restaurant-71.png","icon_background_color":"#FF9E67","icon_mask_base_uri":"https://maps.gstatic.com/mapfiles/place_api/icons/v2/restaurant_pinlet","name":"Vietnamese Loempia tent","opening_hours":{"open_now":false},"photos":[{"height":800,"html_attributions":["<a href=\"https://maps.google.com/maps/contrib/102910846283674538039\">A Google User</a>"],"photo_reference":"AeJbb3fUHEHz-n0JBuWEY2F-m_ym_k-NEIPaE3mwkjVUgXWmIOLokkT6DUyo74wVdUrMw-iXiQPN5dbkBAvYF4ruRYE3hmSJicolrzd4QjghWUw8QzzeOXx4flRR7d_nRON8gKJ3tHTXja2n64-pTjAe96TF7-QH8YXNhTylqvlhLUgwf7Id","width":1200}],"place_id":"ChIJLY9ZsGw1xEcRhXnS12HIHyY","plus_code":{"compound_code":"WF9G+5Q Rotterdam","global_code":"9F36WF9G+5Q"},"rating":4.8,"reference":"ChIJLY9ZsGw1xEcRhXnS12HIHyY","types":["restaurant","food","point_of_interest","establishment"],"user_ratings_total":6},{"business_status":"OPERATIONAL","formatted_address":"Promenade 101, 113 Zoetermeer","geometry":{"location":{"lat":52.0610495,"lng":4.4895421},"viewport":{"northeast":{"lat":52.06224442989273,"lng":4.490731229892722},"southwest":{"lat":52.05954477010728,"lng":4.488031570107278}}},"icon":"https://maps.gstatic.com/mapfiles/place_api/icons/v1/png_71/restaurant-71.png","icon_background_color":"#FF9E67","icon_mask_base_uri":"https://maps.gstatic.com/mapfiles/place_api/icons/v2/restaurant_pinlet","name":"Vietnamese Loempia's Kraam","photos":[{"height":4608,"html_attributions":["<a href=\"https://maps.google.com/maps/contrib/100622199732773376975\">Kevin Schipper</a>"],"photo_reference":"AeJbb3c00ebrkbMhwkd7KUvq658XmPTWN2CSHIq3T3WcD3yRXKnLzQy6jJNlBz9vvrBjJaPSdDQFROvncZ8dbdvhezwQ4gGtIG12nTPOVQXbyFpehbYBvY-Yc6xwVNw1Pbhciv6eHnNfMPJvskzya0TxEy6q_BBnsZqbeZNVQkFmKQkSBVrJ","width":3456}],"place_id":"ChIJ1XotWijJxUcRVmGkzh1Ooz4","plus_code":{"compound_code":"3F6Q+CR Zoetermeer","global_code":"9F463F6Q+CR"},"rating":4.8,"reference":"ChIJ1XotWijJxUcRVmGkzh1Ooz4","types":["restaurant","food","point_of_interest","establishment"],"user_ratings_total":5},{"business_status":"OPERATIONAL","formatted_address":"Cor Kieboomplein 512, 3077 MG Rotterdam","geometry":{"location":{"lat":51.8964224,"lng":4.5246835},"viewport":{"northeast":{"lat":51.89778247989272,"lng":4.525977729892722},"southwest":{"lat":51.89508282010728,"lng":4.523278070107278}}},"icon":"https://maps.gstatic.com/mapfiles/place_api/icons/v1/png_71/cafe-71.png","icon_background_color":"#FF9E67","icon_mask_base_uri":"https://maps.gstatic.com/mapfiles/place_api/icons/v2/cafe_pinlet","name":"Saigon King","opening_hours":{"open_now":true},"photos":[{"height":1200,"html_attributions":["<a href=\"https://maps.google.com/maps/contrib/114831972084079741566\">A Google User</a>"],"photo_reference":"AeJbb3dU49uwQRq64sma8c43WrUs3RxczbkSMe0wVSeRG6p0-jvly-6umPbEbc5Ah0vSwW06cXgfCheX6GI4y-idbvcRn2-bHMlW3oc0zygjR8ZYaYRwKuo4nXDcdrUO9n7O_2-qWfT78h4JeTt72l89wZqT3m_WQKU_1uZVNZP7fmQ6aFRE","width":1600}],"place_id":"ChIJdbVIKls1xEcRBOTGUY-JMSY","plus_code":{"compound_code":"VGWF+HV Rotterdam","global_code":"9F36VGWF+HV"},"rating":4.7,"reference":"ChIJdbVIKls1xEcRBOTGUY-JMSY","types":["cafe","meal_takeaway","restaurant","food","point_of_interest","establishment"],"user_ratings_total":60},{"business_status":"OPERATIONAL","formatted_address":"Dijkshoornseweg 2, 2635 EP Den Hoorn","geometry":{"location":{"lat":51.9998561,"lng":4.3307985},"viewport":{"northeast":{"lat":52.00121262989272,"lng":4.332053229892721},"southwest":{"lat":51.99851297010728,"lng":4.329353570107277}}},"icon":"https://maps.gstatic.com/mapfiles/place_api/icons/v1/png_71/restaurant-71.png","icon_background_color":"#FF9E67","icon_mask_base_uri":"https://maps.gstatic.com/mapfiles/place_api/icons/v2/restaurant_pinlet","name":"Le Thi","opening_hours":{"open_now":true},"place_id":"ChIJEXv0fEy0xUcRo3FhNW-AXDU","plus_code":{"compound_code":"X8XJ+W8 Den Hoorn","global_code":"9F36X8XJ+W8"},"rating":4.7,"reference":"ChIJEXv0fEy0xUcRo3FhNW-AXDU","types":["restaurant","food","point_of_interest","establishment"],"user_ratings_total":3},{"business_status":"OPERATIONAL","formatted_address":"Botersloot 60A, 3011 HJ Rotterdam","geometry":{"location":{"lat":51.9218474,"lng":4.4882845},"viewport":{"northeast":{"lat":51.92323247989272,"lng":4.489542329892721},"southwest":{"lat":51.92053282010728,"lng":4.486842670107277}}},"icon":"https://maps.gstatic.com/mapfiles/place_api/icons/v1/png_71/restaurant-71.png","icon_background_color":"#FF9E67","icon_mask_base_uri":"https://maps.gstatic.com/mapfiles/place_api/icons/v2/restaurant_pinlet","name":"Boguette","opening_hours":{"open_now":true},"photos":[{"height":4032,"html_attributions":["<a href=\"https://maps.google.com/maps/contrib/103116868281948753202\">Minh Ha</a>"],"photo_reference":"AeJbb3dqfAehzZv-AJ3Qhe-V2kfqV2mm_gLEZRxWiaCHm5mVl-PAfjao2p4tanh0kaHGvT0809le_5qzkbkxcq3qzqaqs74hvuBUzY9xa59yQW4b_qFkmhZ140OCSyY2fP5N0gr_Mv1wHM3cvF7B31CzJGOjqXoI47eH2hbB2_AXF-o5VdgB","width":3024}],"place_id":"ChIJUQruDVszxEcRBjs5a9_7q_E","plus_code":{"compound_code":"WFCQ+P8 Rotterdam","global_code":"9F36WFCQ+P8"},"price_level":2,"rating":4.6,"reference":"ChIJUQruDVszxEcRBjs5a9_7q_E","types":["meal_takeaway","restaurant","food","point_of_interest","store","establishment"],"user_ratings_total":368},{"business_status":"OPERATIONAL","formatted_address":"Botersloot 18A, 3011 HG Rotterdam","geometry":{"location":{"lat":51.9232879,"lng":4.4865688},"viewport":{"northeast":{"lat":51.92459902989273,"lng":4.487900029892721},"southwest":{"lat":51.92189937010728,"lng":4.485200370107277}}},"icon":"https://maps.gstatic.com/mapfiles/place_api/icons/v1/png_71/restaurant-71.png","icon_background_color":"#FF9E67","icon_mask_base_uri":"https://maps.gstatic.com/mapfiles/place_api/icons/v2/restaurant_pinlet","name":"Noo.Me","opening_hours":{"open_now":false},"photos":[{"height":3024,"html_attributions":["<a href=\"https://maps.google.com/maps/contrib/112813929808610820395\">Sharlene Alsahil</a>"],"photo_reference":"AeJbb3e-UzU5ck-hH0K9JQbpcHFMNpAmA1hHWxYRovyfl7dN6a8GzRCjIfJHmnCYcj-m-ixbLSycHTTl4G2hiPqqp1ENOXtiV3y1j_onXLT3qGi09R00uFv6gU-H-5JJKdUQK9_Po_oFC9H1XpmmxCrVHV8hxf-NM_l8hIbPQ3IUqn6oy3PV","width":4032}],"place_id":"ChIJObEeTFozxEcRR6DygeU4gxE","plus_code":{"compound_code":"WFFP+8J Rotterdam","global_code":"9F36WFFP+8J"},"price_level":2,"rating":4.6,"reference":"ChIJObEeTFozxEcRR6DygeU4gxE","types":["restaurant","food","point_of_interest","establishment"],"user_ratings_total":278},{"business_status":"OPERATIONAL","formatted_address":"Plaats 17, 2711 AW Zoetermeer","geometry":{"location":{"lat":52.0614948,"lng":4.4875885},"viewport":{"northeast":{"lat":52.06278072989272,"lng":4.489246729892721},"southwest":{"lat":52.06008107010727,"lng":4.486547070107277}}},"icon":"https://maps.gstatic.com/mapfiles/place_api/icons/v1/png_71/restaurant-71.png","icon_background_color":"#FF9E67","icon_mask_base_uri":"https://maps.gstatic.com/mapfiles/place_api/icons/v2/restaurant_pinlet","name":"Bonjour Vietnam","opening_hours":{"open_now":true},"photos":[{"height":1152,"html_attributions":["<a href=\"https://maps.google.com/maps/contrib/113277621688477984025\">Ferry Ratelband</a>"],"photo_reference":"AeJbb3c3VVsHlhywWM1lrO5jRYa7COsTVpG3iheHpx1W_a6B5Smy4zvrB2m0qL-OLEEsQOgCyUsklT9iR2Qnq3nPsT92L3LcSOZfAOPE66Zapn_kvvWJjQemimztA1IfF2uq_hrvc5EzYjcP0j0wnH-fpaIRtkxFuo8GZoXwEsjJ19zPnY9n","width":2048}],"place_id":"ChIJ-9zZeSjJxUcRxyubLSOtn1o","plus_code":{"compound_code":"3F6Q+H2 Zoetermeer","global_code":"9F463F6Q+H2"},"price_level":2,"rating":4.5,"reference":"ChIJ-9zZeSjJxUcRxyubLSOtn1o","types":["restaurant","food","point_of_interest","establishment"],"user_ratings_total":301},{"business_status":"OPERATIONAL","formatted_address":"Kievit, Voorhof, 2624 AN Delft","geometry":{"location":{"lat":51.9985769,"lng":4.3537006},"viewport":{"northeast":{"lat":51.99991927989272,"lng":4.354968929892721},"southwest":{"lat":51.99721962010727,"lng":4.352269270107277}}},"icon":"https://maps.gstatic.com/mapfiles/place_api/icons/v1/png_71/restaurant-71.png","icon_background_color":"#FF9E67","icon_mask_base_uri":"https://maps.gstatic.com/mapfiles/place_api/icons/v2/restaurant_pinlet","name":"New Saigon Snacks","opening_hours":{"open_now":true},"photos":[{"height":1080,"html_attributions":["<a href=\"https://maps.google.com/maps/contrib/107964617147353087507\">Jilian Schoonhoven</a>"],"photo_reference":"AeJbb3dqyWea-_BvQgQqb5fLWQFcLBQfQtvYdvyEVNOZP4Qzhj7PBQVSNdGNKA15pCnbw76t3qDlyAjw0w6q4knQiYqYCPxVV6ypZY9kS8LifMHesQ2vpUO4la8YTjrAh9yuGKkw5a2SWMpMp2qNk_l34k5n2A4-vNBKpI7FddBRM69Um31a","width":1920}],"place_id":"ChIJb8vGDry1xUcRjNZ-VeREy-8","plus_code":{"compound_code":"X9X3+CF Delft","global_code":"9F36X9X3+CF"},"rating":4.5,"reference":"ChIJb8vGDry1xUcRjNZ-VeREy-8","types":["restaurant","food","point_of_interest","establishment"],"user_ratings_total":15},{"business_status":"OPERATIONAL","formatted_address":"Grotekerkplein 109, 3011 GC Rotterdam","geometry":{"location":{"lat":51.9218977,"lng":4.4845935},"viewport":{"northeast":{"lat":51.92321917989272,"lng":4.485830029892721},"southwest":{"lat":51.92051952010728,"lng":4.483130370107277}}},"icon":"https://maps.gstatic.com/mapfiles/place_api/icons/v1/png_71/restaurant-71.png","icon_background_color":"#FF9E67","icon_mask_base_uri":"https://maps.gstatic.com/mapfiles/place_api/icons/v2/restaurant_pinlet","name":"Little V Rotterdam","opening_hours":{"open_now":true},"photos":[{"height":3120,"html_attributions":["<a href=\"https://maps.google.com/maps/contrib/116479874541884915558\">Jeroen Versteeg</a>"],"photo_reference":"AeJbb3fnQ5u9V06SISrwtSrLH14fXPZxLilvlwUF7dkd2GAxMgyXj5Wn82jw6akGSUnDM0B6SlbieetzFvIJptjboYu5HLWwLTEGJOywQJ_WHuW621UZTCxIMx-Pi122bnmG3C4Yb0XRXSM5xurSiQnNM9RMCjmo7xG29I2cNsOA9YjL-TTU","width":4160}],"place_id":"ChIJ0WaV5FszxEcRkvvAAkPEp5Q","plus_code":{"compound_code":"WFCM+QR Rotterdam","global_code":"9F36WFCM+QR"},"price_level":2,"rating":4.4,"reference":"ChIJ0WaV5FszxEcRkvvAAkPEp5Q","types":["restaurant","food","point_of_interest","establishment"],"user_ratings_total":2618},{"business_status":"OPERATIONAL","formatted_address":"Zuidplein 88, 3083 CW Rotterdam","geometry":{"location":{"lat":51.8881835,"lng":4.4881554},"viewport":{"northeast":{"lat":51.88948932989272,"lng":4.489719479892722},"southwest":{"lat":51.88678967010727,"lng":4.487019820107278}}},"icon":"https://maps.gstatic.com/mapfiles/place_api/icons/v1/png_71/restaurant-71.png","icon_background_color":"#FF9E67","icon_mask_base_uri":"https://maps.gstatic.com/mapfiles/place_api/icons/v2/restaurant_pinlet","name":"MeMe Vietnamese Food","opening_hours":{"open_now":true},"photos":[{"height":3024,"html_attributions":["<a href=\"https://maps.google.com/maps/contrib/102059143739030855868\">Martijn Rijk</a>"],"photo_reference":"AeJbb3cPSxWFyvDMJzBpIJSQkF7-uB5YTY8ePAjsftTa6ab85Q_h6w28H_bxcZdxV0LWReLb-jNhnlzrDyQ4xRl9oVUE8tmVcjI74lc69DJHjqVyPPUAKO0Yc0eBmRj-9N47oHNJbMKuylF-xXsfN2VU4UJuqVCq7jFT7OtRldcSjiyp47rh","width":4032}],"place_id":"ChIJLap2fJszxEcRsFmCGNzNygI","plus_code":{"compound_code":"VFQQ+77 Rotterdam","global_code":"9F36VFQQ+77"},"rating":4.4,"reference":"ChIJLap2fJszxEcRsFmCGNzNygI","types":["restaurant","food","point_of_interest","establishment"],"user_ratings_total":246},{"business_status":"OPERATIONAL","formatted_address":"Schiedamse Vest 56, 3011 BD Rotterdam","geometry":{"location":{"lat":51.9166637,"lng":4.4802897},"viewport":{"northeast":{"lat":51.91807402989272,"lng":4.481797129892723},"southwest":{"lat":51.91537437010728,"lng":4.479097470107279}}},"icon":"https://maps.gstatic.com/mapfiles/place_api/icons/v1/png_71/restaurant-71.png","icon_background_color":"#FF9E67","icon_mask_base_uri":"https://maps.gstatic.com/mapfiles/place_api/icons/v2/restaurant_pinlet","name":"Madame saigon","opening_hours":{"open_now":true},"photos":[{"height":812,"html_attributions":["<a href=\"https://maps.google.com/maps/contrib/110721189362230221109\">A Google User</a>"],"photo_reference":"AeJbb3ca-V5fd0Cc0YhbgDqrNAjY7dFKVjbeEzrgY7BbrBs-RSLo1-Z7kOqi2BwQrNdU4hwSq49DShreqvzf0oZi0cTd-t05AxKMXkpii7kZX8xSVNXQIMBFaQGATN5trHHqj_sK0JTcnkdT3gX9YtIiQNsgeYDeFC8LVBijou9-Dhz6zX1e","width":656}],"place_id":"ChIJbctHP4kzxEcRrNGAG14I1a0","plus_code":{"compound_code":"WF8J+M4 Rotterdam","global_code":"9F36WF8J+M4"},"rating":4.4,"reference":"ChIJbctHP4kzxEcRrNGAG14I1a0","types":["restaurant","food","point_of_interest","establishment"],"user_ratings_total":21},{"business_status":"OPERATIONAL","formatted_address":"Botersloot 58A, 3011 HJ Rotterdam","geometry":{"location":{"lat":51.9218831,"lng":4.4882548},"viewport":{"northeast":{"lat":51.92325002989272,"lng":4.489511629892721},"southwest":{"lat":51.92055037010728,"lng":4.486811970107278}}},"icon":"https://maps.gstatic.com/mapfiles/place_api/icons/v1/png_71/restaurant-71.png","icon_background_color":"#FF9E67","icon_mask_base_uri":"https://maps.gstatic.com/mapfiles/place_api/icons/v2/restaurant_pinlet","name":"Pho Hanoi","opening_hours":{"open_now":false},"photos":[{"height":3024,"html_attributions":["<a href=\"https://maps.google.com/maps/contrib/106110807186772325943\">Kevin Gombault</a>"],"photo_reference":"AeJbb3fos5PPwpLSZxXGtF37AQW2_Hmj7MC-0Q6psu2diQoATiyn86CRuEzDvU3UIa5lruC3nUQ6MB6gKdaLMMwp9n3nsUWuH-27XyOI_lCW0dZFMb1ySWee929vJsw9vIwY4sMNn6poku6Ss3OtLMdiWRwav3RP7E6Ojxww2RLA5UNCdG2-","width":4032}],"place_id":"ChIJ7RnnDVszxEcRWSeAAKPi7fo","plus_code":{"compound_code":"WFCQ+Q8 Rotterdam","global_code":"9F36WFCQ+Q8"},"price_level":1,"rating":4.3,"reference":"ChIJ7RnnDVszxEcRWSeAAKPi7fo","types":["meal_takeaway","restaurant","food","point_of_interest","establishment"],"user_ratings_total":671},{"business_status":"OPERATIONAL","formatted_address":"Meent 40, 3011 JL Rotterdam","geometry":{"location":{"lat":51.9233262,"lng":4.4852069},"viewport":{"northeast":{"lat":51.92473357989272,"lng":4.486498779892721},"southwest":{"lat":51.92203392010727,"lng":4.483799120107277}}},"icon":"https://maps.gstatic.com/mapfiles/place_api/icons/v1/png_71/restaurant-71.png","icon_background_color":"#FF9E67","icon_mask_base_uri":"https://maps.gstatic.com/mapfiles/place_api/icons/v2/restaurant_pinlet","name":"Deli Tasty","opening_hours":{"open_now":true},"photos":[{"height":3024,"html_attributions":["<a href=\"https://maps.google.com/maps/contrib/112984647346932743054\">Naomi Cheng</a>"],"photo_reference":"AeJbb3deyVKJLPCmpuTz-z-FroS8fBsi3NPuec--1TWIVKaUPRrPvZVAZMzrZiFVXYjsuOu-bchSd7ho6dQAkjWJK1lQ7e6Tggz54wSu0nHfqX6OptnjT-zSUIMaAVc6X512BhrLPcHnJij5Q6uZ1kOxDqA6ykoX0d96ob6hzDkN1hSPJS0O","width":4032}],"place_id":"ChIJxSraLVozxEcR-hq2sx6I5i8","plus_code":{"compound_code":"WFFP+83 Rotterdam","global_code":"9F36WFFP+83"},"price_level":1,"rating":4.3,"reference":"ChIJxSraLVozxEcR-hq2sx6I5i8","types":["restaurant","food","point_of_interest","establishment"],"user_ratings_total":551},{"business_status":"OPERATIONAL","formatted_address":"West-Kruiskade 1A, 3014 AJ Rotterdam","geometry":{"location":{"lat":51.9209612,"lng":4.4706473},"viewport":{"northeast":{"lat":51.92228202989272,"lng":4.472040179892722},"southwest":{"lat":51.91958237010728,"lng":4.469340520107278}}},"icon":"https://maps.gstatic.com/mapfiles/place_api/icons/v1/png_71/restaurant-71.png","icon_background_color":"#FF9E67","icon_mask_base_uri":"https://maps.gstatic.com/mapfiles/place_api/icons/v2/restaurant_pinlet","name":"Pho - Vietnamese restaurant & Noodle bar","opening_hours":{"open_now":true},"photos":[{"height":3024,"html_attributions":["<a href=\"https://maps.google.com/maps/contrib/117329587077484793255\">Clarence Tan</a>"],"photo_reference":"AeJbb3de94IhvE3Zg0BQpB0FMhZ4QkKLN52kL5T7QQziqHF58Oqm2tu3F2B0QRgsIwlaKxdqSOQs80T7_tsZWy4PmMawU9vq9M89fA7n-KsH3eQf0znPEa_YVj58MKljTmNHAuSzg4yqFagHAS99FVf3rJGr2I3Bnxu9mX-hzN6LVphSPrV2","width":4032}],"place_id":"ChIJzxJzVaE0xEcRDRc6S2ML5yU","plus_code":{"compound_code":"WFCC+97 Rotterdam","global_code":"9F36WFCC+97"},"price_level":2,"rating":4.2,"reference":"ChIJzxJzVaE0xEcRDRc6S2ML5yU","types":["restaurant","food","point_of_interest","establishment"],"user_ratings_total":1226},{"business_status":"OPERATIONAL","formatted_address":"Wilhelminapier, 3011 BN Rotterdam","geometry":{"location":{"lat":51.9056666,"lng":4.4880985},"viewport":{"northeast":{"lat":51.90694027989272,"lng":4.489424179892722},"southwest":{"lat":51.90424062010728,"lng":4.486724520107278}}},"icon":"https://maps.gstatic.com/mapfiles/place_api/icons/v1/png_71/restaurant-71.png","icon_background_color":"#FF9E67","icon_mask_base_uri":"https://maps.gstatic.com/mapfiles/place_api/icons/v2/restaurant_pinlet","name":"Baomazing (foodhallen)","opening_hours":{"open_now":true},"photos":[{"height":4032,"html_attributions":["<a href=\"https://maps.google.com/maps/contrib/112083117010583841034\">Jana3879</a>"],"photo_reference":"AeJbb3fRo6xu2CHoRCM3N0ISB3Ired0jASYEgsUPsv5bu2eLAaKvf-PdwRXyL7cZUfxw5xJqwZol9G2F8sS-2UKzG2Or-NHORa5_aq0k1bEAyYHdDii_eHgRdXqU26gkzjyRR_9VLLEkZDSEYocdftmS1McV74SVK4aVnoX6lTMz_rEs7lq0","width":3024}],"place_id":"ChIJXV5az5ozxEcR-xKknG_eltI","plus_code":{"compound_code":"WF4Q+76 Rotterdam","global_code":"9F36WF4Q+76"},"rating":4.2,"reference":"ChIJXV5az5ozxEcR-xKknG_eltI","types":["restaurant","food","point_of_interest","establishment"],"user_ratings_total":40},{"business_status":"OPERATIONAL","formatted_address":"t.o., Middenbaan Noord 192, 3191 EL","geometry":{"location":{"lat":51.8651566,"lng":4.354293699999999},"viewport":{"northeast":{"lat":51.86647732989272,"lng":4.355512529892722},"southwest":{"lat":51.86377767010728,"lng":4.352812870107278}}},"icon":"https://maps.gstatic.com/mapfiles/place_api/icons/v1/png_71/restaurant-71.png","icon_background_color":"#FF9E67","icon_mask_base_uri":"https://maps.gstatic.com/mapfiles/place_api/icons/v2/restaurant_pinlet","name":"Doan Loempia & Snacks","opening_hours":{"open_now":true},"place_id":"ChIJPyEncN5JxEcR3qvhMcY5vm0","plus_code":{"compound_code":"V983+3P Hoogvliet Rotterdam","global_code":"9F36V983+3P"},"rating":4.2,"reference":"ChIJPyEncN5JxEcR3qvhMcY5vm0","types":["restaurant","food","point_of_interest","establishment"],"user_ratings_total":5},{"business_status":"OPERATIONAL","formatted_address":"Markthal, Grotemarkt 4-6, 3011 GZ Rotterdam","geometry":{"location":{"lat":51.920451,"lng":4.4874242},"viewport":{"northeast":{"lat":51.92164137989273,"lng":4.48812325},"southwest":{"lat":51.91894172010728,"lng":4.48532705}}},"icon":"https://maps.gstatic.com/mapfiles/place_api/icons/v1/png_71/restaurant-71.png","icon_background_color":"#FF9E67","icon_mask_base_uri":"https://maps.gstatic.com/mapfiles/place_api/icons/v2/restaurant_pinlet","name":"Vietnamese Noodle Soup","opening_hours":{"open_now":true},"photos":[{"height":3024,"html_attributions":["<a href=\"https://maps.google.com/maps/contrib/104871920084830078286\">KW Ma</a>"],"photo_reference":"AeJbb3d4FfbRnsaHQ5k6092JfBtWdIoC-tvlbNQ8TRxAWMHQR8nxsYNibmjH9YXX553hzay8YDZnJ45kq0XFe005hXgD_gUhtCYnqkCjWceqsNcXHmB4pIVH0QM3GCZJB9RQEZ0GT7mebLoEIoZOZS1oexDzLO0QEIycWuyp_DyWt5EOSLSL","width":4032}],"place_id":"ChIJ_9xByx8zxEcRnuucueLGBfg","plus_code":{"compound_code":"WFCP+5X Rotterdam","global_code":"9F36WFCP+5X"},"rating":4.1,"reference":"ChIJ_9xByx8zxEcRnuucueLGBfg","types":["restaurant","food","point_of_interest","establishment"],"user_ratings_total":22},{"business_status":"OPERATIONAL","formatted_address":"Stieltjesweg 230, 2628 CK Delft","geometry":{"location":{"lat":52.0001555,"lng":4.3763895},"viewport":{"northeast":{"lat":52.00164327989273,"lng":4.377646629892721},"southwest":{"lat":51.99894362010728,"lng":4.374946970107278}}},"icon":"https://maps.gstatic.com/mapfiles/place_api/icons/v1/png_71/restaurant-71.png","icon_background_color":"#FF9E67","icon_mask_base_uri":"https://maps.gstatic.com/mapfiles/place_api/icons/v2/restaurant_pinlet","name":"The Hangout","opening_hours":{"open_now":true},"photos":[{"height":1440,"html_attributions":["<a href=\"https://maps.google.com/maps/contrib/110656092801593799104\">Sander Jonkers</a>"],"photo_reference":"AeJbb3dpNfmKbAqpjNaYhvvZF6xSoUk9c3AGWXDsdMzT-03KmjBIVO0R7jtADLUDSD508hCbqNynZNYCo1g72bBiDxzfuvqEOXL3Aq_2_Rgk95UT1gGDeQAnC5g7BtFw2S9Z1vHC2lCByJk6c1q_aJ-rtD37xr86YHQ4bDeCrWJt8nF5Yo6Q","width":2560}],"place_id":"ChIJU3p5tI21xUcRmnseyXY-xLw","plus_code":{"compound_code":"292G+3H Delft","global_code":"9F46292G+3H"},"price_level":1,"rating":4,"reference":"ChIJU3p5tI21xUcRmnseyXY-xLw","types":["restaurant","food","point_of_interest","establishment"],"user_ratings_total":350},{"business_status":"OPERATIONAL","formatted_address":"Watermanweg 120, 3067 GG Rotterdam","geometry":{"location":{"lat":51.9507712,"lng":4.5560748},"viewport":{"northeast":{"lat":51.95211627989272,"lng":4.557499379892722},"southwest":{"lat":51.94941662010728,"lng":4.554799720107278}}},"icon":"https://maps.gstatic.com/mapfiles/place_api/icons/v1/png_71/restaurant-71.png","icon_background_color":"#FF9E67","icon_mask_base_uri":"https://maps.gstatic.com/mapfiles/place_api/icons/v2/restaurant_pinlet","name":"Viet Foods","opening_hours":{"open_now":true},"photos":[{"height":3024,"html_attributions":["<a href=\"https://maps.google.com/maps/contrib/117329587077484793255\">Clarence Tan</a>"],"photo_reference":"AeJbb3etW7evs3C1DictLzBq8F1tW-weNIZ2-AdEbUf7lnTYyCiPdJEz9NET3HWtNcuQdcV9rHbE7J3sEfAVjR4trp4p1MdOFHCAM85_rcqfhH0PPUo1Jh6IiDOh91lhdQA_sQyDWtAqjthGGyjdjUU0oHi41W7kSka0uv3cbWCumyh95grd","width":3024}],"place_id":"ChIJHVD96T7NxUcRXbd_ne1uefw","plus_code":{"compound_code":"XH24+8C Rotterdam","global_code":"9F36XH24+8C"},"rating":4,"reference":"ChIJHVD96T7NxUcRXbd_ne1uefw","types":["restaurant","food","point_of_interest","establishment"],"user_ratings_total":83},{"business_status":"OPERATIONAL","formatted_address":"Centrum, Dordrecht","geometry":{"location":{"lat":51.8141513,"lng":4.6652466},"viewport":{"northeast":{"lat":51.81552047989272,"lng":4.666647879892722},"southwest":{"lat":51.81282082010727,"lng":4.663948220107279}}},"icon":"https://maps.gstatic.com/mapfiles/place_api/icons/v1/png_71/restaurant-71.png","icon_background_color":"#FF9E67","icon_mask_base_uri":"https://maps.gstatic.com/mapfiles/place_api/icons/v2/restaurant_pinlet","name":"Vietnamese Liempia's Snacks","photos":[{"height":3000,"html_attributions":["<a href=\"https://maps.google.com/maps/contrib/100923251008885026178\">A Google User</a>"],"photo_reference":"AeJbb3eoTzvzGgB5mheMmVzrRyw1l-gWKc_kS2Tr1tVTqENmVqpX5sS4F-n-MaDHjRki5VYyCeaF2_mJsh0bI-yIkoMM7k0YBH7kLBH6uGFTTh3DFRnnG-wVbJxEFAeGdLIjqzfmEWkSQB9reXALjVss6YoRtxrSZyVg1KJM0LySPxgK1OA6","width":4000}],"place_id":"ChIJSxm-j6wvxEcRijjx1hNc76Y","plus_code":{"compound_code":"RM78+M3 Dordrecht","global_code":"9F36RM78+M3"},"rating":4,"reference":"ChIJSxm-j6wvxEcRijjx1hNc76Y","types":["restaurant","food","point_of_interest","establishment"],"user_ratings_total":4},{"business_status":"OPERATIONAL","formatted_address":"Hoogstraat 42a, 3011 PR Rotterdam","geometry":{"location":{"lat":51.9228427,"lng":4.4938617},"viewport":{"northeast":{"lat":51.92422042989272,"lng":4.495187329892723},"southwest":{"lat":51.92152077010727,"lng":4.492487670107279}}},"icon":"https://maps.gstatic.com/mapfiles/place_api/icons/v1/png_71/restaurant-71.png","icon_background_color":"#FF9E67","icon_mask_base_uri":"https://maps.gstatic.com/mapfiles/place_api/icons/v2/restaurant_pinlet","name":"La Vie","photos":[{"height":4032,"html_attributions":["<a href=\"https://maps.google.com/maps/contrib/106748134262106074305\">R Yared</a>"],"photo_reference":"AeJbb3f1JaXlhy8W0N3wXyd2NtFXIA41uSmj-K24D7LpGmu8ln64K-0zZoy2_dPOeSGJJPcJoKBDPl_cwJDA02j4VwakmjqjzsXmUgr3nqLp5PzKLAiIGm9oYeQlPxknlPntfM-f2HXLQIAdoBy8Pd-Xs5R7xmvGssGGE7BV6SrpfS91Tpzi","width":3024}],"place_id":"ChIJZenN50AzxEcRGmQDb3sXoOE","plus_code":{"compound_code":"WFFV+4G Rotterdam","global_code":"9F36WFFV+4G"},"rating":3.7,"reference":"ChIJZenN50AzxEcRGmQDb3sXoOE","types":["restaurant","food","point_of_interest","establishment"],"user_ratings_total":3},{"business_status":"OPERATIONAL","formatted_address":"Markthal 33, 3011 GZ Rotterdam","geometry":{"location":{"lat":51.91997989999999,"lng":4.4869831},"viewport":{"northeast":{"lat":51.92128617989272,"lng":4.487854429892721},"southwest":{"lat":51.91858652010728,"lng":4.485154770107277}}},"icon":"https://maps.gstatic.com/mapfiles/place_api/icons/v1/png_71/restaurant-71.png","icon_background_color":"#FF9E67","icon_mask_base_uri":"https://maps.gstatic.com/mapfiles/place_api/icons/v2/restaurant_pinlet","name":"Pho Asian Noodle bar","opening_hours":{"open_now":true},"photos":[{"height":917,"html_attributions":["<a href=\"https://maps.google.com/maps/contrib/100856868337307425411\">sutanto.win</a>"],"photo_reference":"AeJbb3ebHigwD5NhSdeEkNfoil64Ve497mdmlB0E56UrfkohfgkHrNLC4mkkOTixlewGsTnM1-n2U0oJs-AjSHDXpwqd0UffOpMupxYIhm_uOj13q8RwyCSUu5j8YUI-Ypt7lF146GSkhiv4INGweAth6fZZa8YdbDp6tOXh7xHMyD2mHKW3","width":2048}],"place_id":"ChIJ297ZBRUzxEcRv8tiJW8vSno","plus_code":{"compound_code":"WF9P+XQ Rotterdam","global_code":"9F36WF9P+XQ"},"rating":3.5,"reference":"ChIJ297ZBRUzxEcRv8tiJW8vSno","types":["restaurant","food","point_of_interest","establishment"],"user_ratings_total":14},{"business_status":"OPERATIONAL","formatted_address":"Wilhelminakade 58, 3072 AR Rotterdam","geometry":{"location":{"lat":51.906079,"lng":4.488004},"viewport":{"northeast":{"lat":51.90753587989272,"lng":4.489465779892721},"southwest":{"lat":51.90483622010728,"lng":4.486766120107277}}},"icon":"https://maps.gstatic.com/mapfiles/place_api/icons/v1/png_71/restaurant-71.png","icon_background_color":"#FF9E67","icon_mask_base_uri":"https://maps.gstatic.com/mapfiles/place_api/icons/v2/restaurant_pinlet","name":"Viet Yam - Vietnamese Streetfood | Foodhallen Rotterdam","opening_hours":{"open_now":true},"photos":[{"height":1200,"html_attributions":["<a href=\"https://maps.google.com/maps/contrib/117529115784982612748\">A Google User</a>"],"photo_reference":"AeJbb3d3A5q0WdSYvCZQIgazB6PyEwvA2PWQoDOqCoX7Jg7xzn7IVoSCckRQ3Ytf3zwGMaxTscnS3DEvC_u1Kh7LUka-OU3IcZqVAsjQ2WWjeic6d4vw89CshfnM2DI3gtE9SXbSSourVGcXsL2U0H96iZvrsDLcz2AQP6CnKBwxCSHhi70V","width":1600}],"place_id":"ChIJE1ZFidwzxEcRzkL6Z81WMTA","plus_code":{"compound_code":"WF4Q+C6 Rotterdam","global_code":"9F36WF4Q+C6"},"rating":3.4,"reference":"ChIJE1ZFidwzxEcRzkL6Z81WMTA","types":["restaurant","food","point_of_interest","establishment"],"user_ratings_total":25},{"business_status":"OPERATIONAL","formatted_address":"Agnietenstraat 1F, 2801 GZ Gouda","geometry":{"location":{"lat":52.0139331,"lng":4.7107282},"viewport":{"northeast":{"lat":52.01523817989272,"lng":4.712374929892722},"southwest":{"lat":52.01253852010728,"lng":4.709675270107279}}},"icon":"https://maps.gstatic.com/mapfiles/place_api/icons/v1/png_71/restaurant-71.png","icon_background_color":"#FF9E67","icon_mask_base_uri":"https://maps.gstatic.com/mapfiles/place_api/icons/v2/restaurant_pinlet","name":"V.O.F. Saigon Loempia","opening_hours":{"open_now":true},"place_id":"ChIJ3dNCtqnWxUcREO83arWCXNg","plus_code":{"compound_code":"2P76+H7 Gouda","global_code":"9F462P76+H7"},"rating":3,"reference":"ChIJ3dNCtqnWxUcREO83arWCXNg","types":["restaurant","food","point_of_interest","establishment"],"user_ratings_total":4},{"business_status":"OPERATIONAL","formatted_address":"Jan Meertensstraat 5, 3065 PB Rotterdam","geometry":{"location":{"lat":51.9250167,"lng":4.560461000000001},"viewport":{"northeast":{"lat":51.92635487989271,"lng":4.561693529892721},"southwest":{"lat":51.92365522010726,"lng":4.558993870107277}}},"icon":"https://maps.gstatic.com/mapfiles/place_api/icons/v1/png_71/restaurant-71.png","icon_background_color":"#FF9E67","icon_mask_base_uri":"https://maps.gstatic.com/mapfiles/place_api/icons/v2/restaurant_pinlet","name":"De Echte Aziaat","opening_hours":{"open_now":true},"place_id":"ChIJ0aXe8D0zxEcRlRUd4zpbHFs","plus_code":{"compound_code":"WHG6+26 Rotterdam","global_code":"9F36WHG6+26"},"rating":2.5,"reference":"ChIJ0aXe8D0zxEcRlRUd4zpbHFs","types":["restaurant","food","point_of_interest","establishment"],"user_ratings_total":2},{"business_status":"OPERATIONAL","formatted_address":"Corry Besselingplantsoen 34, 2642 DE Pijnacker","geometry":{"location":{"lat":52.01131969999999,"lng":4.4494813},"viewport":{"northeast":{"lat":52.01268162989273,"lng":4.450881829892722},"southwest":{"lat":52.00998197010728,"lng":4.448182170107278}}},"icon":"https://maps.gstatic.com/mapfiles/place_api/icons/v1/png_71/restaurant-71.png","icon_background_color":"#FF9E67","icon_mask_base_uri":"https://maps.gstatic.com/mapfiles/place_api/icons/v2/restaurant_pinlet","name":"Vietnamese Snacks Tuan & Hoa","opening_hours":{"open_now":true},"place_id":"ChIJh8qVHXa1xUcRFzkyYXTrY4c","plus_code":{"compound_code":"2C6X+GQ Pijnacker","global_code":"9F462C6X+GQ"},"rating":0,"reference":"ChIJh8qVHXa1xUcRFzkyYXTrY4c","types":["restaurant","food","point_of_interest","establishment"],"user_ratings_total":0},{"business_status":"OPERATIONAL","formatted_address":"2719 CT Zoetermeer","geometry":{"location":{"lat":52.0431671,"lng":4.4763782},"viewport":{"northeast":{"lat":52.04442857989272,"lng":4.477712679892721},"southwest":{"lat":52.04172892010727,"lng":4.475013020107277}}},"icon":"https://maps.gstatic.com/mapfiles/place_api/icons/v1/png_71/restaurant-71.png","icon_background_color":"#FF9E67","icon_mask_base_uri":"https://maps.gstatic.com/mapfiles/place_api/icons/v2/restaurant_pinlet","name":"Vietnamese loempia kraam","opening_hours":{"open_now":false},"place_id":"ChIJpeeAJ4rJxUcR8mTnR2Y4vBE","plus_code":{"compound_code":"2FVG+7H Zoetermeer","global_code":"9F462FVG+7H"},"rating":0,"reference":"ChIJpeeAJ4rJxUcR8mTnR2Y4vBE","types":["restaurant","food","point_of_interest","establishment"],"user_ratings_total":0}]