[{"business_status":"OPERATIONAL","formatted_address":"Ermou 36, Athina 105 63","geometry":{"location":{"lat":37.9762171,"lng":23.7303331},"viewport":{"northeast":{"lat":37.97774967989272,"lng":23.73175442989272},"southwest":{"lat":37.97505002010728,"lng":23.72905477010728}}},"icon":"https://maps.gstatic.com/mapfiles/place_api/icons/v1/png_71/restaurant-71.png","icon_background_color":"#FF9E67","icon_mask_base_uri":"https://maps.gstatic.com/mapfiles/place_api/icons/v2/restaurant_pinlet","name":"Magazí","opening_hours":{"open_now":true},"photos":[{"height":3024,"html_attributions":["<a href=\"https://maps.google.com/maps/contrib/109942718365827406457\">A Google User</a>"],"photo_reference":"AeJbb3dOv3Ue6ZkHXUz2Q98u5nyRMVhKXFs23bcJnGi1xc6YIcdw_gZg5rEuvWROnNsc2tYzLlniBEFfR3PDQzG5AgdOgK7aSuimQzzgvzm9237NQ4ANsoaNb_Q8iJmeG3QordQUTiw_sPLGxp0kwVSzd2Gld_grCah9hzD4Kzd0u6YzN1GH","width":4032}],"place_id":"ChIJDU8q3_29oRQRihZHurbtogY","plus_code":{"compound_code":"XPGJ+F4 Athens","global_code":"8G95XPGJ+F4"},"rating":5,"reference":"ChIJDU8q3_29oRQRihZHurbtogY","types":["restaurant","point_of_interest","food","establishment"],"user_ratings_total":13},{"business_status":"OPERATIONAL","formatted_address":"Tsocha 21, Athina 115 21","geometry":{"location":{"lat":37.9855009,"lng":23.7569748},"viewport":{"northeast":{"lat":37.98679557989272,"lng":23.75839732989272},"southwest":{"lat":37.98409592010728,"lng":23.75569767010728}}},"icon":"https://maps.gstatic.com/mapfiles/place_api/icons/v1/png_71/restaurant-71.png","icon_background_color":"#FF9E67","icon_mask_base_uri":"https://maps.gstatic.com/mapfiles/place_api/icons/v2/restaurant_pinlet","name":"Psarochōri","opening_hours":{"open_now":true},"photos":[{"height":667,"html_attributions":["<a href=\"https://maps.google.com/maps/contrib/100482039672511510389\">A Google User</a>"],"photo_reference":"AeJbb3cfxsnYE6fFyShJldoHIaRbL3YZeOfpC3LLDJSiRrM86ABS7dDQglcTyoHaEyLK-C3gHnz6ryNlXxYBi2F_iKEeAYjZFkAch4a-qVZu6OYjqhV8B6drw_9dulnh-rZypKfk-KftJExwPgmLzWMWt11uOFeWW_vT2B10N7uyTYbcfCXQ","width":1000}],"place_id":"ChIJ10moaW-9oRQRVMjCvmnim-g","plus_code":{"compound_code":"XQP4+6Q Athens","global_code":"8G95XQP4+6Q"},"price_level":2,"rating":4.8,"reference":"ChIJ10moaW-9oRQRVMjCvmnim-g","types":["restaurant","food","point_of_interest","establishment"],"user_ratings_total":605},{"business_status":"OPERATIONAL","formatted_address":"Politechneiou 12, Athina 104 33","geometry":{"location":{"lat":37.9882399,"lng":23.7292045},"viewport":{"northeast":{"lat":37.98955587989272,"lng":23.73045367989272},"southwest":{"lat":37.98685622010728,"lng":23.72775402010728}}},"icon":"https://maps.gstatic.com/mapfiles/place_api/icons/v1/png_71/restaurant-71.png","icon_background_color":"#FF9E67","icon_mask_base_uri":"https://maps.gstatic.com/mapfiles/place_api/icons/v2/restaurant_pinlet","name":"Restaurant Paula","opening_hours":{"open_now":false},"photos":[{"height":3472,"html_attributions":["<a href=\"https://maps.google.com/maps/contrib/114203769131185992087\">A Google User</a>"],"photo_reference":"AeJbb3cj7AlQK_TeUU_QBXDrtPY4KiQbCiGh4DJpLTCJ6lvHNeoj5LV7rqCtthhKGLyrX2_mRa8Oe13s6Mdm6Qxt0tbSwk158HQsMKHYW6UrFZosi5qavOr5EwxcXYGl1Wy03lmBGdvHHPHwnNejSPCH9yRRUg0reAACiLSx32_WtyCFxH0","width":4640}],"place_id":"ChIJ1Q_RQpK9oRQRnxJpdTMRhNo","plus_code":{"compound_code":"XPQH+7M Athens","global_code":"8G95XPQH+7M"},"price_level":1,"rating":4.8,"reference":"ChIJ1Q_RQpK9oRQRnxJpdTMRhNo","types":["restaurant","point_of_interest","food","establishment"],"user_ratings_total":514},{"business_status":"OPERATIONAL","formatted_address":"Grigoriou Lampraki 1, Glifada 166 75","geometry":{"location":{"lat":37.8608895,"lng":23.7504272},"viewport":{"northeast":{"lat":37.86220077989272,"lng":23.75183452989272},"southwest":{"lat":37.85950112010728,"lng":23.74913487010728}}},"icon":"https://maps.gstatic.com/mapfiles/place_api/icons/v1/png_71/restaurant-71.png","icon_background_color":"#FF9E67","icon_mask_base_uri":"https://maps.gstatic.com/mapfiles/place_api/icons/v2/restaurant_pinlet","name":"Σασμός Κρητικό Εστιατόριο","opening_hours":{"open_now":false},"photos":[{"height":1367,"html_attributions":["<a href=\"https://maps.google.com/maps/contrib/102453773075437558038\">A Google User</a>"],"photo_reference":"AeJbb3fGdVjlER2CYVuhZihzZnAl4g4UOI-b4WQna-t5YKgbORTr3uZNLdfLlPo0N7ygDjjYDnQ9pNaagFPJyvWUjnUWp_0OjO22SS3Uo7ynUBVaPQ0DWTDRVt1CmtjRa1axySHo1csxIdmd2lT8BAR9Lb27FonS2Gbc809piBG0Zu-0EmYB","width":2048}],"place_id":"ChIJ12d2Nym_oRQRXqml49fvbUU","plus_code":{"compound_code":"VQ62+95 Glyfada","global_code":"8G95VQ62+95"},"rating":4.8,"reference":"ChIJ12d2Nym_oRQRXqml49fvbUU","types":["restaurant","point_of_interest","food","establishment"],"user_ratings_total":123},{"business_status":"OPERATIONAL","formatted_address":"Nikis 30, Athina 105 57","geometry":{"location":{"lat":37.97391260000001,"lng":23.7328819},"viewport":{"northeast":{"lat":37.97525647989273,"lng":23.73427542989272},"southwest":{"lat":37.97255682010728,"lng":23.73157577010728}}},"icon":"https://maps.gstatic.com/mapfiles/place_api/icons/v1/png_71/restaurant-71.png","icon_background_color":"#FF9E67","icon_mask_base_uri":"https://maps.gstatic.com/mapfiles/place_api/icons/v2/restaurant_pinlet","name":"Avocado","opening_hours":{"open_now":true},"photos":[{"height":1800,"html_attributions":["<a href=\"https://maps.google.com/maps/contrib/105178461517135482836\">Avocado</a>"],"photo_reference":"AeJbb3esFZe_-PcKcLBxymInGLzWIria9vlj4wsa-LNuH6B3etcGUC23jsV9m_Pf0x7D4gH0RUwuzdBgd0UR52IUqGxpCn-4ACfoxyf3lMA3Mqe3fYICBHpAj6vrg1FXycasNcLsYSJ155Tfg0oK-YVD4MINPUnm9PYmNHoO9RT8cI7r8wI1","width":4000}],"place_id":"ChIJc08U3T29oRQRpdSvA2fc56A","plus_code":{"compound_code":"XPFM+H5 Athens","global_code":"8G95XPFM+H5"},"price_level":2,"rating":4.6,"reference":"ChIJc08U3T29oRQRpdSvA2fc56A","types":["restaurant","food","point_of_interest","establishment"],"user_ratings_total":2753},{"business_status":"OPERATIONAL","formatted_address":"El. Venizelou Avenue 9, Melissia 151 27","geometry":{"location":{"lat":38.0527781,"lng":23.8390296},"viewport":{"northeast":{"lat":38.05412612989272,"lng":23.84043112989272},"southwest":{"lat":38.05142647010727,"lng":23.83773147010728}}},"icon":"https://maps.gstatic.com/mapfiles/place_api/icons/v1/png_71/restaurant-71.png","icon_background_color":"#FF9E67","icon_mask_base_uri":"https://maps.gstatic.com/mapfiles/place_api/icons/v2/restaurant_pinlet","name":"Pizza planet","opening_hours":{"open_now":true},"photos":[{"height":2976,"html_attributions":["<a href=\"https://maps.google.com/maps/contrib/101616779483891019051\">ΔΗΜΟΣΘΕΝΗΣ ΖΙΟΥΛΑΣ</a>"],"photo_reference":"AeJbb3cBLOhXH_Z-htXKazZ8_o8QKYoTSZFiO7cHTbmH0LCuz0kiegVNpiMLEtN_il_q2B--h28C8UBdmua-K4_s2I5YnwEs55bDvUaNwHrIpKmz_3brUWOm3rIzyRk_wJTiVBzFQK2Mt-vuC8UWA1mS00HWREdnVzUFjzThXqijNkgrjG53","width":3968}],"place_id":"ChIJJzR2QrSeoRQRJ_vdFvHJL98","plus_code":{"compound_code":"3R3Q+4J Melissia","global_code":"8GC53R3Q+4J"},"price_level":2,"rating":4.6,"reference":"ChIJJzR2QrSeoRQRJ_vdFvHJL98","types":["restaurant","point_of_interest","food","establishment"],"user_ratings_total":309},{"business_status":"OPERATIONAL","formatted_address":"Notara 18, Pireas 185 31","geometry":{"location":{"lat":37.946113,"lng":23.6478248},"viewport":{"northeast":{"lat":37.94744832989272,"lng":23.64920062989272},"southwest":{"lat":37.94474867010727,"lng":23.64650097010728}}},"icon":"https://maps.gstatic.com/mapfiles/place_api/icons/v1/png_71/restaurant-71.png","icon_background_color":"#FF9E67","icon_mask_base_uri":"https://maps.gstatic.com/mapfiles/place_api/icons/v2/restaurant_pinlet","name":"ΝΟΕ Γεύσεις & Ακούσματα","opening_hours":{"open_now":false},"photos":[{"height":809,"html_attributions":["<a href=\"https://maps.google.com/maps/contrib/106955112985102882918\">A Google User</a>"],"photo_reference":"AeJbb3e1smQURnzav6yFfkOW8TRzLXuza2y_hEVJK3Pvc0t08nnwN9fLQnaC30hRK5tOGo0UykgnrNs9I74ty_jwDkeSYZVqeYj86jzyrveRAZFlbmJCSJd1t2G0NebkiUx7yh5EUTRKGGNT9qy2iTUD0LsapUgihpAitAmo_52gr_RKbXss","width":1440}],"place_id":"ChIJE3zm0Ou7oRQRoiFtK0imPpM","plus_code":{"compound_code":"WJWX+C4 Pireas","global_code":"8G95WJWX+C4"},"price_level":2,"rating":4.6,"reference":"ChIJE3zm0Ou7oRQRoiFtK0imPpM","types":["restaurant","point_of_interest","food","establishment"],"user_ratings_total":228},{"business_status":"OPERATIONAL","formatted_address":"Andrea Papandreou 63, Chalandri 152 32","geometry":{"location":{"lat":38.0199736,"lng":23.7977506},"viewport":{"northeast":{"lat":38.02133507989272,"lng":23.79908367989272},"southwest":{"lat":38.01863542010727,"lng":23.79638402010728}}},"icon":"https://maps.gstatic.com/mapfiles/place_api/icons/v1/png_71/restaurant-71.png","icon_background_color":"#FF9E67","icon_mask_base_uri":"https://maps.gstatic.com/mapfiles/place_api/icons/v2/restaurant_pinlet","name":"vegan souvlaki","opening_hours":{"open_now":true},"photos":[{"height":831,"html_attributions":["<a href=\"https://maps.google.com/maps/contrib/100378770096333015670\">A Google User</a>"],"photo_reference":"AeJbb3eGDSUBO-R7AE4i2i9PIdnhsPgSzMJH6BV-JtWbToX_IvNgNPnoYYXCFmyRVNOAF00fVx4SYo_NnFzoaGAYiwxmfcB4r936g8-fl69BCBIHfSwzUNWjguWUrzuKFaXkXeqoBtxzHYrJ7SmVWDmxmfH3XuFxl-J-d0wwAXuU51UDclbT","width":1280}],"place_id":"ChIJs82-LqiZoRQRyKoN63m7e6g","plus_code":{"compound_code":"2Q9X+X4 Chalandri","global_code":"8GC52Q9X+X4"},"rating":4.6,"reference":"ChIJs82-LqiZoRQRyKoN63m7e6g","types":["restaurant","food","point_of_interest","establishment"],"user_ratings_total":14},{"business_status":"OPERATIONAL","formatted_address":"Leof. Dimokratias 21, Keratsini 151 25","geometry":{"location":{"lat":38.046084,"lng":23.8114365},"viewport":{"northeast":{"lat":38.04744242989272,"lng":23.81278807989272},"southwest":{"lat":38.04474277010728,"lng":23.81008842010728}}},"icon":"https://maps.gstatic.com/mapfiles/place_api/icons/v1/png_71/restaurant-71.png","icon_background_color":"#FF9E67","icon_mask_base_uri":"https://maps.gstatic.com/mapfiles/place_api/icons/v2/restaurant_pinlet","name":"Keratsini","opening_hours":{"open_now":true},"photos":[{"height":1200,"html_attributions":["<a href=\"https://maps.google.com/maps/contrib/107064078273494101559\">A Google User</a>"],"photo_reference":"AeJbb3dELX_TTPyt2AGgsqr8NaKr3iFtybFY3GAQ8l4LWPNGuSPLAhQp62uOi1ekQz55_ReRLC4Y6BQPkNCj5LEOZuLrbgHEvMJinbzU3ir3a_dqkB2qooeu35YN99cdTgBs3rYnB2EnOhti3MboT4q_UzS_LaXmqSY1Moia3HoM9cv3p889","width":1600}],"place_id":"ChIJ18MkIjmZoRQR2CH_VmMm9SA","plus_code":{"compound_code":"2RW6+CJ Keratsini","global_code":"8GC52RW6+CJ"},"rating":4.6,"reference":"ChIJ18MkIjmZoRQR2CH_VmMm9SA","types":["restaurant","point_of_interest","food","establishment"],"user_ratings_total":5},{"business_status":"OPERATIONAL","formatted_address":"5, loannou Paparrigopoulou 7, Athina 105 61","geometry":{"location":{"lat":37.9788709,"lng":23.7317876},"viewport":{"northeast":{"lat":37.98031282989272,"lng":23.73304957989272},"southwest":{"lat":37.97761317010727,"lng":23.73034992010728}}},"icon":"https://maps.gstatic.com/mapfiles/place_api/icons/v1/png_71/cafe-71.png","icon_background_color":"#FF9E67","icon_mask_base_uri":"https://maps.gstatic.com/mapfiles/place_api/icons/v2/cafe_pinlet","name":"Black Duck Garden","opening_hours":{"open_now":true},"photos":[{"height":1000,"html_attributions":["<a href=\"https://maps.google.com/maps/contrib/114797326562221903377\">Black Duck Garden</a>"],"photo_reference":"AeJbb3fU6ZhrQUs-ouxioJPu99XF2pl8S67gSvqZH-05j6JViOHKMOPVzjVR461eX7cqBbtK9YE-bJcFXOD3gGNcwqHiOW5UW6hFnkpRh3nKM72WHwlhCoR0PWVN6MZPgfpZy1CzzIMkGosXp22OrH9sy560cXnAt_KQLBQQetax7mrDFfO1","width":1500}],"place_id":"ChIJQUQvvju9oRQRkefGT4htGAA","plus_code":{"compound_code":"XPHJ+GP Athens","global_code":"8G95XPHJ+GP"},"price_level":3,"rating":4.5,"reference":"ChIJQUQvvju9oRQRkefGT4htGAA","types":["cafe","bar","restaurant","food","point_of_interest","establishment"],"user_ratings_total":3052},{"business_status":"OPERATIONAL","formatted_address":"Esopou 17, Athina 105 54","geometry":{"location":{"lat":37.9782058,"lng":23.7235297},"viewport":{"northeast":{"lat":37.97953632989272,"lng":23.72489487989272},"southwest":{"lat":37.97683667010728,"lng":23.72219522010728}}},"icon":"https://maps.gstatic.com/mapfiles/place_api/icons/v1/png_71/restaurant-71.png","icon_background_color":"#FF9E67","icon_mask_base_uri":"https://maps.gstatic.com/mapfiles/place_api/icons/v2/restaurant_pinlet","name":"Lithos Tavern","opening_hours":{"open_now":false},"photos":[{"height":503,"html_attributions":["<a href=\"https://maps.google.com/maps/contrib/107699800217951989938\">A Google User</a>"],"photo_reference":"AeJbb3f9o89J_wzfngHYe4LzmxKa0aYcIEocwcLQbJ1Cdso3Ns6I7e_ySmzjLQq2Rxvlka3VsKsqtJBSXkFp1NGEZNjHNLIgePQ_mqeqlMhxl9HJkFwq0JZw-AtNAtzznc1ZJIi5KXPU3D4FABQ4M1WuylymCwZY696HlRFKkq5NiK9JvKsF","width":894}],"place_id":"ChIJXcnOvSO9oRQRhDEM6v0Yi7Y","plus_code":{"compound_code":"XPHF+7C Athens","global_code":"8G95XPHF+7C"},"price_level":2,"rating":4.5,"reference":"ChIJXcnOvSO9oRQRhDEM6v0Yi7Y","types":["restaurant","point_of_interest","food","establishment"],"user_ratings_total":1991},{"business_status":"OPERATIONAL","formatted_address":"Ήβης 21 &, Navarchou Apostoli 17, Athina 105 54","geometry":{"location":{"lat":37.9776397,"lng":23.7226956},"viewport":{"northeast":{"lat":37.97897272989271,"lng":23.72406352989272},"southwest":{"lat":37.97627307010727,"lng":23.72136387010728}}},"icon":"https://maps.gstatic.com/mapfiles/place_api/icons/v1/png_71/bar-71.png","icon_background_color":"#FF9E67","icon_mask_base_uri":"https://maps.gstatic.com/mapfiles/place_api/icons/v2/bar_pinlet","name":"Dos Gardenias","opening_hours":{"open_now":true},"photos":[{"height":3280,"html_attributions":["<a href=\"https://maps.google.com/maps/contrib/105271454694888195289\">A Google User</a>"],"photo_reference":"AeJbb3cO0X1YHvITUyvdW7iqMndIPFxXiAOEGSC3gbX5XIG1p01R8JieJC3oJ24idA-qga1dQQnGvVMU9G5igYaeZ3sWCcAsD_L0MsRLjyYizHhZlAjlErvc0NY6e-M7Gz8ih5LU7JGX12HM0AE0Y7CPmfW4s7cpn1sYFU0UTC63xnGYoFiL","width":4920}],"place_id":"ChIJGTNbQLC9oRQRyotk3TftwC4","plus_code":{"compound_code":"XPHF+33 Athens","global_code":"8G95XPHF+33"},"price_level":2,"rating":4.5,"reference":"ChIJGTNbQLC9oRQRyotk3TftwC4","types":["bar","restaurant","food","point_of_interest","establishment"],"user_ratings_total":1939},{"business_status":"OPERATIONAL","formatted_address":"Agiou Filippou 7, Athina 105 55","geometry":{"location":{"lat":37.9767512,"lng":23.7234574},"viewport":{"northeast":{"lat":37.97823722989272,"lng":23.72488377989272},"southwest":{"lat":37.97553757010728,"lng":23.72218412010728}}},"icon":"https://maps.gstatic.com/mapfiles/place_api/icons/v1/png_71/bar-71.png","icon_background_color":"#FF9E67","icon_mask_base_uri":"https://maps.gstatic.com/mapfiles/place_api/icons/v2/bar_pinlet","name":"Buena Vista Social Bar","opening_hours":{"open_now":true},"photos":[{"height":2048,"html_attributions":["<a href=\"https://maps.google.com/maps/contrib/111045332207854051731\">A Google User</a>"],"photo_reference":"AeJbb3cQ3Uuh44vJ9TeI6nFsBLE7hZ7HN5KA0J8yOoFXbSOb66RKnRxpxZ6z-ZcD8R0b8VFe7GiXrf_qeCEW0KgUMorIcJN6eU2ZfAIfCxIWFgMS_4J24-Qg5oIbMT0D9UwyviHhh0uwZxqHiXhis79eHd91TLNrdzKnKSkaR69vbYD_IjlL","width":1365}],"place_id":"ChIJp--Dj4y9oRQRKt9_MGnuHTY","plus_code":{"compound_code":"XPGF+P9 Athens","global_code":"8G95XPGF+P9"},"price_level":2,"rating":4.5,"reference":"ChIJp--Dj4y9oRQRKt9_MGnuHTY","types":["bar","cafe","restaurant","food","point_of_interest","establishment"],"user_ratings_total":1592},{"business_status":"OPERATIONAL","formatted_address":"Apollonos, Αθήνας 28, Vouliagmeni 166 71","geometry":{"location":{"lat":37.811065,"lng":23.7732654},"viewport":{"northeast":{"lat":37.81236547989272,"lng":23.77478857989272},"southwest":{"lat":37.80966582010728,"lng":23.77208892010728}}},"icon":"https://maps.gstatic.com/mapfiles/place_api/icons/v1/png_71/restaurant-71.png","icon_background_color":"#FF9E67","icon_mask_base_uri":"https://maps.gstatic.com/mapfiles/place_api/icons/v2/restaurant_pinlet","name":"Ithaki Restaurant Bar","opening_hours":{"open_now":true},"photos":[{"height":676,"html_attributions":["<a href=\"https://maps.google.com/maps/contrib/113105260348000503736\">Ithaki Restaurant Bar</a>"],"photo_reference":"AeJbb3eJ8Dy3VDYzPKgNWQM_cLhv3fBHPes_8idBqmVp31iX8thDbry4Pir8r1E9c8DbnfCF3_PTsscKxwNWcJrKpASsRkSDp0i4SwZpe_8TXXGWj643hG6h46ErSLcMKXDJ2TKCR_94-Bh1H5C2y6b02cszTrqEnGkA9ZZiiADq1ytp27Ca","width":1200}],"place_id":"ChIJs9EeOqXqoRQROHyqqLAbtx4","plus_code":{"compound_code":"RQ6F+C8 Vouliagmeni","global_code":"8G95RQ6F+C8"},"price_level":4,"rating":4.5,"reference":"ChIJs9EeOqXqoRQROHyqqLAbtx4","types":["bar","restaurant","food","point_of_interest","establishment"],"user_ratings_total":1303},{"business_status":"OPERATIONAL","formatted_address":"Leof. Posidonos 4, Vouliagmeni 166 71","geometry":{"location":{"lat":37.8123566,"lng":23.7813909},"viewport":{"northeast":{"lat":37.81370837989272,"lng":23.78274717989272},"southwest":{"lat":37.81100872010728,"lng":23.78004752010727}}},"icon":"https://maps.gstatic.com/mapfiles/place_api/icons/v1/png_71/restaurant-71.png","icon_background_color":"#FF9E67","icon_mask_base_uri":"https://maps.gstatic.com/mapfiles/place_api/icons/v2/restaurant_pinlet","name":"BlueFish Vouliagmeni","opening_hours":{"open_now":true},"photos":[{"height":533,"html_attributions":["<a href=\"https://maps.google.com/maps/contrib/105729731221017745174\">BlueFish vouliagmeni</a>"],"photo_reference":"AeJbb3dQucSz7jsMkOLkkgF7kKSgIikTF-uWICOR5jQxYtppUexlVK1dlQbI8IPG9u9KX69q6rBC5_P7ur43a_R8o3OqqmSDVUvUN-WInd04nYzkpUwRj_8MNT-v9rR-d6czHrrSqmaJoHEoA-0CDqbEk8GXn8u7Idel5CKgzpkLOa3M-sBH","width":800}],"place_id":"ChIJgYa0U7fqoRQRZINKrouaRoc","plus_code":{"compound_code":"RQ6J+WH Vouliagmeni","global_code":"8G95RQ6J+WH"},"price_level":3,"rating":4.5,"reference":"ChIJgYa0U7fqoRQRZINKrouaRoc","types":["restaurant","food","point_of_interest","establishment"],"user_ratings_total":1050},{"business_status":"OPERATIONAL","formatted_address":"25is Martiou 3, Nea Penteli 152 36","geometry":{"location":{"lat":38.0568386,"lng":23.8567345},"viewport":{"northeast":{"lat":38.05825292989272,"lng":23.85810007989272},"southwest":{"lat":38.05555327010727,"lng":23.85540042010728}}},"icon":"https://maps.gstatic.com/mapfiles/place_api/icons/v1/png_71/restaurant-71.png","icon_background_color":"#FF9E67","icon_mask_base_uri":"https://maps.gstatic.com/mapfiles/place_api/icons/v2/restaurant_pinlet","name":"Καραβαϊκή","opening_hours":{"open_now":false},"photos":[{"height":3468,"html_attributions":["<a href=\"https://maps.google.com/maps/contrib/108046760327175446080\">Emilios Kilitis</a>"],"photo_reference":"AeJbb3dlOwsG4TWF7KHfoTID0Y9BpA3AstpUy6yi--cxvaEekD_Ucwzr1dCZLUcEXyYGRNuzmZb8eZkHOgh-tUx3949iZzW7kSOczu_kKRdTh0leraImShJrhRHHNccpooCHkBP_C9QQxM90MaBmOSvRboY60TjaV94GrWcmejaKNyHKt2Po","width":4624}],"place_id":"ChIJRbwaPWKfoRQR7kP7vf4x5ho","plus_code":{"compound_code":"3V44+PM Nea Penteli","global_code":"8GC53V44+PM"},"price_level":2,"rating":4.5,"reference":"ChIJRbwaPWKfoRQR7kP7vf4x5ho","types":["restaurant","point_of_interest","food","establishment"],"user_ratings_total":1026},{"business_status":"OPERATIONAL","formatted_address":"Pl. Plastira 1, Nea Erithrea 146 71","geometry":{"location":{"lat":38.0911653,"lng":23.8203825},"viewport":{"northeast":{"lat":38.09257917989272,"lng":23.82161992989272},"southwest":{"lat":38.08987952010728,"lng":23.81892027010728}}},"icon":"https://maps.gstatic.com/mapfiles/place_api/icons/v1/png_71/bar-71.png","icon_background_color":"#FF9E67","icon_mask_base_uri":"https://maps.gstatic.com/mapfiles/place_api/icons/v2/bar_pinlet","name":"PICNIC BAR","opening_hours":{"open_now":false},"photos":[{"height":1063,"html_attributions":["<a href=\"https://maps.google.com/maps/contrib/106814081894336411359\">ΠΙΚ-ΝΙΚ-BAR</a>"],"photo_reference":"AeJbb3fLgizfAhLnXDgnelW_rXkZow-GW0__XDNvtDFiovuZ0efxntH8OaeYNFRU2q4ai80ivKqzNTM5NurXID02Mx7gy8I1Kev7R_-i6YMcvXb2hRV5HnPpU55PpcKCcY4YsP4IFW0OU_K5gznq7qGC2N-qu-vyR1SHPAzG5iS7kfJCHf6F","width":1600}],"place_id":"ChIJxcR8rPmeoRQRMK_3sZ-R9WI","plus_code":{"compound_code":"3RRC+F5 Nea Erythraia","global_code":"8GC53RRC+F5"},"price_level":2,"rating":4.5,"reference":"ChIJxcR8rPmeoRQRMK_3sZ-R9WI","types":["meal_takeaway","bar","restaurant","point_of_interest","food","establishment"],"user_ratings_total":362},{"business_status":"OPERATIONAL","formatted_address":"Leof. Kifisias 115, Athina 115 24","geometry":{"location":{"lat":37.9938628,"lng":23.7669214},"viewport":{"northeast":{"lat":37.99518157989272,"lng":23.76837012989272},"southwest":{"lat":37.99248192010728,"lng":23.76567047010728}}},"icon":"https://maps.gstatic.com/mapfiles/place_api/icons/v1/png_71/restaurant-71.png","icon_background_color":"#FF9E67","icon_mask_base_uri":"https://maps.gstatic.com/mapfiles/place_api/icons/v2/restaurant_pinlet","name":"Pala - Slow Urban Food","opening_hours":{"open_now":true},"photos":[{"height":3024,"html_attributions":["<a href=\"https://maps.google.com/maps/contrib/109862895158977220663\">A Google User</a>"],"photo_reference":"AeJbb3e0SYRL6blCXsRbBQz52nYC9JePv8clvOtUah9XAN1i2huGr55-OYLJjhonyiqXYo3hWdNr2qazctlw1uYJWAPmUAC0bmOJizfJkHFK5gRg6YtHW3Fii98oNPBErq6P4gEm7EAM8N8x-iO5-ajFqClt75Qw_Tsgh-EqvxLnuaBgMj7r","width":4032}],"place_id":"ChIJASclBFW9oRQRwM4yZBuRuXI","plus_code":{"compound_code":"XQV8+GQ Athens","global_code":"8G95XQV8+GQ"},"rating":4.5,"reference":"ChIJASclBFW9oRQRwM4yZBuRuXI","types":["restaurant","cafe","food","point_of_interest","establishment"],"user_ratings_total":246},{"business_status":"OPERATIONAL","formatted_address":"Adrianou 52, Athina 105 55","geometry":{"location":{"lat":37.9756712,"lng":23.7252445},"viewport":{"northeast":{"lat":37.97695107989272,"lng":23.72678862989272},"southwest":{"lat":37.97425142010728,"lng":23.72408897010728}}},"icon":"https://maps.gstatic.com/mapfiles/place_api/icons/v1/png_71/restaurant-71.png","icon_background_color":"#FF9E67","icon_mask_base_uri":"https://maps.gstatic.com/mapfiles/place_api/icons/v2/restaurant_pinlet","name":"Hard Rock Cafe","opening_hours":{"open_now":true},"photos":[{"height":550,"html_attributions":["<a href=\"https://maps.google.com/maps/contrib/111761943165714729717\">A Google User</a>"],"photo_reference":"AeJbb3e-DLoMEVT4sDPuxRIc3ZeQB4ppiIrUoAs3LKhIKSoK_tldYgmJn0ElR-mv4gyOiN7Dm5uwKovcpn6IlxsjtBvxj54_y4AQM96FGPCMIJ6_fw7v2hZhO1taUaCTnInGRkMvKqaoZt68q2LEQPKHvzGXOPlp71k-yK9FpZhgqu6DHO-e","width":1250}],"place_id":"ChIJ1dOL8iK9oRQR58BJlcXpTeU","plus_code":{"compound_code":"XPGG+73 Athens","global_code":"8G95XPGG+73"},"price_level":2,"rating":4.4,"reference":"ChIJ1dOL8iK9oRQR58BJlcXpTeU","types":["restaurant","food","point_of_interest","establishment"],"user_ratings_total":4295},{"business_status":"OPERATIONAL","formatted_address":"Agias Lavras 13, Athina 111 41","geometry":{"location":{"lat":38.0167122,"lng":23.7393303},"viewport":{"northeast":{"lat":38.01805817989272,"lng":23.74070967989272},"southwest":{"lat":38.01535852010728,"lng":23.73801002010728}}},"icon":"https://maps.gstatic.com/mapfiles/place_api/icons/v1/png_71/restaurant-71.png","icon_background_color":"#FF9E67","icon_mask_base_uri":"https://maps.gstatic.com/mapfiles/place_api/icons/v2/restaurant_pinlet","name":"Mezedopolio.gr","opening_hours":{"open_now":false},"photos":[{"height":666,"html_attributions":["<a href=\"https://maps.google.com/maps/contrib/103632600139539760338\">Μεζεδοπωλείο Ταβέρνα επι τω λαϊκώτερον</a>"],"photo_reference":"AeJbb3fl4SZkKMclC18u13CfdtBD8TaAcrZAIdA29WhvCGZWiA7P9MLvzrpOgMMryIf4Q45nNjPXw-80Zenq1mEQsHOtpx5mK4x1YHxnAwJHpuJCg0XkOjS2Z1LuN16canWWhSewe5wfLFol8pmuVj_YpJIcVWspK8PR_mPb7wIrxiD1Zcu7","width":1000}],"place_id":"ChIJSQ0lreyioRQRDn9f63scRbs","plus_code":{"compound_code":"2P8Q+MP Athens","global_code":"8GC52P8Q+MP"},"price_level":2,"rating":4.4,"reference":"ChIJSQ0lreyioRQRDn9f63scRbs","types":["restaurant","point_of_interest","food","establishment"],"user_ratings_total":1628},{"business_status":"OPERATIONAL","formatted_address":"Leof. Vouliagmenis 4, Elliniko 167 77","geometry":{"location":{"lat":37.8886608,"lng":23.7500306},"viewport":{"northeast":{"lat":37.88994057989272,"lng":23.75133147989272},"southwest":{"lat":37.88724092010727,"lng":23.74863182010728}}},"icon":"https://maps.gstatic.com/mapfiles/place_api/icons/v1/png_71/restaurant-71.png","icon_background_color":"#FF9E67","icon_mask_base_uri":"https://maps.gstatic.com/mapfiles/place_api/icons/v2/restaurant_pinlet","name":"American Burger","opening_hours":{"open_now":false},"photos":[{"height":3464,"html_attributions":["<a href=\"https://maps.google.com/maps/contrib/105920455374828203394\">Foivian Lee</a>"],"photo_reference":"AeJbb3fYXgzURlHYJ9eXZBeGa2m6ulp0hmUZwIg70tPtwyfq7o08zz2pBHolES3p6N4LaGrC2wvYUNCrPLWZYGSe0430f7nmr6mFAfjk9zirag3dEZ_TrCDzdSb26wphHbDRcp9_23xC47IjEu6aFetYvvwqgHXie-BIss-ru7kM7aprAiL_","width":4618}],"place_id":"ChIJG7xCXj2-oRQRn1ThBbmWN90","plus_code":{"compound_code":"VQQ2+F2 Elliniko","global_code":"8G95VQQ2+F2"},"price_level":2,"rating":4.4,"reference":"ChIJG7xCXj2-oRQRn1ThBbmWN90","types":["restaurant","point_of_interest","food","establishment"],"user_ratings_total":635},{"business_status":"OPERATIONAL","formatted_address":"Leof. Kifisias 158, Neo Psichiko 151 25","geometry":{"location":{"lat":37.9988237,"lng":23.7703504},"viewport":{"northeast":{"lat":38.00021137989272,"lng":23.77164942989272},"southwest":{"lat":37.99751172010728,"lng":23.76894977010728}}},"icon":"https://maps.gstatic.com/mapfiles/place_api/icons/v1/png_71/bar-71.png","icon_background_color":"#FF9E67","icon_mask_base_uri":"https://maps.gstatic.com/mapfiles/place_api/icons/v2/bar_pinlet","name":"BLUE FOX","opening_hours":{"open_now":false},"photos":[{"height":409,"html_attributions":["<a href=\"https://maps.google.com/maps/contrib/103635275930237997304\">ΜΠΛΕ ΑΛΕΠΟΥ</a>"],"photo_reference":"AeJbb3dK9UFkIMhmdKG8PUIgtF9Kb_EzjqIyZasmGYNktrx7qDSWPEB-RFPo0XSR22o8HxBk_2wXyEi69KIl29dT8oH8oduLDHwCcYqtMG-A-LKGI0n2r-ruFbOeD5eWNxTj0SBbIdEbKvJygWCBw9G8GC-Y2PpdMX2V5FM9anyLpXRIKHLr","width":725}],"place_id":"ChIJ80KZvA6YoRQRi-pb2pUo1m0","plus_code":{"compound_code":"XQXC+G4 Neo Psychiko","global_code":"8G95XQXC+G4"},"price_level":2,"rating":4.4,"reference":"ChIJ80KZvA6YoRQRi-pb2pUo1m0","types":["bar","restaurant","point_of_interest","food","establishment"],"user_ratings_total":370},{"business_status":"OPERATIONAL","formatted_address":"Kolokotroni 35, Kifisia 145 62","geometry":{"location":{"lat":38.0747042,"lng":23.8190987},"viewport":{"northeast":{"lat":38.07595532989272,"lng":23.82057922989272},"southwest":{"lat":38.07325567010727,"lng":23.81787957010727}}},"icon":"https://maps.gstatic.com/mapfiles/place_api/icons/v1/png_71/restaurant-71.png","icon_background_color":"#FF9E67","icon_mask_base_uri":"https://maps.gstatic.com/mapfiles/place_api/icons/v2/restaurant_pinlet","name":"TGI Fridays™ Κηφισιά","opening_hours":{"open_now":true},"photos":[{"height":2268,"html_attributions":["<a href=\"https://maps.google.com/maps/contrib/117441709126780954749\">Nikolaos Larios</a>"],"photo_reference":"AeJbb3c_vEsEKEjvN1V5XfepxPVxVshMnt_CMWwr424IETHkfiIHXq5CcFssLieS7xrdR5V33TbYMrIVS5Rw1P1OfLCvKS0_660Vc8n0KhAEPOvXatPjIDfQ271G2NXTv5Jes4UhBc3JpqW6O32I2ESeaIkcaGpzQHVeliBrK8KbE7CyKMtY","width":4032}],"place_id":"ChIJy2PEe-eeoRQRcAGkTAJyLi8","plus_code":{"compound_code":"3RF9+VJ Kifisia","global_code":"8GC53RF9+VJ"},"price_level":2,"rating":4.3,"reference":"ChIJy2PEe-eeoRQRcAGkTAJyLi8","types":["bar","restaurant","food","point_of_interest","establishment"],"user_ratings_total":6182},{"business_status":"OPERATIONAL","formatted_address":"Meg. Alexandrou 2-6, Dafni 172 35","geometry":{"location":{"lat":37.9498472,"lng":23.7377018},"viewport":{"northeast":{"lat":37.95126432989273,"lng":23.73876822989272},"southwest":{"lat":37.94856467010728,"lng":23.73606857010728}}},"icon":"https://maps.gstatic.com/mapfiles/place_api/icons/v1/png_71/restaurant-71.png","icon_background_color":"#FF9E67","icon_mask_base_uri":"https://maps.gstatic.com/mapfiles/place_api/icons/v2/restaurant_pinlet","name":"Papa George's","opening_hours":{"open_now":true},"photos":[{"height":1080,"html_attributions":["<a href=\"https://maps.google.com/maps/contrib/115800111582858143110\">peg dim</a>"],"photo_reference":"AeJbb3e8xlI1d6Rf-x1y2I-ZeO_UJLeQU_Is8YMiF4Yb-0HeTL0fqeOFKQ01ybc9NA_Sc_BhQNXjXZfp3tWnbRYj54eS1rLJxQomyl4TIPdrSawDu2ZbShLR7s1mC0uBt13PeUsD5m1ec6AHqx2tNIE1wwf2Vv6smtMladOhaYAdK440RtU","width":1920}],"place_id":"ChIJx_iTRqC9oRQRXzZWsmAJ0sk","plus_code":{"compound_code":"WPXQ+W3 Dafni","global_code":"8G95WPXQ+W3"},"price_level":2,"rating":4.3,"reference":"ChIJx_iTRqC9oRQRXzZWsmAJ0sk","types":["restaurant","food","point_of_interest","establishment"],"user_ratings_total":961},{"business_status":"OPERATIONAL","formatted_address":"17 &, Ρόμβης και Κλειτίου, Athina","geometry":{"location":{"lat":37.9773132,"lng":23.7300451},"viewport":{"northeast":{"lat":37.97866302989272,"lng":23.73139492989272},"southwest":{"lat":37.97596337010727,"lng":23.72869527010728}}},"icon":"https://maps.gstatic.com/mapfiles/place_api/icons/v1/png_71/restaurant-71.png","icon_background_color":"#FF9E67","icon_mask_base_uri":"https://maps.gstatic.com/mapfiles/place_api/icons/v2/restaurant_pinlet","name":"Los Gatos","opening_hours":{"open_now":true},"photos":[{"height":640,"html_attributions":["<a href=\"https://maps.google.com/maps/contrib/100592555126147745866\">ΜΑΙΡΗ ΓΙΑΦΑΛΗ</a>"],"photo_reference":"AeJbb3cW98YTJIJqNTQjDchYATfKhEPjOwCt3WvZPUsF2fRn2RjbWs9miDQZybPjsBtOCM9HnR-_KQZ8gsqyv5oUW_myRN-98KDK-Rcxu0zJikv1BwzVmkazm8mUJiLcsSVr0YzGiiOJDcikDwqASh9HP15h5OP5KTIFnFk9tgvtYa9oh5pJ","width":960}],"place_id":"ChIJhfqdjjy9oRQRklJaAFr_t-w","plus_code":{"compound_code":"XPGJ+W2 Athens","global_code":"8G95XPGJ+W2"},"price_level":2,"rating":4.3,"reference":"ChIJhfqdjjy9oRQRklJaAFr_t-w","types":["restaurant","food","point_of_interest","establishment"],"user_ratings_total":767},{"business_status":"OPERATIONAL","formatted_address":"Voutadon 42, Athina 118 54","geometry":{"location":{"lat":37.9789325,"lng":23.7118054},"viewport":{"northeast":{"lat":37.98027777989272,"lng":23.71318952989272},"southwest":{"lat":37.97757812010727,"lng":23.71048987010727}}},"icon":"https://maps.gstatic.com/mapfiles/place_api/icons/v1/png_71/bar-71.png","icon_background_color":"#FF9E67","icon_mask_base_uri":"https://maps.gstatic.com/mapfiles/place_api/icons/v2/bar_pinlet","name":"Omikron 2","opening_hours":{"open_now":false},"photos":[{"height":3456,"html_attributions":["<a href=\"https://maps.google.com/maps/contrib/112463226383207702924\">Silver Sten Kruus</a>"],"photo_reference":"AeJbb3dLVfgX_Fo9ouD1pk0pE50A2O2P2nvWov6cmckHVprw6k5keB_X_6Z1sB39wvl5bDevjfeDKXrKIF0z2d1BF3LZYBwbT_Jtsu0jsj9pvjTQBfINMBbBRqGti5_otBoTb4nVybX0FuW7v9yJJm82f-EPZc13pSGkI1k5q1dbkmccuHfU","width":4608}],"place_id":"ChIJxZUYRd68oRQR11cXKit5u-M","plus_code":{"compound_code":"XPH6+HP Athens","global_code":"8G95XPH6+HP"},"price_level":2,"rating":4.3,"reference":"ChIJxZUYRd68oRQR11cXKit5u-M","types":["bar","cafe","restaurant","point_of_interest","food","establishment"],"user_ratings_total":465},{"business_status":"OPERATIONAL","formatted_address":"Palaio Faliro 175 10","geometry":{"location":{"lat":37.9312414,"lng":23.6852913},"viewport":{"northeast":{"lat":37.93259122989272,"lng":23.68664112989272},"southwest":{"lat":37.92989157010728,"lng":23.68394147010727}}},"icon":"https://maps.gstatic.com/mapfiles/place_api/icons/v1/png_71/restaurant-71.png","icon_background_color":"#FF9E67","icon_mask_base_uri":"https://maps.gstatic.com/mapfiles/place_api/icons/v2/restaurant_pinlet","name":"TGI Fridays™ Μαρίνα Φλοίσβου","opening_hours":{"open_now":true},"photos":[{"height":9000,"html_attributions":["<a href=\"https://maps.google.com/maps/contrib/101172689725398630954\">RJ SZ</a>"],"photo_reference":"AeJbb3fjr8OnBMHoenCpBxQjYsAmHowe7BeUArtNx4gTgCRiOPvSbPOXddHviLprBiZhD_s879NIABR_vJHE64tG5aW_20V8s9tYz-KAvGv7UPMkPgZh4K9Q1uUt1rxMWDRYpvN1laKoFsKgPiYdvcOi4E0DxY9qxxev-mH1uVUn-i1nr4L9","width":12000}],"place_id":"ChIJ8WRXhhm8oRQRj3BpIVePp38","plus_code":{"compound_code":"WMJP+F4 Palaio Faliro","global_code":"8G95WMJP+F4"},"price_level":3,"rating":4.2,"reference":"ChIJ8WRXhhm8oRQRj3BpIVePp38","types":["restaurant","food","point_of_interest","establishment"],"user_ratings_total":7667},{"business_status":"OPERATIONAL","formatted_address":"Arcade Spyromiliou, Athina","geometry":{"location":{"lat":37.9773281,"lng":23.7345677},"viewport":{"northeast":{"lat":37.97888502989272,"lng":23.73575947989272},"southwest":{"lat":37.97618537010727,"lng":23.73305982010728}}},"icon":"https://maps.gstatic.com/mapfiles/place_api/icons/v1/png_71/restaurant-71.png","icon_background_color":"#FF9E67","icon_mask_base_uri":"https://maps.gstatic.com/mapfiles/place_api/icons/v2/restaurant_pinlet","name":"Pasaji","opening_hours":{"open_now":true},"photos":[{"height":960,"html_attributions":["<a href=\"https://maps.google.com/maps/contrib/116520350910146102548\">Pasaji</a>"],"photo_reference":"AeJbb3cjn8RCFAm9D6ixqiG-lw5QY7LgsAmqYFi0UYpJyXj2z7M72jMUgNi235jlTazczhHUWSrkNMWBeSXMsWpH7wS-yMxpiAHMy3QYYTdP0FNsIinNXIblhPqZ_VYPXEhvHP_PfmRRckq4NQ30Wd-fi33u3h0OrdhXV5VgvMLb2m1vibFD","width":1440}],"place_id":"ChIJrTsssz69oRQR4uLBeVdRieo","plus_code":{"compound_code":"XPGM+WR Athens","global_code":"8G95XPGM+WR"},"price_level":3,"rating":4.2,"reference":"ChIJrTsssz69oRQR4uLBeVdRieo","types":["bar","restaurant","food","point_of_interest","establishment"],"user_ratings_total":996},{"business_status":"OPERATIONAL","formatted_address":"Eschilou 12, Athina 105 54","geometry":{"location":{"lat":37.9787314,"lng":23.7252127},"viewport":{"northeast":{"lat":37.98009852989272,"lng":23.72647402989272},"southwest":{"lat":37.97739887010728,"lng":23.72377437010728}}},"icon":"https://maps.gstatic.com/mapfiles/place_api/icons/v1/png_71/restaurant-71.png","icon_background_color":"#FF9E67","icon_mask_base_uri":"https://maps.gstatic.com/mapfiles/place_api/icons/v2/restaurant_pinlet","name":"Taverna Tou Psirri","opening_hours":{"open_now":true},"photos":[{"height":1536,"html_attributions":["<a href=\"https://maps.google.com/maps/contrib/104725043655383758797\">ΤΑΒΕΡΝΑ ΤΟΥ ΨΥΡΡΗ</a>"],"photo_reference":"AeJbb3eAtSGIk7kauAMqwoVrtzoF6vbBndrjsBVK9Kx4zkNuEBO56cYLrEDLvrz9iV_u39-dsMLBXQ8Xih8CxhzUEqHxFZWutgxClc1lR897ctJ5k32Da_GF08hL8G_1YXs8hatfQFN8-1B5Co5GGFonyn8rDlTNTwEupDW8d85_wzkOg7T6","width":2048}],"place_id":"ChIJFTNCeiO9oRQRrBxf1bl88PQ","plus_code":{"compound_code":"XPHG+F3 Athens","global_code":"8G95XPHG+F3"},"price_level":2,"rating":4.2,"reference":"ChIJFTNCeiO9oRQRrBxf1bl88PQ","types":["restaurant","food","point_of_interest","establishment"],"user_ratings_total":993},{"business_status":"OPERATIONAL","formatted_address":"Emiliou Veaki 11, Peristeri 121 34","geometry":{"location":{"lat":38.01152889999999,"lng":23.6954565},"viewport":{"northeast":{"lat":38.01291647989272,"lng":23.69679972989272},"southwest":{"lat":38.01021682010728,"lng":23.69410007010728}}},"icon":"https://maps.gstatic.com/mapfiles/place_api/icons/v1/png_71/restaurant-71.png","icon_background_color":"#FF9E67","icon_mask_base_uri":"https://maps.gstatic.com/mapfiles/place_api/icons/v2/restaurant_pinlet","name":"Bull House","opening_hours":{"open_now":true},"photos":[{"height":2322,"html_attributions":["<a href=\"https://maps.google.com/maps/contrib/102006500319082251439\">Pierros Zevolis</a>"],"photo_reference":"AeJbb3dIa3egM3bo7f3_k6eq08dQnkNqdR8xlToQl7qcVtgCJiEEQXknfjPaq57BIBv3ZjRvUN1kbC22gknd4gZtX2OUrepzXWnBCsedHJUIwP7mbqxsbJ6XATMtzjAwapJ91gm5EiPXlopkNuZKKh8kAC_-iDEuC5v94DUB6QRVeIDijj05","width":4128}],"place_id":"ChIJGVXbyDmjoRQRFBFo3agmXiM","plus_code":{"compound_code":"2M6W+J5 Peristeri","global_code":"8GC52M6W+J5"},"price_level":2,"rating":4.1,"reference":"ChIJGVXbyDmjoRQRFBFo3agmXiM","types":["restaurant","food","point_of_interest","establishment"],"user_ratings_total":724},{"business_status":"OPERATIONAL","formatted_address":"Ευζώνων Πάρκο Ελευθερίας Μέγαρο Μουσικής, Athina 115 21","geometry":{"location":{"lat":37.9803924,"lng":23.7519734},"viewport":{"northeast":{"lat":37.98160887989272,"lng":23.75330187989272},"southwest":{"lat":37.97890922010728,"lng":23.75060222010728}}},"icon":"https://maps.gstatic.com/mapfiles/place_api/icons/v1/png_71/restaurant-71.png","icon_background_color":"#FF9E67","icon_mask_base_uri":"https://maps.gstatic.com/mapfiles/place_api/icons/v2/restaurant_pinlet","name":"Noah","opening_hours":{"open_now":true},"photos":[{"height":4000,"html_attributions":["<a href=\"https://maps.google.com/maps/contrib/118443465659440845152\">aggeliki tsavdaridi</a>"],"photo_reference":"AeJbb3d1yWi7n8MsJItQCrs1FWY7CYY_Y1DdpyqigtBo9F3Sn4iYtHMmGPXoDsVpQiU2YDuSo0sYL5PlSJTAkljJPkGnBWZfLn4-L0LIiIUFjQrR51dUwVm4XKxMkHxiXnHEa8cFfJ-7QOs3TfPJFc3TD00ffw6vFOSexj2leeX3cAJvf8jC","width":3000}],"place_id":"ChIJw7f7IeC9oRQRegEAal3IggI","plus_code":{"compound_code":"XQJ2+5Q Athens","global_code":"8G95XQJ2+5Q"},"price_level":2,"rating":4,"reference":"ChIJw7f7IeC9oRQRegEAal3IggI","types":["restaurant","food","point_of_interest","establishment"],"user_ratings_total":1896},{"business_status":"OPERATIONAL","formatted_address":"Andrea Papandreou 4, Glifada 166 75","geometry":{"location":{"lat":37.8623663,"lng":23.7483382},"viewport":{"northeast":{"lat":37.86375212989272,"lng":23.74963372989272},"southwest":{"lat":37.86105247010727,"lng":23.74693407010728}}},"icon":"https://maps.gstatic.com/mapfiles/place_api/icons/v1/png_71/bar-71.png","icon_background_color":"#FF9E67","icon_mask_base_uri":"https://maps.gstatic.com/mapfiles/place_api/icons/v2/bar_pinlet","name":"Wings Bar & Grill Hellas Estiatoria Ltd","opening_hours":{"open_now":true},"place_id":"ChIJ-R8Y-s6_oRQRmOs_VSNVWBI","plus_code":{"compound_code":"VP6X+W9 Glyfada","global_code":"8G95VP6X+W9"},"rating":2.8,"reference":"ChIJ-R8Y-s6_oRQRmOs_VSNVWBI","types":["bar","restaurant","food","point_of_interest","establishment"],"user_ratings_total":6}]