[{"business_status":"OPERATIONAL","formatted_address":"Taki 16, Athina 105 54","geometry":{"location":{"lat":37.9784024,"lng":23.7238391},"viewport":{"northeast":{"lat":37.97972727989271,"lng":23.72520857989272},"southwest":{"lat":37.97702762010727,"lng":23.72250892010728}}},"icon":"https://maps.gstatic.com/mapfiles/place_api/icons/v1/png_71/restaurant-71.png","icon_background_color":"#FF9E67","icon_mask_base_uri":"https://maps.gstatic.com/mapfiles/place_api/icons/v2/restaurant_pinlet","name":"Thes ''Greek Creative Cuisine''","opening_hours":{"open_now":false},"photos":[{"height":3024,"html_attributions":["<a href=\"https://maps.google.com/maps/contrib/106287577741200707050\">Itay Sali</a>"],"photo_reference":"AeJbb3evU_cJwrxdaAwKe-O5FQM9j4Nf7BlhFi4ntttKO2M8INuSuH0USox2jNzmoVKeod7f79ztAQeg4kerG8iOjdIv_tYUPQ-c6rcnKA6fLV_s1vov340jgp6iAWr92dGslxhxp-s9YIMoL2nvB-qo9oONzY_Hn0C-UAzhlQRHlsRoPAN3","width":4032}],"place_id":"ChIJNdhChri9oRQR5FKf5I64P4o","plus_code":{"compound_code":"XPHF+9G Athens","global_code":"8G95XPHF+9G"},"price_level":2,"rating":4.8,"reference":"ChIJNdhChri9oRQR5FKf5I64P4o","types":["restaurant","food","point_of_interest","establishment"],"user_ratings_total":621},{"business_status":"OPERATIONAL","formatted_address":"P. Tsaldari 4, Athina 104 31","geometry":{"location":{"lat":37.9837429,"lng":23.7270681},"viewport":{"northeast":{"lat":37.98504692989272,"lng":23.72844497989272},"southwest":{"lat":37.98234727010728,"lng":23.72574532010728}}},"icon":"https://maps.gstatic.com/mapfiles/place_api/icons/v1/png_71/restaurant-71.png","icon_background_color":"#FF9E67","icon_mask_base_uri":"https://maps.gstatic.com/mapfiles/place_api/icons/v2/restaurant_pinlet","name":"Delicious Souvlaki","opening_hours":{"open_now":true},"photos":[{"height":1960,"html_attributions":["<a href=\"https://maps.google.com/maps/contrib/108491356894928870435\">A Google User</a>"],"photo_reference":"AeJbb3eZyXu0stElxUwJ-FUJevkcYEaduCUgRDam-z3Dg82RzZs0gBrPDjt6UDXJJzpXOyrzpcnr5rGJycIADrHDJZrAF21eOTHLrGkams6HOa5OKI4MkOywCeeUr8xhqZBwMM5TnoUs_ic_p_n0t0FUheDF0SVrkceMRU8M5hHlfo1enmax","width":3150}],"place_id":"ChIJE-L3ViW9oRQRPK0ccOb6aZM","plus_code":{"compound_code":"XPMG+FR Athens","global_code":"8G95XPMG+FR"},"rating":4.8,"reference":"ChIJE-L3ViW9oRQRPK0ccOb6aZM","types":["restaurant","food","point_of_interest","establishment"],"user_ratings_total":488},{"business_status":"OPERATIONAL","formatted_address":"Okeanidon 6, Athina 117 45","geometry":{"location":{"lat":37.955185,"lng":23.7166545},"viewport":{"northeast":{"lat":37.95655772989272,"lng":23.71803437989272},"southwest":{"lat":37.95385807010727,"lng":23.71533472010728}}},"icon":"https://maps.gstatic.com/mapfiles/place_api/icons/v1/png_71/restaurant-71.png","icon_background_color":"#FF9E67","icon_mask_base_uri":"https://maps.gstatic.com/mapfiles/place_api/icons/v2/restaurant_pinlet","name":"Ta Filarakia","opening_hours":{"open_now":true},"photos":[{"height":576,"html_attributions":["<a href=\"https://maps.google.com/maps/contrib/103892547936112890404\">Ta Filarakia</a>"],"photo_reference":"AeJbb3eQq3hxkCZNj5nJPRDaqOyvBaPidbB0n9XvAJqG58O4Yl5cY367kVJqRJUmUFQToJ4w1djcjZKjDkCMf62ccwd29yn42QEQelGrVULSMMKlim5zK3-3S8k82GthFlqOo6nwT25OWsNddP861vqawz9s0fgCCLlwcSeMgbNHxsGfy9L2","width":960}],"place_id":"ChIJCyv6u6q9oRQRROGAydADPCY","plus_code":{"compound_code":"XP48+3M Athens","global_code":"8G95XP48+3M"},"price_level":1,"rating":4.8,"reference":"ChIJCyv6u6q9oRQRROGAydADPCY","types":["restaurant","food","point_of_interest","establishment"],"user_ratings_total":136},{"business_status":"OPERATIONAL","formatted_address":"Aiolou 57, Athina 105 51","geometry":{"location":{"lat":37.97872,"lng":23.7280417},"viewport":{"northeast":{"lat":37.97962832989272,"lng":23.72933682989272},"southwest":{"lat":37.97692867010728,"lng":23.72663717010727}}},"icon":"https://maps.gstatic.com/mapfiles/place_api/icons/v1/png_71/restaurant-71.png","icon_background_color":"#FF9E67","icon_mask_base_uri":"https://maps.gstatic.com/mapfiles/place_api/icons/v2/restaurant_pinlet","name":"Aioliki odos","opening_hours":{"open_now":true},"photos":[{"height":4032,"html_attributions":["<a href=\"https://maps.google.com/maps/contrib/108941423243366810693\">Popshot686</a>"],"photo_reference":"AeJbb3edvL7D07GwAzb0k8qtF_UXg06_AmqTlA_bR5h7l-rm3pz8F6gL1xXMMabrUbbwyvfsE-DlnPV8L5iFmRZxddvsIZPXmElJvhT6-bYs2oLa56dO6rI8oalXDtMX8nGfWKL4VkBuz-Yhy_PkhO652Lr_edyzuYqSWqfGHSjmsp3z9Nq8","width":3024}],"place_id":"ChIJ16NohWq9oRQRUNrioA8O2Ds","plus_code":{"compound_code":"XPHH+F6 Athens","global_code":"8G95XPHH+F6"},"rating":4.8,"reference":"ChIJ16NohWq9oRQRUNrioA8O2Ds","types":["restaurant","point_of_interest","food","establishment"],"user_ratings_total":18},{"business_status":"OPERATIONAL","formatted_address":"Adrianou 47, Athina 105 55","geometry":{"location":{"lat":37.9756761,"lng":23.7253573},"viewport":{"northeast":{"lat":37.97696997989272,"lng":23.72685277989272},"southwest":{"lat":37.97427032010728,"lng":23.72415312010728}}},"icon":"https://maps.gstatic.com/mapfiles/place_api/icons/v1/png_71/restaurant-71.png","icon_background_color":"#FF9E67","icon_mask_base_uri":"https://maps.gstatic.com/mapfiles/place_api/icons/v2/restaurant_pinlet","name":"Maiandros restaurant","opening_hours":{"open_now":true},"photos":[{"height":1365,"html_attributions":["<a href=\"https://maps.google.com/maps/contrib/104210949109899257883\">A Google User</a>"],"photo_reference":"AeJbb3cCqLEuH33S4Mx5fbMjJmwWmKS9Bb-8q5l4bvR--3Wig_prfDN--2UQ8HRYsPW2T5ccfPGzGFAcUOyjUpUonoWMFn4OqO91H9UTzAFASAhbcTqUR6S6nqBEI8IDDr6TvmWnrETcm1nYgXatE40WvIXbicUD8lc85wTvZfZs4o4QZczh","width":2048}],"place_id":"ChIJt5Vl8iK9oRQRytN0edMgMu4","plus_code":{"compound_code":"XPGG+74 Athens","global_code":"8G95XPGG+74"},"price_level":1,"rating":4.7,"reference":"ChIJt5Vl8iK9oRQRytN0edMgMu4","types":["cafe","restaurant","food","point_of_interest","establishment"],"user_ratings_total":5503},{"business_status":"OPERATIONAL","formatted_address":"Kapodistriou 2, Athina 106 83","geometry":{"location":{"lat":37.986113,"lng":23.732372},"viewport":{"northeast":{"lat":37.98740752989272,"lng":23.73362867989272},"southwest":{"lat":37.98470787010728,"lng":23.73092902010728}}},"icon":"https://maps.gstatic.com/mapfiles/place_api/icons/v1/png_71/restaurant-71.png","icon_background_color":"#FF9E67","icon_mask_base_uri":"https://maps.gstatic.com/mapfiles/place_api/icons/v2/restaurant_pinlet","name":"Ατίταμος","opening_hours":{"open_now":true},"photos":[{"height":3024,"html_attributions":["<a href=\"https://maps.google.com/maps/contrib/110351908486951368588\">A Google User</a>"],"photo_reference":"AeJbb3cKc3T9cqc536vckJNOnIBDmLCU6sIlu4Mb2d75MgzzBAEeIp2oJBX5iWnUixqN_yo9jWrLt4UhHeXSbV3E_n0xyxlySewGr_y3gNtRHwvGbz4FZGr-XgluNid4DivQbbkilmyGhrGNtlmn5Q3DaP7vOkGG1PpigXfqAZiNYuQhHCQp","width":4032}],"place_id":"ChIJsVs_PDG9oRQRZVz7kWowAIw","plus_code":{"compound_code":"XPPJ+CW Athens","global_code":"8G95XPPJ+CW"},"price_level":2,"rating":4.7,"reference":"ChIJsVs_PDG9oRQRZVz7kWowAIw","types":["restaurant","point_of_interest","food","establishment"],"user_ratings_total":4423},{"business_status":"OPERATIONAL","formatted_address":"Apollonos, Athina 105 57","geometry":{"location":{"lat":37.9747821,"lng":23.7312851},"viewport":{"northeast":{"lat":37.97611122989272,"lng":23.73263662989272},"southwest":{"lat":37.97341157010727,"lng":23.72993697010727}}},"icon":"https://maps.gstatic.com/mapfiles/place_api/icons/v1/png_71/restaurant-71.png","icon_background_color":"#FF9E67","icon_mask_base_uri":"https://maps.gstatic.com/mapfiles/place_api/icons/v2/restaurant_pinlet","name":"Aspro Alogo","opening_hours":{"open_now":true},"photos":[{"height":4032,"html_attributions":["<a href=\"https://maps.google.com/maps/contrib/115023767133676122726\">Cristian Signori</a>"],"photo_reference":"AeJbb3cyFlBffsVpegI6tQjiEPlnRBY8faEQQTMMPpF5ozZtGIF1GuItO5Gf2o8gqFrf2RGeFHxf-qsjaw6-Oz4EdHUYjuqbEjWbXLL22nQIjFdSMPet_cCZGE7JINohrjkes9FyrEYOkeKF2d3OrV0Imppmd37YB_XiP6ZjjyTbwals5dny","width":3024}],"place_id":"ChIJASvdpD29oRQR0a1ar9x1Q4s","plus_code":{"compound_code":"XPFJ+WG Athens","global_code":"8G95XPFJ+WG"},"price_level":1,"rating":4.7,"reference":"ChIJASvdpD29oRQR0a1ar9x1Q4s","types":["restaurant","food","point_of_interest","establishment"],"user_ratings_total":2441},{"business_status":"OPERATIONAL","formatted_address":"Meg. Alexandrou 7, Athina 104 37","geometry":{"location":{"lat":37.984706,"lng":23.721367},"viewport":{"northeast":{"lat":37.98603947989272,"lng":23.72272932989272},"southwest":{"lat":37.98333982010728,"lng":23.72002967010728}}},"icon":"https://maps.gstatic.com/mapfiles/place_api/icons/v1/png_71/restaurant-71.png","icon_background_color":"#FF9E67","icon_mask_base_uri":"https://maps.gstatic.com/mapfiles/place_api/icons/v2/restaurant_pinlet","name":"MIRONI Greek Restaurant","opening_hours":{"open_now":true},"photos":[{"height":4016,"html_attributions":["<a href=\"https://maps.google.com/maps/contrib/106526175590832501720\">A Google User</a>"],"photo_reference":"AeJbb3dgcIRob9nGhM_mDJpMuQ1C0d_7dMQBWS9WoQFhfLYLaSkCyzbxRFBgXkWuTdWaVc7IoiSsYgh0HnaF7MPkciRGckEevDBjL5jWUeaYBwbTUFQgs3lRz6WUNyCKn5TZbVWCWh7ASPYX9cPCK4igoGcm2ADZZyCKOwIFit_n8iETRU4-","width":6016}],"place_id":"ChIJlYeHnSa9oRQR5llP5YIr4dI","plus_code":{"compound_code":"XPMC+VH Athens","global_code":"8G95XPMC+VH"},"price_level":2,"rating":4.7,"reference":"ChIJlYeHnSa9oRQR5llP5YIr4dI","types":["restaurant","point_of_interest","food","establishment"],"user_ratings_total":1576},{"business_status":"OPERATIONAL","formatted_address":"Esopou 4, Athina 105 54","geometry":{"location":{"lat":37.9777207,"lng":23.7241795},"viewport":{"northeast":{"lat":37.97899427989273,"lng":23.72555022989272},"southwest":{"lat":37.97629462010729,"lng":23.72285057010728}}},"icon":"https://maps.gstatic.com/mapfiles/place_api/icons/v1/png_71/restaurant-71.png","icon_background_color":"#FF9E67","icon_mask_base_uri":"https://maps.gstatic.com/mapfiles/place_api/icons/v2/restaurant_pinlet","name":"Krasopoulio tou Kokkora","opening_hours":{"open_now":true},"photos":[{"height":350,"html_attributions":["<a href=\"https://maps.google.com/maps/contrib/113098641429457014719\">A Google User</a>"],"photo_reference":"AeJbb3efVJaGJhEa0rFcTRPZfBAqSRPj0DrBlo-geRkJmdywM9kAeZZ6Xznx9LBId7gpLTpGnp8SAUGOoCYfdstuEb8tH_Op3ivXCdfO0EDeiCNNchZpjv9vDv02Y3O5pp6MhalQ_l5WcQqKhRBkrO28W-A_oBH5Pd5z-XtFv0CBNP9nf3rY","width":514}],"place_id":"ChIJjWbppSO9oRQRtMcStGxrZEs","plus_code":{"compound_code":"XPHF+3M Athens","global_code":"8G95XPHF+3M"},"price_level":1,"rating":4.7,"reference":"ChIJjWbppSO9oRQRtMcStGxrZEs","types":["restaurant","food","point_of_interest","establishment"],"user_ratings_total":1368},{"business_status":"OPERATIONAL","formatted_address":"Makrigianni 19-21, Athina 117 42","geometry":{"location":{"lat":37.9682728,"lng":23.729471},"viewport":{"northeast":{"lat":37.96962697989272,"lng":23.73072162989272},"southwest":{"lat":37.96692732010727,"lng":23.72802197010728}}},"icon":"https://maps.gstatic.com/mapfiles/place_api/icons/v1/png_71/restaurant-71.png","icon_background_color":"#FF9E67","icon_mask_base_uri":"https://maps.gstatic.com/mapfiles/place_api/icons/v2/restaurant_pinlet","name":"GREEK STORIES","opening_hours":{"open_now":true},"photos":[{"height":1536,"html_attributions":["<a href=\"https://maps.google.com/maps/contrib/104047679428307549540\">A Google User</a>"],"photo_reference":"AeJbb3fg3rS167W17kKurmz0pdWCPZA8AHLkjegqBPNIXNkcSRJVuOgmv_1TVhuzmSJSnHsOHwFThflDswhuIqIv2CUf7gxEqDAtRVrvOhovCKYdsNfC-E7dWGJT24j08d3B6zv8rMu_AI1_mkRtORHWlpPGtGIjRrCrnxDbxqcjg87qfJPD","width":2048}],"place_id":"ChIJ18umMxe9oRQRO3aaGaGmehU","plus_code":{"compound_code":"XP9H+8Q Athens","global_code":"8G95XP9H+8Q"},"price_level":2,"rating":4.7,"reference":"ChIJ18umMxe9oRQRO3aaGaGmehU","types":["restaurant","point_of_interest","food","establishment"],"user_ratings_total":1035},{"business_status":"OPERATIONAL","formatted_address":"Adrianou 49Α, Athina 105 55","geometry":{"location":{"lat":37.9756659,"lng":23.7254964},"viewport":{"northeast":{"lat":37.97695637989273,"lng":23.72691767989272},"southwest":{"lat":37.97425672010728,"lng":23.72421802010728}}},"icon":"https://maps.gstatic.com/mapfiles/place_api/icons/v1/png_71/restaurant-71.png","icon_background_color":"#FF9E67","icon_mask_base_uri":"https://maps.gstatic.com/mapfiles/place_api/icons/v2/restaurant_pinlet","name":"Efcharis restaurant","opening_hours":{"open_now":true},"photos":[{"height":3024,"html_attributions":["<a href=\"https://maps.google.com/maps/contrib/103120375165717450114\">LjgrimsditchGmailCom hjh</a>"],"photo_reference":"AeJbb3enDolzN5QqefByFnaU8u3avuEWlshi4XlHlXMPbWP_TBYfETyBPWju-eZUb66QV-5i8Xplmr6XDJX-WyOWqTHTLLnOU-P5l9KzRbAplubCauc7aYgEKhu9pfgNqk57Dm5NOA_u0cyG8RVOcelTE83O7dOjrknPYRbCvwqlZt13SzKr","width":4032}],"place_id":"ChIJM0a57SK9oRQReqK-2kngRh4","plus_code":{"compound_code":"XPGG+75 Athens","global_code":"8G95XPGG+75"},"price_level":2,"rating":4.6,"reference":"ChIJM0a57SK9oRQReqK-2kngRh4","types":["restaurant","point_of_interest","food","establishment"],"user_ratings_total":3728},{"business_status":"OPERATIONAL","formatted_address":"Makrigianni 19-21, Athina 117 41","geometry":{"location":{"lat":37.9682179,"lng":23.7294746},"viewport":{"northeast":{"lat":37.96959237989272,"lng":23.73070787989272},"southwest":{"lat":37.96689272010727,"lng":23.72800822010728}}},"icon":"https://maps.gstatic.com/mapfiles/place_api/icons/v1/png_71/restaurant-71.png","icon_background_color":"#FF9E67","icon_mask_base_uri":"https://maps.gstatic.com/mapfiles/place_api/icons/v2/restaurant_pinlet","name":"LIONDI Traditional Greek Restaurant","opening_hours":{"open_now":true},"photos":[{"height":3918,"html_attributions":["<a href=\"https://maps.google.com/maps/contrib/101471019524499741962\">Masashi Enya</a>"],"photo_reference":"AeJbb3cSQfuqKjYaQwETK9Rrg8n4rvSi06FeJXN3qqaQAzPQTraElE2PH8Jaa1NdBtaHnypy2sgKD_uHMKbxw0ep7ZhTG2IEvuAR8suCxG0FCO-CQFLeSphO8OjGuvqGxwvMZuzjbgVWIscrdKBDQJP59ore-QFU4u2ARaB_s49ymClSwDfk","width":2938}],"place_id":"ChIJVbCjMxe9oRQRvxsC7R8ldVM","plus_code":{"compound_code":"XP9H+7Q Athens","global_code":"8G95XP9H+7Q"},"price_level":2,"rating":4.6,"reference":"ChIJVbCjMxe9oRQRvxsC7R8ldVM","types":["restaurant","point_of_interest","food","establishment"],"user_ratings_total":2202},{"business_status":"OPERATIONAL","formatted_address":"Falirou 10, Athina 117 42","geometry":{"location":{"lat":37.966693,"lng":23.728368},"viewport":{"northeast":{"lat":37.96799567989272,"lng":23.72976802989272},"southwest":{"lat":37.96529602010727,"lng":23.72706837010728}}},"icon":"https://maps.gstatic.com/mapfiles/place_api/icons/v1/png_71/restaurant-71.png","icon_background_color":"#FF9E67","icon_mask_base_uri":"https://maps.gstatic.com/mapfiles/place_api/icons/v2/restaurant_pinlet","name":"Mani Mani","opening_hours":{"open_now":true},"photos":[{"height":2736,"html_attributions":["<a href=\"https://maps.google.com/maps/contrib/117969954117674767112\">Keith Castelino</a>"],"photo_reference":"AeJbb3dYFn8ydLFsI_wWQ1-ZtEQ6_hJsvfppsdPA0P84sZYP4lS3d1Sjs3wmiaTPc3_infFtvus3UokgsMriftGXjLQKAH2QwPDlUbw1AWXUfGxlZP6Yu1jQ8ST63HTLAqS3vC9TYQ6YSNttIMkxVi5b1wJ8J183-EBXQkRShf-vOJBKxBLb","width":3648}],"place_id":"ChIJI0fJjxC9oRQRAuU-aOvrqHk","plus_code":{"compound_code":"XP8H+M8 Athens","global_code":"8G95XP8H+M8"},"price_level":2,"rating":4.6,"reference":"ChIJI0fJjxC9oRQRAuU-aOvrqHk","types":["restaurant","point_of_interest","food","establishment"],"user_ratings_total":1965},{"business_status":"OPERATIONAL","formatted_address":"Makrigianni 23-27, Athina 117 42","geometry":{"location":{"lat":37.9681725,"lng":23.7294611},"viewport":{"northeast":{"lat":37.96942722989273,"lng":23.73072257989272},"southwest":{"lat":37.96672757010729,"lng":23.72802292010727}}},"icon":"https://maps.gstatic.com/mapfiles/place_api/icons/v1/png_71/restaurant-71.png","icon_background_color":"#FF9E67","icon_mask_base_uri":"https://maps.gstatic.com/mapfiles/place_api/icons/v2/restaurant_pinlet","name":"Arcadia Restaurant","opening_hours":{"open_now":true},"photos":[{"height":3264,"html_attributions":["<a href=\"https://maps.google.com/maps/contrib/111472634645549568381\">ΑΡΚΑΔΙΑ</a>"],"photo_reference":"AeJbb3dWO-GvNbTnC434WqfgzrQlPIxG5Qsa0VlKqvOFjcHXxQrJFWlRsQ5vNnZCqgaXd_2yJ5SZRV17qyF9f8VKu5lLM-njGMVZmV8B5gRDyl4jqeP2bM7d5nKjMwinzF0BL4T24ip8ITc94nfm576Pu4xqTrwBp8znU-YZquEJPMKbgDGd","width":4928}],"place_id":"ChIJW0t5zBC9oRQRb32QaHH8MXc","plus_code":{"compound_code":"XP9H+7Q Athens","global_code":"8G95XP9H+7Q"},"price_level":2,"rating":4.6,"reference":"ChIJW0t5zBC9oRQRb32QaHH8MXc","types":["restaurant","point_of_interest","food","establishment"],"user_ratings_total":1850},{"business_status":"OPERATIONAL","formatted_address":"Pitheou 32, Athina 117 43","geometry":{"location":{"lat":37.9625271,"lng":23.7323313},"viewport":{"northeast":{"lat":37.96383217989273,"lng":23.73369332989272},"southwest":{"lat":37.96113252010728,"lng":23.73099367010728}}},"icon":"https://maps.gstatic.com/mapfiles/place_api/icons/v1/png_71/restaurant-71.png","icon_background_color":"#FF9E67","icon_mask_base_uri":"https://maps.gstatic.com/mapfiles/place_api/icons/v2/restaurant_pinlet","name":"Λοστρέ κουζίνα","opening_hours":{"open_now":true},"photos":[{"height":3456,"html_attributions":["<a href=\"https://maps.google.com/maps/contrib/112745889162065403830\">Λοστρέ κουζίνα</a>"],"photo_reference":"AeJbb3dNh2N56P67fgFfhJUcYEkDpBSQSypdmZzJELaqNm_1z1yW5FYxGU_XkrTG_QzCDtDjbodA2GjYxe6ItCsuusx5v6dmOd_oDOUrL0EI22zzR5doHSX6vvedgRCQqOrlUdwzCpA4KGTMjdvtssnloZmj3SacDg4qs8927sEqscZH9i-q","width":4608}],"place_id":"ChIJwU-aHg69oRQR7PcM8H7_f5Q","plus_code":{"compound_code":"XP7J+2W Athens","global_code":"8G95XP7J+2W"},"price_level":2,"rating":4.6,"reference":"ChIJwU-aHg69oRQR7PcM8H7_f5Q","types":["restaurant","point_of_interest","food","establishment"],"user_ratings_total":1601},{"business_status":"OPERATIONAL","formatted_address":"Meg. Alexandrou 3, Athina 104 37","geometry":{"location":{"lat":37.9847654,"lng":23.721538},"viewport":{"northeast":{"lat":37.98612427989272,"lng":23.72288122989272},"southwest":{"lat":37.98342462010728,"lng":23.72018157010728}}},"icon":"https://maps.gstatic.com/mapfiles/place_api/icons/v1/png_71/restaurant-71.png","icon_background_color":"#FF9E67","icon_mask_base_uri":"https://maps.gstatic.com/mapfiles/place_api/icons/v2/restaurant_pinlet","name":"Alexander The Great","opening_hours":{"open_now":true},"photos":[{"height":529,"html_attributions":["<a href=\"https://maps.google.com/maps/contrib/100402793856068422436\">A Google User</a>"],"photo_reference":"AeJbb3cw6CirefnciI8F0QC1zjKfYpFHA-8EK9P-P9zBWCeI5614xkrVfZ5t6G3tll_FWObl27qexwESXpj1RIAm2S7u1AA9uIlSmToUKJ3YZEYRAwMdGF875u0CTSKKRoPHLj3aNHCifeDnfMqZq0giRrjYiKUjNWUgqaETP6sb55wCDKQy","width":800}],"place_id":"ChIJp4yl_yW9oRQRfBdmp3vmuuQ","plus_code":{"compound_code":"XPMC+WJ Athens","global_code":"8G95XPMC+WJ"},"price_level":2,"rating":4.6,"reference":"ChIJp4yl_yW9oRQRfBdmp3vmuuQ","types":["restaurant","point_of_interest","food","establishment"],"user_ratings_total":1300},{"business_status":"OPERATIONAL","formatted_address":"Mitropoleos 26, Athina 105 63","geometry":{"location":{"lat":37.975385,"lng":23.732075},"viewport":{"northeast":{"lat":37.97667772989272,"lng":23.73341677989272},"southwest":{"lat":37.97397807010728,"lng":23.73071712010728}}},"icon":"https://maps.gstatic.com/mapfiles/place_api/icons/v1/png_71/restaurant-71.png","icon_background_color":"#FF9E67","icon_mask_base_uri":"https://maps.gstatic.com/mapfiles/place_api/icons/v2/restaurant_pinlet","name":"Ella Greek Cooking","opening_hours":{"open_now":true},"photos":[{"height":1080,"html_attributions":["<a href=\"https://maps.google.com/maps/contrib/100207740534512031875\">A Google User</a>"],"photo_reference":"AeJbb3eSE2t8K0ijz35K-sC8nd99ggX3PBTehPAPZeqdcGbyKBbQ80gYrr6QgOTsh57fmb5vSppV9bbaJiL_DFvMNpQ0KKn_sSu43viHb40Da7R6xdEagn6xDUSARJjX6qe04E0N3eSe3vxGL0HuhLdj_bGE2rvctfE9Rxr31TaBiEWe4m8Z","width":1621}],"place_id":"ChIJF0HWcbm9oRQRt6pJrsjdDEQ","plus_code":{"compound_code":"XPGJ+5R Athens","global_code":"8G95XPGJ+5R"},"price_level":2,"rating":4.6,"reference":"ChIJF0HWcbm9oRQRt6pJrsjdDEQ","types":["restaurant","point_of_interest","food","establishment"],"user_ratings_total":1207},{"business_status":"OPERATIONAL","formatted_address":"Garivaldi 7, Athina 117 42","geometry":{"location":{"lat":37.9691116,"lng":23.7237066},"viewport":{"northeast":{"lat":37.97046442989272,"lng":23.72502197989272},"southwest":{"lat":37.96776477010728,"lng":23.72232232010727}}},"icon":"https://maps.gstatic.com/mapfiles/place_api/icons/v1/png_71/restaurant-71.png","icon_background_color":"#FF9E67","icon_mask_base_uri":"https://maps.gstatic.com/mapfiles/place_api/icons/v2/restaurant_pinlet","name":"GH Attikos Restaurant","opening_hours":{"open_now":true},"photos":[{"height":3024,"html_attributions":["<a href=\"https://maps.google.com/maps/contrib/114443442488290212325\">Terence Chiu</a>"],"photo_reference":"AeJbb3e-vxs0vhr1ZaqwBDSx7PKrAR6iWtOu1Bu5ET9KZjBoudnYZ4RQGgcMMa-msKzYieZ0kvAzS5EpVMwqXL7ZS7KkhwU89fD6Hnzh-G7zpM2_Y5PX8wU-hTeJvuJhorr21olSE2N38j4bbSD_KHJcxkNWelZRZUZeVIgYb88H2oOZQpqm","width":4032}],"place_id":"ChIJM98wjiC9oRQRw4VM2ORw1jk","plus_code":{"compound_code":"XP9F+JF Athens","global_code":"8G95XP9F+JF"},"price_level":2,"rating":4.6,"reference":"ChIJM98wjiC9oRQRw4VM2ORw1jk","types":["restaurant","food","point_of_interest","establishment"],"user_ratings_total":1190},{"business_status":"OPERATIONAL","formatted_address":"Sofokleous 17-19, Athina 105 51","geometry":{"location":{"lat":37.9808881,"lng":23.7277678},"viewport":{"northeast":{"lat":37.98227937989272,"lng":23.72912937989272},"southwest":{"lat":37.97957972010727,"lng":23.72642972010728}}},"icon":"https://maps.gstatic.com/mapfiles/place_api/icons/v1/png_71/restaurant-71.png","icon_background_color":"#FF9E67","icon_mask_base_uri":"https://maps.gstatic.com/mapfiles/place_api/icons/v2/restaurant_pinlet","name":"Aris Tavern","opening_hours":{"open_now":true},"photos":[{"height":2662,"html_attributions":["<a href=\"https://maps.google.com/maps/contrib/103750481964249885258\">Taverna &#39;O Aris&#39;</a>"],"photo_reference":"AeJbb3cIAVnBY_EKPMTljbWnfz72VlSVnz0U7Z9qeGy5kXCaTSdUpxZw5MQaIc50OdzawpbhvzlbCq5VubpT6LmQqkCx3fOrrkeEoHaLUPbf9rXpA-vouEr0qSMBztigJYBzti9p6UOTXLynKgoh0Vz5g898i6_R-_gikC84cZw-wMhHkEtV","width":4000}],"place_id":"ChIJl8B8LDu9oRQRIMfwrQxpgCY","plus_code":{"compound_code":"XPJH+94 Athens","global_code":"8G95XPJH+94"},"rating":4.6,"reference":"ChIJl8B8LDu9oRQRIMfwrQxpgCY","types":["restaurant","point_of_interest","food","establishment"],"user_ratings_total":650},{"business_status":"OPERATIONAL","formatted_address":"Emmanouil Benaki 34, Athina 106 78","geometry":{"location":{"lat":37.9842951,"lng":23.7326325},"viewport":{"northeast":{"lat":37.98566502989271,"lng":23.73396622989272},"southwest":{"lat":37.98296537010727,"lng":23.73126657010728}}},"icon":"https://maps.gstatic.com/mapfiles/place_api/icons/v1/png_71/restaurant-71.png","icon_background_color":"#FF9E67","icon_mask_base_uri":"https://maps.gstatic.com/mapfiles/place_api/icons/v2/restaurant_pinlet","name":"Tivoli","opening_hours":{"open_now":true},"photos":[{"height":960,"html_attributions":["<a href=\"https://maps.google.com/maps/contrib/108666000443564198620\">A Google User</a>"],"photo_reference":"AeJbb3cGHWVsaphhty36ClYOifpMuJNn2QJrHZqBGL3Fv1rnxWeorTGeORMXtyxZ0pQ5LI4IW7tncrBIkhwpQJXpCIchYda7uRYJWRtmvFckSu85RVqmRXkNkGRBrGAChvUnXJQ4_4cRsR6NP2G1s5BxDXLwz0X1t_G34tOjckBi-UQZ4vi-","width":1280}],"place_id":"ChIJjd-DxjC9oRQRNoFCgQEVphU","plus_code":{"compound_code":"XPMM+P3 Athens","global_code":"8G95XPMM+P3"},"price_level":2,"rating":4.6,"reference":"ChIJjd-DxjC9oRQRNoFCgQEVphU","types":["bar","restaurant","food","point_of_interest","establishment"],"user_ratings_total":552},{"business_status":"OPERATIONAL","formatted_address":"Drakou 10, Athina 117 42","geometry":{"location":{"lat":37.9653714,"lng":23.7262715},"viewport":{"northeast":{"lat":37.96668982989272,"lng":23.72744472989272},"southwest":{"lat":37.96399017010727,"lng":23.72474507010728}}},"icon":"https://maps.gstatic.com/mapfiles/place_api/icons/v1/png_71/restaurant-71.png","icon_background_color":"#FF9E67","icon_mask_base_uri":"https://maps.gstatic.com/mapfiles/place_api/icons/v2/restaurant_pinlet","name":"Koukátsi","opening_hours":{"open_now":true},"photos":[{"height":1800,"html_attributions":["<a href=\"https://maps.google.com/maps/contrib/110114788673411264838\">Sebastiaan Kramer</a>"],"photo_reference":"AeJbb3d8-Ew7Lsz5Xkfpfp8WmB_vZHOklHliqWdQotgsP6M-wxyrxqFNVpb8kMCOY_csHRTq8vaAEo3CAOFamUktnfwzMIfxs0p6kVFSRf1JlxpzGa89cF7hmrBvy1wBVADe0ll73Reph_BhfMknYizwE97ZBFWaUHVmYxI_aqZzRyZnV1Ef","width":4000}],"place_id":"ChIJicHx1vq9oRQRAc7dQVnMEWM","plus_code":{"compound_code":"XP8G+4G Athens","global_code":"8G95XP8G+4G"},"rating":4.6,"reference":"ChIJicHx1vq9oRQRAc7dQVnMEWM","types":["restaurant","food","point_of_interest","establishment"],"user_ratings_total":276},{"business_status":"OPERATIONAL","formatted_address":"Armodiou 2, Athina 105 51","geometry":{"location":{"lat":37.980535,"lng":23.7280513},"viewport":{"northeast":{"lat":37.98205257989272,"lng":23.72945802989272},"southwest":{"lat":37.97935292010727,"lng":23.72675837010728}}},"icon":"https://maps.gstatic.com/mapfiles/place_api/icons/v1/png_71/restaurant-71.png","icon_background_color":"#FF9E67","icon_mask_base_uri":"https://maps.gstatic.com/mapfiles/place_api/icons/v2/restaurant_pinlet","name":"Ταβέρνα Μαχαιρίτσα","opening_hours":{"open_now":true},"photos":[{"height":394,"html_attributions":["<a href=\"https://maps.google.com/maps/contrib/109592698194415608957\">A Google User</a>"],"photo_reference":"AeJbb3cOUbD1mU5ymDk3BAoQ1mDXeHMzEsqk2Pjeu3bD0wFdZOZ0fcqE3_9FIRMM883ilsrYwLXHix7hVAfdRjLpFcEYYCA3clEV_aKe7xj8hMz-xsmXU21EzD13nMA7M4kfCo7XjAEYqGL6fEAHln5FY9yjhfjY-N8NJm2UXu4AXLnP83Dx","width":800}],"place_id":"ChIJgSB5mne9oRQR8rSz5lViWWk","plus_code":{"compound_code":"XPJH+66 Athens","global_code":"8G95XPJH+66"},"rating":4.6,"reference":"ChIJgSB5mne9oRQR8rSz5lViWWk","types":["restaurant","food","point_of_interest","establishment"],"user_ratings_total":156},{"business_status":"OPERATIONAL","formatted_address":"Rovertou Galli 43, Athina 117 42","geometry":{"location":{"lat":37.9694515,"lng":23.7224338},"viewport":{"northeast":{"lat":37.97097012989273,"lng":23.72401317989272},"southwest":{"lat":37.96827047010728,"lng":23.72131352010728}}},"icon":"https://maps.gstatic.com/mapfiles/place_api/icons/v1/png_71/restaurant-71.png","icon_background_color":"#FF9E67","icon_mask_base_uri":"https://maps.gstatic.com/mapfiles/place_api/icons/v2/restaurant_pinlet","name":"Dionysos Zonar's","opening_hours":{"open_now":true},"photos":[{"height":1365,"html_attributions":["<a href=\"https://maps.google.com/maps/contrib/102018938621773213689\">ΔΙΟΝΥΣΟΣ ΖΩΝΑΡΣ Α.Β.Ε.Ε.</a>"],"photo_reference":"AeJbb3d0egqAAr3wvDeQrjJG0A-b_Zvnjkgkqd6XHtLzuGtijb9J2p7KDuSfgwwflE7abJ2_UczlOkyN9XSei8XuPbI-ailTb93SZUN_FZnY7BjdZRkTZpJP4YN8NRxHnfA2S4NZLHcWpmdHPRkJpd4ApT6WAWxqGOQkxVXAO8Yjm3QKiHnM","width":2048}],"place_id":"ChIJgSMyRUu9oRQRQBFACSuL-YA","plus_code":{"compound_code":"XP9C+QX Athens","global_code":"8G95XP9C+QX"},"price_level":3,"rating":4.5,"reference":"ChIJgSMyRUu9oRQRQBFACSuL-YA","types":["cafe","restaurant","food","point_of_interest","establishment"],"user_ratings_total":3459},{"business_status":"OPERATIONAL","formatted_address":"31, Christou Vournazou str, Athina 115 21","geometry":{"location":{"lat":37.986773,"lng":23.7572725},"viewport":{"northeast":{"lat":37.98809582989272,"lng":23.75867337989272},"southwest":{"lat":37.98539617010728,"lng":23.75597372010727}}},"icon":"https://maps.gstatic.com/mapfiles/place_api/icons/v1/png_71/restaurant-71.png","icon_background_color":"#FF9E67","icon_mask_base_uri":"https://maps.gstatic.com/mapfiles/place_api/icons/v2/restaurant_pinlet","name":"AGORA","opening_hours":{"open_now":true},"photos":[{"height":533,"html_attributions":["<a href=\"https://maps.google.com/maps/contrib/106492901376229125189\">ΚΟΥΤΣΟΥΜΠΑΣ, Χ., - Π. ΛΑΠΠΑΣ Ο.Ε. &quot;ΑΓΟΡΑ&quot;</a>"],"photo_reference":"AeJbb3e8ZVGZc5uiIiRMLJI8tZG2CyqwC8qoi9ZH_8c7daZDodFcMQ6nncg2xht3C7f1DH-549dM5x6Jx5J7JvT6iTNubZdhU9qvnb3YONbNIftx6Wl1IGWRMX3uaEB4ucVCHCGgmJ5iICTWTMtLVfB2jpsDSwyNSTWJHspIZHrySzpYtnE","width":800}],"place_id":"ChIJs5LNWFO9oRQRNf9RFuy7QLA","plus_code":{"compound_code":"XQP4+PW Athens","global_code":"8G95XQP4+PW"},"price_level":2,"rating":4.5,"reference":"ChIJs5LNWFO9oRQRNf9RFuy7QLA","types":["restaurant","food","point_of_interest","establishment"],"user_ratings_total":2251},{"business_status":"OPERATIONAL","formatted_address":"Troon 48, Athina 118 52","geometry":{"location":{"lat":37.969041,"lng":23.712646},"viewport":{"northeast":{"lat":37.97037372989272,"lng":23.71404887989272},"southwest":{"lat":37.96767407010727,"lng":23.71134922010728}}},"icon":"https://maps.gstatic.com/mapfiles/place_api/icons/v1/png_71/restaurant-71.png","icon_background_color":"#FF9E67","icon_mask_base_uri":"https://maps.gstatic.com/mapfiles/place_api/icons/v2/restaurant_pinlet","name":"Aster","opening_hours":{"open_now":true},"photos":[{"height":3024,"html_attributions":["<a href=\"https://maps.google.com/maps/contrib/108642191136861355419\">Ryan Meskill</a>"],"photo_reference":"AeJbb3fEVx0blzZpONSwXwk1noK69UcxQh0EddkexSW5-W4Pq4WYzthSSWU3KIv_TnzCg0lX0kUE0uV96VUaywlQaMkLVhbchInCA06W-arEwhDK0NvXfAepWOPdjqVby4ozqNAq7Rhfw4ZZlvBnHlJQ8Pzv5I3uUDyvCkVi8og63_r3DyWb","width":4032}],"place_id":"ChIJMVHp_eK8oRQR1S1dxK7Nb8Y","plus_code":{"compound_code":"XP97+J3 Athens","global_code":"8G95XP97+J3"},"price_level":2,"rating":4.5,"reference":"ChIJMVHp_eK8oRQR1S1dxK7Nb8Y","types":["restaurant","food","point_of_interest","establishment"],"user_ratings_total":2154},{"business_status":"OPERATIONAL","formatted_address":"Esopou 17, Athina 105 54","geometry":{"location":{"lat":37.9782058,"lng":23.7235297},"viewport":{"northeast":{"lat":37.97953632989272,"lng":23.72489487989272},"southwest":{"lat":37.97683667010728,"lng":23.72219522010728}}},"icon":"https://maps.gstatic.com/mapfiles/place_api/icons/v1/png_71/restaurant-71.png","icon_background_color":"#FF9E67","icon_mask_base_uri":"https://maps.gstatic.com/mapfiles/place_api/icons/v2/restaurant_pinlet","name":"Lithos Tavern","opening_hours":{"open_now":false},"photos":[{"height":3456,"html_attributions":["<a href=\"https://maps.google.com/maps/contrib/116826136127124381331\">Adi Ustinescu</a>"],"photo_reference":"AeJbb3esPdorkjRXqUOCrRd4pl6gUy4D1bBhmYhuBacMc9gZ-J_76-Xo3WdedajJwGjlH0OUNxSEWa-TRdUCQUy244h5bOEXQ4I_fx6VzNcRzCwvNXPzBN24AYq9o-1lwE33L605HFaJswt-wUdvklQ-opIR6TfjF9stdiGtCM_s35JKojIf","width":4608}],"place_id":"ChIJXcnOvSO9oRQRhDEM6v0Yi7Y","plus_code":{"compound_code":"XPHF+7C Athens","global_code":"8G95XPHF+7C"},"price_level":2,"rating":4.5,"reference":"ChIJXcnOvSO9oRQRhDEM6v0Yi7Y","types":["restaurant","food","point_of_interest","establishment"],"user_ratings_total":1991},{"business_status":"OPERATIONAL","formatted_address":"Veranzerou 5, Athina 106 77","geometry":{"location":{"lat":37.9851387,"lng":23.7308768},"viewport":{"northeast":{"lat":37.98651912989273,"lng":23.73208902989272},"southwest":{"lat":37.98381947010729,"lng":23.72938937010728}}},"icon":"https://maps.gstatic.com/mapfiles/place_api/icons/v1/png_71/restaurant-71.png","icon_background_color":"#FF9E67","icon_mask_base_uri":"https://maps.gstatic.com/mapfiles/place_api/icons/v2/restaurant_pinlet","name":"I Kriti","opening_hours":{"open_now":true},"photos":[{"height":3456,"html_attributions":["<a href=\"https://maps.google.com/maps/contrib/102916719769789005391\">A Google User</a>"],"photo_reference":"AeJbb3cZh-imA2xqK7XtTrn9l-oaodyCDMsW9xK5x5q_5wQZ1Ytt-8I46ySsyLLh3PYjNOAy8nvrU_bgU2jvDi6H0jn7Z3lPTQ0nrSUFiSa0YmOE-LwsiAqXc16XFcaFMM6GIe6BnngczVamg0vzYljs5tqLkGJ3S-1spHC2uZ1Sz7THvAIk","width":4608}],"place_id":"ChIJw9Qh-TC9oRQRR3aVR_OtgWg","plus_code":{"compound_code":"XPPJ+39 Athens","global_code":"8G95XPPJ+39"},"price_level":2,"rating":4.5,"reference":"ChIJw9Qh-TC9oRQRR3aVR_OtgWg","types":["restaurant","food","point_of_interest","establishment"],"user_ratings_total":1480},{"business_status":"OPERATIONAL","formatted_address":"Navarchou Nikodimou 3, Athina 105 57","geometry":{"location":{"lat":37.9734914,"lng":23.7330432},"viewport":{"northeast":{"lat":37.97485847989272,"lng":23.73439677989272},"southwest":{"lat":37.97215882010727,"lng":23.73169712010727}}},"icon":"https://maps.gstatic.com/mapfiles/place_api/icons/v1/png_71/restaurant-71.png","icon_background_color":"#FF9E67","icon_mask_base_uri":"https://maps.gstatic.com/mapfiles/place_api/icons/v2/restaurant_pinlet","name":"ΑΝΕΤΟΝ","opening_hours":{"open_now":true},"photos":[{"height":5692,"html_attributions":["<a href=\"https://maps.google.com/maps/contrib/102056299496641991316\">ΑΝΕΤΟΝ</a>"],"photo_reference":"AeJbb3dzBx4sCAmr5lTAVjRGqnKWwjKrtJqm19kkg0x0I1KWiER9cmp_z1zYU2BJn9pyU6_MNcUkAckPg3JWiW9AG2IU4WrEzvVKk8VKBPjoP7ikWqSU9q3-Rh-r8OpSoObWs3KAZyy1Med1FvQouFsH6DodGNcjpeS4WGf0rOiFGoJMEv5e","width":8533}],"place_id":"ChIJpRmagc2YoRQRPNpXpWTQXTY","plus_code":{"compound_code":"XPFM+96 Athens","global_code":"8G95XPFM+96"},"price_level":2,"rating":4.5,"reference":"ChIJpRmagc2YoRQRPNpXpWTQXTY","types":["restaurant","food","point_of_interest","establishment"],"user_ratings_total":819},{"business_status":"OPERATIONAL","formatted_address":"Likavittou 16, Athina 106 73","geometry":{"location":{"lat":37.9795838,"lng":23.7378641},"viewport":{"northeast":{"lat":37.98092797989271,"lng":23.73919227989272},"southwest":{"lat":37.97822832010727,"lng":23.73649262010727}}},"icon":"https://maps.gstatic.com/mapfiles/place_api/icons/v1/png_71/restaurant-71.png","icon_background_color":"#FF9E67","icon_mask_base_uri":"https://maps.gstatic.com/mapfiles/place_api/icons/v2/restaurant_pinlet","name":"Kiouzin - Greek cuisine with a twist","opening_hours":{"open_now":true},"photos":[{"height":3024,"html_attributions":["<a href=\"https://maps.google.com/maps/contrib/101291784891118490841\">RAVE</a>"],"photo_reference":"AeJbb3exewYFPUWRtP8qpHwC216lzP8N_uO885sGNoPGR4n3dLdgPD5uS2zOYN4tmNw1eIrqb6Dv-30SMaIiRpmSt-PJDfWg0zG4s-kVh4p3CxjFR3ACy0aLgsECOrrP3PTFxH4V9WrrQA5MAPIW1ZLEvuRa92k5drImNAzlQ-8VJFMi7RSy","width":3024}],"place_id":"ChIJWQUPXTi9oRQROp87KAL4KEI","plus_code":{"compound_code":"XPHQ+R4 Athens","global_code":"8G95XPHQ+R4"},"price_level":2,"rating":4.5,"reference":"ChIJWQUPXTi9oRQROp87KAL4KEI","types":["restaurant","point_of_interest","food","establishment"],"user_ratings_total":688},{"business_status":"OPERATIONAL","formatted_address":"Xenokratous 19, Athina 106 75","geometry":{"location":{"lat":37.9791029,"lng":23.7444796},"viewport":{"northeast":{"lat":37.98039782989272,"lng":23.74581407989272},"southwest":{"lat":37.97769817010727,"lng":23.74311442010728}}},"icon":"https://maps.gstatic.com/mapfiles/place_api/icons/v1/png_71/restaurant-71.png","icon_background_color":"#FF9E67","icon_mask_base_uri":"https://maps.gstatic.com/mapfiles/place_api/icons/v2/restaurant_pinlet","name":"K Filippou & Co EE","opening_hours":{"open_now":true},"photos":[{"height":4032,"html_attributions":["<a href=\"https://maps.google.com/maps/contrib/113417345608033117962\">Hedda Wingårdh</a>"],"photo_reference":"AeJbb3dCoXqgZARjV5hfklQAf8l7xKSNGCttTjhwQpsFLBJtkajyJwS9Isw-oCBhQtnaxv5Xm5QPbW8GbgXb9fMrnx7Y_8y-eoCOsHGP2DJLHsZAxJ-HbopC02LUzGw5kMqTuse0fnvwL_tPLz1hAne8zgKG9yh7DIRdhNlE2myN33-RCmtt","width":3024}],"place_id":"ChIJy7TjEka9oRQRVQusBUCgVjQ","plus_code":{"compound_code":"XPHV+JQ Athens","global_code":"8G95XPHV+JQ"},"price_level":2,"rating":4.5,"reference":"ChIJy7TjEka9oRQRVQusBUCgVjQ","types":["restaurant","food","point_of_interest","establishment"],"user_ratings_total":511},{"business_status":"OPERATIONAL","formatted_address":"Acropolis, Makrigianni 19-21 across metro station, Athina 117 42","geometry":{"location":{"lat":37.9682896,"lng":23.7295095},"viewport":{"northeast":{"lat":37.96950277989272,"lng":23.73076232989272},"southwest":{"lat":37.96680312010728,"lng":23.72806267010728}}},"icon":"https://maps.gstatic.com/mapfiles/place_api/icons/v1/png_71/restaurant-71.png","icon_background_color":"#FF9E67","icon_mask_base_uri":"https://maps.gstatic.com/mapfiles/place_api/icons/v2/restaurant_pinlet","name":"Elaea Mezedadiko","opening_hours":{"open_now":true},"photos":[{"height":3024,"html_attributions":["<a href=\"https://maps.google.com/maps/contrib/104332305163388611068\">albert desauvage</a>"],"photo_reference":"AeJbb3dedPw_X-DuKjNSu7wFl1FKPH7FmWXrpqVp006_H6edHAioJzRbIZXAouXEICG_LxxpQlDSHjKoCJdcsxo8smGiF_tLijZi6ClrHH3dk1MJTWy080Hs-7Imdyou40LMfKOElVVYK6T0hQkGuWI0qnMctNZWbFt8VXvV5ytz_laiZfaY","width":4032}],"place_id":"ChIJrVJRMxe9oRQR7QUsZgFYkSE","plus_code":{"compound_code":"XP9H+8R Athens","global_code":"8G95XP9H+8R"},"price_level":2,"rating":4.5,"reference":"ChIJrVJRMxe9oRQR7QUsZgFYkSE","types":["restaurant","bar","food","point_of_interest","establishment"],"user_ratings_total":467},{"business_status":"OPERATIONAL","formatted_address":"Adrianou 23α, Athina 105 55","geometry":{"location":{"lat":37.9760088,"lng":23.7237165},"viewport":{"northeast":{"lat":37.97716912989272,"lng":23.72552282989272},"southwest":{"lat":37.97446947010727,"lng":23.72282317010728}}},"icon":"https://maps.gstatic.com/mapfiles/place_api/icons/v1/png_71/restaurant-71.png","icon_background_color":"#FF9E67","icon_mask_base_uri":"https://maps.gstatic.com/mapfiles/place_api/icons/v2/restaurant_pinlet","name":"Greek food Μοναστηράκι Διάλογος","opening_hours":{"open_now":true},"photos":[{"height":3024,"html_attributions":["<a href=\"https://maps.google.com/maps/contrib/114080633812718846880\">Piyatida Kalayanamitra</a>"],"photo_reference":"AeJbb3eZAv7f6ps3GFr86efDYkK1b6pnKz7IFDt6ZINhpx0x_0MXWb6gyTsNQHwKyfotuxIuZsMfhh4wTTYwoGyLSmkzQTzxOnGcxAgO3NIZtrEVazwEgXGNWuC6PsmiE10uweXJylhGajt3iFOx5BqkP-6P5IWHzDiMcDGSekorJuqBRnpR","width":4032}],"place_id":"ChIJ5XyJTbm9oRQRub0Cdtoio80","plus_code":{"compound_code":"XPGF+CF Athens","global_code":"8G95XPGF+CF"},"price_level":2,"rating":4.5,"reference":"ChIJ5XyJTbm9oRQRub0Cdtoio80","types":["restaurant","food","point_of_interest","establishment"],"user_ratings_total":286},{"business_status":"OPERATIONAL","formatted_address":"Pl. Theatrou 2, Athina 105 52","geometry":{"location":{"lat":37.98073430000001,"lng":23.7243706},"viewport":{"northeast":{"lat":37.98205207989273,"lng":23.72571117989272},"southwest":{"lat":37.97935242010728,"lng":23.72301152010728}}},"icon":"https://maps.gstatic.com/mapfiles/place_api/icons/v1/png_71/restaurant-71.png","icon_background_color":"#FF9E67","icon_mask_base_uri":"https://maps.gstatic.com/mapfiles/place_api/icons/v2/restaurant_pinlet","name":"Tavern Klimataria (est.1927)","opening_hours":{"open_now":true},"photos":[{"height":2448,"html_attributions":["<a href=\"https://maps.google.com/maps/contrib/109133718335824795664\">Natalka Ryaba</a>"],"photo_reference":"AeJbb3eKSxO8LZQ0xTef8z79sjtyB_uTJeo6aiLxU1jTKQET-xKyev7joEvnozwKW0uXk_Dxeq9V0Tcs_4usVnKq6ha39FXrYrguFAf3RBAK6YwMW2FYtSs_PO8QVQToa_cBpf_a_ZHElEzN0SnDVNp0rMd2e7nN1vGbItr93oOMLMQnjAkw","width":3264}],"place_id":"ChIJkW6XYCS9oRQRVKWbEwZF9JY","plus_code":{"compound_code":"XPJF+7P Athens","global_code":"8G95XPJF+7P"},"price_level":2,"rating":4.4,"reference":"ChIJkW6XYCS9oRQRVKWbEwZF9JY","types":["restaurant","point_of_interest","food","establishment"],"user_ratings_total":3712},{"business_status":"OPERATIONAL","formatted_address":"Valtetsiou 59, Athina 106 81","geometry":{"location":{"lat":37.9860763,"lng":23.7351831},"viewport":{"northeast":{"lat":37.98733612989272,"lng":23.73666822989272},"southwest":{"lat":37.98463647010728,"lng":23.73396857010728}}},"icon":"https://maps.gstatic.com/mapfiles/place_api/icons/v1/png_71/restaurant-71.png","icon_background_color":"#FF9E67","icon_mask_base_uri":"https://maps.gstatic.com/mapfiles/place_api/icons/v2/restaurant_pinlet","name":"Rosalia","opening_hours":{"open_now":true},"photos":[{"height":3024,"html_attributions":["<a href=\"https://maps.google.com/maps/contrib/111254967917364262492\">Ροζαλία</a>"],"photo_reference":"AeJbb3cSUv87o_CGKrmNlDi1en8mXQqfMQd4RjBGlQIEV28IRkSdKWwGtgJHRf-3sY418xPAJCavgFVoOMTmFi1drmXquGBAwMK1GUTdi0Vnr4jwyMn_nW6YkE5iFyBzcXs2qv-IqeNtwVYc9Oeu-cvlOr1VZsX2sQCLz30QcXrbZLVk4XbU","width":4032}],"place_id":"ChIJ_zUtlDa9oRQRJHvjbTXuMTQ","plus_code":{"compound_code":"XPPP+C3 Athens","global_code":"8G95XPPP+C3"},"price_level":2,"rating":4.4,"reference":"ChIJ_zUtlDa9oRQRJHvjbTXuMTQ","types":["restaurant","point_of_interest","food","establishment"],"user_ratings_total":3291},{"business_status":"OPERATIONAL","formatted_address":"Adrianou 9, Athina 105 55","geometry":{"location":{"lat":37.9764194,"lng":23.7220694},"viewport":{"northeast":{"lat":37.97815047989273,"lng":23.72349542989272},"southwest":{"lat":37.97545082010728,"lng":23.72079577010728}}},"icon":"https://maps.gstatic.com/mapfiles/place_api/icons/v1/png_71/restaurant-71.png","icon_background_color":"#FF9E67","icon_mask_base_uri":"https://maps.gstatic.com/mapfiles/place_api/icons/v2/restaurant_pinlet","name":"Kuzina","opening_hours":{"open_now":true},"photos":[{"height":3024,"html_attributions":["<a href=\"https://maps.google.com/maps/contrib/117039970401229013005\">kevin lin</a>"],"photo_reference":"AeJbb3eVI9KGVC_Z-t4ldeLbrSKBtASjq0ls3kMGKqGOEPWQmIVOWXIDgJKyDwj9nw4PHj51-CQeHJQo-nCwOIfWNfJ11abm-L_FliW7TbD9RQE3a4ak2c1O61rpE3J-lsp02u8o-8AZjL2MU-Hf7SzlY95eSu2h7EqNSw90kELEcSWP7MbK","width":4032}],"place_id":"ChIJIwPiupS7oRQRNFrkgjuleYY","plus_code":{"compound_code":"XPGC+HR Athens","global_code":"8G95XPGC+HR"},"price_level":3,"rating":4.4,"reference":"ChIJIwPiupS7oRQRNFrkgjuleYY","types":["restaurant","point_of_interest","food","establishment"],"user_ratings_total":2615},{"business_status":"OPERATIONAL","formatted_address":"Klepsidras, Athina 105 56","geometry":{"location":{"lat":37.973465,"lng":23.726614},"viewport":{"northeast":{"lat":37.97474547989272,"lng":23.72798407989272},"southwest":{"lat":37.97204582010728,"lng":23.72528442010728}}},"icon":"https://maps.gstatic.com/mapfiles/place_api/icons/v1/png_71/restaurant-71.png","icon_background_color":"#FF9E67","icon_mask_base_uri":"https://maps.gstatic.com/mapfiles/place_api/icons/v2/restaurant_pinlet","name":"Klepsýdra","opening_hours":{"open_now":true},"photos":[{"height":4240,"html_attributions":["<a href=\"https://maps.google.com/maps/contrib/101832169829716560606\">Hein Westerouen van Meeteren</a>"],"photo_reference":"AeJbb3eNEhY3KYiKGhUan9oKqRE7WQqpF14Tcn-UnFtY58oWw3jKZfRXYofrB_AGHO1miDvf0MiH-NSB80wciiOrAR4uXkH5K7DQsAs9MMv-bNqQdjNZv8WoFk4HLHSQlHjPcwYdlXJGe-BJySZAlQMZQeM9IJ2EkfcDJFA2vEhCt4jJTr7c","width":5664}],"place_id":"ChIJO4P4Dhi9oRQRJ_9gedMARDE","plus_code":{"compound_code":"XPFG+9J Athens","global_code":"8G95XPFG+9J"},"price_level":2,"rating":4.4,"reference":"ChIJO4P4Dhi9oRQRJ_9gedMARDE","types":["restaurant","food","point_of_interest","establishment"],"user_ratings_total":2187},{"business_status":"OPERATIONAL","formatted_address":"Pl. Tsokri 1, Athina 117 42","geometry":{"location":{"lat":37.9676019,"lng":23.7299753},"viewport":{"northeast":{"lat":37.96884657989272,"lng":23.73135937989272},"southwest":{"lat":37.96614692010728,"lng":23.72865972010728}}},"icon":"https://maps.gstatic.com/mapfiles/place_api/icons/v1/png_71/restaurant-71.png","icon_background_color":"#FF9E67","icon_mask_base_uri":"https://maps.gstatic.com/mapfiles/place_api/icons/v2/restaurant_pinlet","name":"Smile Restaurant","opening_hours":{"open_now":true},"photos":[{"height":1080,"html_attributions":["<a href=\"https://maps.google.com/maps/contrib/115510740038464443423\">Talr Saso</a>"],"photo_reference":"AeJbb3dDAUpW-ZoJVaxEIHaXbBSZ9K8eMQG0E9PAs23FZaS4NvfAbtRpWzUyg4WNz0pkQ9VXBNlW-wCFzeAPRqxcwNrOmKXpQzQyoJOeRAFgEyzpdkCfEnOyzNUh4O-EHokGC2CIlQh7Gdth2a0ZtP4iX01G66yM9M9AL-zOJ6oI4y-7g3_E","width":1920}],"place_id":"ChIJK_SJ2xC9oRQRVEpIBGlWtP0","plus_code":{"compound_code":"XP9H+2X Athens","global_code":"8G95XP9H+2X"},"price_level":1,"rating":4.4,"reference":"ChIJK_SJ2xC9oRQRVEpIBGlWtP0","types":["restaurant","food","point_of_interest","establishment"],"user_ratings_total":1730},{"business_status":"OPERATIONAL","formatted_address":"Rovertou Galli 25, Athina 117 42","geometry":{"location":{"lat":37.9691133,"lng":23.7244779},"viewport":{"northeast":{"lat":37.97050522989272,"lng":23.72585447989272},"southwest":{"lat":37.96780557010727,"lng":23.72315482010728}}},"icon":"https://maps.gstatic.com/mapfiles/place_api/icons/v1/png_71/restaurant-71.png","icon_background_color":"#FF9E67","icon_mask_base_uri":"https://maps.gstatic.com/mapfiles/place_api/icons/v2/restaurant_pinlet","name":"Strofi Athenian Restaurant","opening_hours":{"open_now":true},"photos":[{"height":640,"html_attributions":["<a href=\"https://maps.google.com/maps/contrib/109424144273403993211\">Strofi Restaurant</a>"],"photo_reference":"AeJbb3ddyaqoT8o0GfeHx2lO54eEzZ69QIyKWdKU4GfQrmnsT61jZxY4PTSoM9PG9hrYq6nrtFWqNpV5QkXXkFwj6XrK6fDCxKPLmEq1Kmk26xWBp_lxTLLNiPn7SStVdoODQSOuj4HAfIqtLv68ifP_LJ42IHy90V8gL5ncPNqj8mx7c_zM","width":960}],"place_id":"ChIJ93ue1Bu9oRQRm3HBgRcl5Eo","plus_code":{"compound_code":"XP9F+JQ Athens","global_code":"8G95XP9F+JQ"},"price_level":3,"rating":4.4,"reference":"ChIJ93ue1Bu9oRQRm3HBgRcl5Eo","types":["restaurant","food","point_of_interest","establishment"],"user_ratings_total":1596},{"business_status":"OPERATIONAL","formatted_address":"Makrigianni 29, Athina 117 42","geometry":{"location":{"lat":37.968022,"lng":23.729416},"viewport":{"northeast":{"lat":37.96934377989272,"lng":23.73069982989272},"southwest":{"lat":37.96664412010728,"lng":23.72800017010728}}},"icon":"https://maps.gstatic.com/mapfiles/place_api/icons/v1/png_71/restaurant-71.png","icon_background_color":"#FF9E67","icon_mask_base_uri":"https://maps.gstatic.com/mapfiles/place_api/icons/v2/restaurant_pinlet","name":"Regal Cooking Bar","opening_hours":{"open_now":true},"photos":[{"height":4032,"html_attributions":["<a href=\"https://maps.google.com/maps/contrib/118158757593421810704\">Christos Simatos</a>"],"photo_reference":"AeJbb3c-liCvjDd061mS44f8_CJExQUv8Jx8UiC3IRDr9_kE21FCIpk2ompNdia8Ll2dQZX3n8_8ua6jjtV6GzTmaWSFyHyRQKX4-dehQ_44oGUUBA5SERUw2GvPSlSSz53TzeggVzHGcPF7lyutmY0EK4scsjqqv9Xk6uMVCtdX7SEA3eZI","width":3024}],"place_id":"ChIJp2n9yBC9oRQRJl0Xr3KVz1o","plus_code":{"compound_code":"XP9H+6Q Athens","global_code":"8G95XP9H+6Q"},"price_level":2,"rating":4.4,"reference":"ChIJp2n9yBC9oRQRJl0Xr3KVz1o","types":["restaurant","food","point_of_interest","establishment"],"user_ratings_total":695},{"business_status":"OPERATIONAL","formatted_address":"Adrianou 119, Athina 105 58","geometry":{"location":{"lat":37.971779,"lng":23.7304057},"viewport":{"northeast":{"lat":37.97300727989272,"lng":23.73159667989272},"southwest":{"lat":37.97030762010728,"lng":23.72889702010728}}},"icon":"https://maps.gstatic.com/mapfiles/place_api/icons/v1/png_71/restaurant-71.png","icon_background_color":"#FF9E67","icon_mask_base_uri":"https://maps.gstatic.com/mapfiles/place_api/icons/v2/restaurant_pinlet","name":"Kosmikon","opening_hours":{"open_now":true},"photos":[{"height":3492,"html_attributions":["<a href=\"https://maps.google.com/maps/contrib/101133931232683274854\">Rory R</a>"],"photo_reference":"AeJbb3cskVuhdsLWl8qPFhObCEk6uMDsGHur3PAIv7XfX0EdQZFTAHo1EWHJ7xglgZYNAOr8bV-VEXHUgT_Kuu1__fzdzQjR6s95b3MwHuLCsTSFHFMzzCtTiu7380y0n5cydht4ySMgQqTEpIsWaMDBHIHnq7whf9E0OMJrp8xzXhd5-2x2","width":4656}],"place_id":"ChIJjZZVtBe9oRQRHrBwCnrBacI","plus_code":{"compound_code":"XPCJ+P5 Athens","global_code":"8G95XPCJ+P5"},"price_level":2,"rating":4.3,"reference":"ChIJjZZVtBe9oRQRHrBwCnrBacI","types":["restaurant","food","point_of_interest","establishment"],"user_ratings_total":978},{"business_status":"OPERATIONAL","formatted_address":"Zonara 21, Athina 114 72","geometry":{"location":{"lat":37.9891341,"lng":23.7438449},"viewport":{"northeast":{"lat":37.99045157989272,"lng":23.74522002989272},"southwest":{"lat":37.98775192010728,"lng":23.74252037010728}}},"icon":"https://maps.gstatic.com/mapfiles/place_api/icons/v1/png_71/restaurant-71.png","icon_background_color":"#FF9E67","icon_mask_base_uri":"https://maps.gstatic.com/mapfiles/place_api/icons/v2/restaurant_pinlet","name":"Alexandra","opening_hours":{"open_now":true},"photos":[{"height":1365,"html_attributions":["<a href=\"https://maps.google.com/maps/contrib/113979311636072587398\">Αλεξάνδρα Εστιατόριο-Alexandra Restaurant .</a>"],"photo_reference":"AeJbb3fdfS-W3RmNyN9Vky1E439ycIUjiridhvPPNpd8gMC7HA_yLuxXZsY9EfiiFaQd8rbQlMqd6TLcOLLcWtpR4DtwtJeHeyrjaqw2Kr5bdYkBls5SaKJQXws45wPKEegrxpueCWTBxqjP6M-ynUky8jaA8FHtRy7sDEaWaxjNjgo7nMRG","width":2048}],"place_id":"ChIJEbtFQUu9oRQRTSxO5Fc88Io","plus_code":{"compound_code":"XPQV+MG Athens","global_code":"8G95XPQV+MG"},"price_level":2,"rating":4.3,"reference":"ChIJEbtFQUu9oRQRTSxO5Fc88Io","types":["restaurant","store","food","point_of_interest","establishment"],"user_ratings_total":796},{"business_status":"OPERATIONAL","formatted_address":"Patriarchou Ioakim 56, Athina 106 76","geometry":{"location":{"lat":37.9783529,"lng":23.7457389},"viewport":{"northeast":{"lat":37.97972297989272,"lng":23.74704707989272},"southwest":{"lat":37.97702332010728,"lng":23.74434742010728}}},"icon":"https://maps.gstatic.com/mapfiles/place_api/icons/v1/png_71/restaurant-71.png","icon_background_color":"#FF9E67","icon_mask_base_uri":"https://maps.gstatic.com/mapfiles/place_api/icons/v2/restaurant_pinlet","name":"To Fagopoteion","opening_hours":{"open_now":true},"photos":[{"height":1080,"html_attributions":["<a href=\"https://maps.google.com/maps/contrib/104582403615915509197\">James Drain</a>"],"photo_reference":"AeJbb3f8ePTf9gBFgr1FnBz-gHXBzG_tpRFrhvW80XEm3k1rh17ILVOZFXUVxBv6uQ4ytI99jrOKmx4AVSU-LZmC9pZBDHG-pc-7Z1NvTpRSbdc3324Mb-RI-IO2R27ZOcH0G0YTmMsj2-P_noDzF9Ks_kNgu5-7giLam3oxPkob931YQhHJ","width":1920}],"place_id":"ChIJ53OgWEa9oRQRwj1jxZXx6CM","plus_code":{"compound_code":"XPHW+87 Athens","global_code":"8G95XPHW+87"},"price_level":2,"rating":4.3,"reference":"ChIJ53OgWEa9oRQRwj1jxZXx6CM","types":["restaurant","point_of_interest","food","establishment"],"user_ratings_total":185},{"business_status":"OPERATIONAL","formatted_address":"Athinas 18, Athina 105 51","geometry":{"location":{"lat":37.9784079,"lng":23.7267388},"viewport":{"northeast":{"lat":37.97977017989272,"lng":23.72801092989273},"southwest":{"lat":37.97707052010728,"lng":23.72531127010728}}},"icon":"https://maps.gstatic.com/mapfiles/place_api/icons/v1/png_71/restaurant-71.png","icon_background_color":"#FF9E67","icon_mask_base_uri":"https://maps.gstatic.com/mapfiles/place_api/icons/v2/restaurant_pinlet","name":"Just Pita","opening_hours":{"open_now":true},"photos":[{"height":3024,"html_attributions":["<a href=\"https://maps.google.com/maps/contrib/104731148753468769749\">Lee-Onn Tan</a>"],"photo_reference":"AeJbb3dGCb2Rmv_ZHD9FFRaABCUBJ8vuh4K9i7F-25zm4vptdWVM_FbCfL_t0N4-pIjLKbus0G-L0np7_FWlZe4zebYQsORB6-BTqn7qU84OlVwwVS_AOxrdO7jEJo5xZNz16f-T9dBGz74CIUBhMKsgmRE0mNxgSXJomGX5takORnJtsnrV","width":4032}],"place_id":"ChIJS-DyWiO9oRQRkbKcsDZpUYQ","plus_code":{"compound_code":"XPHG+9M Athens","global_code":"8G95XPHG+9M"},"price_level":1,"rating":4.2,"reference":"ChIJS-DyWiO9oRQRkbKcsDZpUYQ","types":["restaurant","food","point_of_interest","establishment"],"user_ratings_total":1729},{"business_status":"OPERATIONAL","formatted_address":"Eschilou 12, Athina 105 54","geometry":{"location":{"lat":37.9787314,"lng":23.7252127},"viewport":{"northeast":{"lat":37.98009852989272,"lng":23.72647402989272},"southwest":{"lat":37.97739887010728,"lng":23.72377437010728}}},"icon":"https://maps.gstatic.com/mapfiles/place_api/icons/v1/png_71/restaurant-71.png","icon_background_color":"#FF9E67","icon_mask_base_uri":"https://maps.gstatic.com/mapfiles/place_api/icons/v2/restaurant_pinlet","name":"Taverna Tou Psirri","opening_hours":{"open_now":true},"photos":[{"height":3264,"html_attributions":["<a href=\"https://maps.google.com/maps/contrib/104725043655383758797\">ΤΑΒΕΡΝΑ ΤΟΥ ΨΥΡΡΗ</a>"],"photo_reference":"AeJbb3fTMRJ_XZG5wksXRX7JnXHRZvyKoQv1CVy_7f1T3k9IrAwkdRczZQvKGqKqANkrpEEAlbtGukeVEMXtYrjlUQ4yJHNvc94xDjgNf2qHFR4X2XbiCjHGXBR_JnAI5oP1lmQiYZuv7-qAj7gr_j_OOyLuBwf4urC0H66nW7vUIymCl_bI","width":2448}],"place_id":"ChIJFTNCeiO9oRQRrBxf1bl88PQ","plus_code":{"compound_code":"XPHG+F3 Athens","global_code":"8G95XPHG+F3"},"price_level":2,"rating":4.2,"reference":"ChIJFTNCeiO9oRQRrBxf1bl88PQ","types":["restaurant","point_of_interest","food","establishment"],"user_ratings_total":993},{"business_status":"OPERATIONAL","formatted_address":"Athinas 1 &, Ermou, Athina 105 54","geometry":{"location":{"lat":37.9767895,"lng":23.7260364},"viewport":{"northeast":{"lat":37.97808962989272,"lng":23.72737632989272},"southwest":{"lat":37.97538997010728,"lng":23.72467667010728}}},"icon":"https://maps.gstatic.com/mapfiles/place_api/icons/v1/png_71/restaurant-71.png","icon_background_color":"#FF9E67","icon_mask_base_uri":"https://maps.gstatic.com/mapfiles/place_api/icons/v2/restaurant_pinlet","name":"ATHER","opening_hours":{"open_now":true},"photos":[{"height":1368,"html_attributions":["<a href=\"https://maps.google.com/maps/contrib/101599406738163044900\">A Google User</a>"],"photo_reference":"AeJbb3eVTX253X86wIILZwY9-sbSItCvDyBk5hgMNBwuI6PUQZYzXW2XS-fEVXE6tRWKIRw5mGrTeyEUgo3UDwPgCFxOWDByZ54lGekIavRAOfh536GzO0B8kYtlmoLrgShuLxxB9eDSYh6fRkFF-e273fAcr4wvauvfuaExX_sneOMe8hVg","width":2056}],"place_id":"ChIJaSZ-HyO9oRQR2yYsV6H0dEs","plus_code":{"compound_code":"XPGG+PC Athens","global_code":"8G95XPGG+PC"},"price_level":2,"rating":4.2,"reference":"ChIJaSZ-HyO9oRQR2yYsV6H0dEs","types":["bar","restaurant","food","point_of_interest","establishment"],"user_ratings_total":344},{"business_status":"OPERATIONAL","formatted_address":"Leof. Vasileos Pavlou 74, Voula 166 73","geometry":{"location":{"lat":37.8406162,"lng":23.7655366},"viewport":{"northeast":{"lat":37.84206882989272,"lng":23.76703067989272},"southwest":{"lat":37.83936917010728,"lng":23.76433102010728}}},"icon":"https://maps.gstatic.com/mapfiles/place_api/icons/v1/png_71/restaurant-71.png","icon_background_color":"#FF9E67","icon_mask_base_uri":"https://maps.gstatic.com/mapfiles/place_api/icons/v2/restaurant_pinlet","name":"Antonis","opening_hours":{"open_now":true},"photos":[{"height":2340,"html_attributions":["<a href=\"https://maps.google.com/maps/contrib/111905541025476801940\">A Google User</a>"],"photo_reference":"AeJbb3cp7HAA9Nw1xrrvM5LtmZkhtYCZAXoU5lQWaGRwgOigRSI0m3vHH1okTaakZeSxmkbVU9lCdmzRg0_AQf2CyH3ZR4iI3PA9LyVICF7Bz8Bqqx609MksdSPkEeL3HePxLIs_83D9SNHL30hfWtD9F_y2Q2DOJtnKtNGSatLVpwKIWxVL","width":4160}],"place_id":"ChIJE0rIK1-VoRQRMjJkQb8B7uM","plus_code":{"compound_code":"RQR8+66 Voula","global_code":"8G95RQR8+66"},"price_level":2,"rating":4.2,"reference":"ChIJE0rIK1-VoRQRMjJkQb8B7uM","types":["restaurant","food","point_of_interest","establishment"],"user_ratings_total":342},{"business_status":"OPERATIONAL","formatted_address":"Ag. Anargiron 6, Athina 105 54","geometry":{"location":{"lat":37.9785684,"lng":23.7244573},"viewport":{"northeast":{"lat":37.97995227989272,"lng":23.72568352989272},"southwest":{"lat":37.97725262010728,"lng":23.72298387010727}}},"icon":"https://maps.gstatic.com/mapfiles/place_api/icons/v1/png_71/restaurant-71.png","icon_background_color":"#FF9E67","icon_mask_base_uri":"https://maps.gstatic.com/mapfiles/place_api/icons/v2/restaurant_pinlet","name":"To Palaio Frourarxeio","opening_hours":{"open_now":true},"photos":[{"height":4032,"html_attributions":["<a href=\"https://maps.google.com/maps/contrib/111930981420041626839\">K K</a>"],"photo_reference":"AeJbb3foPxunb8mFPuysMjs0kVgFzKFhvZEW1suHPdF-d8llJ8YdOUqCXMeb_c5ISEHYTcKHDwwqgePABtiDKIX8qFrkpcuro0KpKZ1zDDHISMOtfbNa_KigKAWMr0E1X_adPAXQTZ8qENo7LTLHkPUbYIIVmAr6dVTVloVK2eaoPuR1Kxo2","width":3024}],"place_id":"ChIJbdrInSO9oRQRz1AzPjbMBPw","plus_code":{"compound_code":"XPHF+CQ Athens","global_code":"8G95XPHF+CQ"},"rating":4.2,"reference":"ChIJbdrInSO9oRQRz1AzPjbMBPw","types":["restaurant","food","point_of_interest","establishment"],"user_ratings_total":222},{"business_status":"OPERATIONAL","formatted_address":"Antinoros 42, Athina 161 21","geometry":{"location":{"lat":37.9734532,"lng":23.7507093},"viewport":{"northeast":{"lat":37.97482212989273,"lng":23.75206192989272},"southwest":{"lat":37.97212247010729,"lng":23.74936227010728}}},"icon":"https://maps.gstatic.com/mapfiles/place_api/icons/v1/png_71/restaurant-71.png","icon_background_color":"#FF9E67","icon_mask_base_uri":"https://maps.gstatic.com/mapfiles/place_api/icons/v2/restaurant_pinlet","name":"Taverna Elia","opening_hours":{"open_now":true},"photos":[{"height":3024,"html_attributions":["<a href=\"https://maps.google.com/maps/contrib/113841607256934334849\">Timo M.</a>"],"photo_reference":"AeJbb3f_ZgeUguTTJYunjBDJ6g5IMnbWjECn-7A2HDJg5pNVov4W55zraxzUi581gY98W0dqWLb0OgkmkCY2oUxy1cWT0iuZTP7vJaOcxmOk5lSv2Vu68g0WIkyZSWiEu0FBLb2mJPUL_SSWGMJUwuxh4xQz27XlLaHPNpo2j8rN_dHBawA","width":4032}],"place_id":"ChIJqUyzVkO9oRQRsh1VO9X2LZM","plus_code":{"compound_code":"XQF2+97 Athens","global_code":"8G95XQF2+97"},"rating":4.2,"reference":"ChIJqUyzVkO9oRQRsh1VO9X2LZM","types":["restaurant","point_of_interest","food","establishment"],"user_ratings_total":144},{"business_status":"OPERATIONAL","formatted_address":"Marikas Kotopouli 8, Athina 104 32","geometry":{"location":{"lat":37.985172,"lng":23.7278364},"viewport":{"northeast":{"lat":37.98646652989272,"lng":23.72921357989272},"southwest":{"lat":37.98376687010727,"lng":23.72651392010728}}},"icon":"https://maps.gstatic.com/mapfiles/place_api/icons/v1/png_71/restaurant-71.png","icon_background_color":"#FF9E67","icon_mask_base_uri":"https://maps.gstatic.com/mapfiles/place_api/icons/v2/restaurant_pinlet","name":"Traditional Food Grill","opening_hours":{"open_now":true},"photos":[{"height":3240,"html_attributions":["<a href=\"https://maps.google.com/maps/contrib/109784416860981305590\">Andrei A</a>"],"photo_reference":"AeJbb3csZcp8NlaE3HU-7j92kzD9bfAaZRWcmpkrtaQf4dccrk81BwTubu729RcUa831T0hS1nKQhOfY-dw9Y-SLMpndFbyTeUA-YTDr0286EnAmhkOA1ptGd1qDhsHsylzC4uGK8uZ0_WkNgYC3CQEmBAL3eG2hUy06DY0FHdSKUmsslBc0","width":4320}],"place_id":"ChIJYyMFITC9oRQRyQA_dG9EPQ8","plus_code":{"compound_code":"XPPH+34 Athens","global_code":"8G95XPPH+34"},"rating":4.2,"reference":"ChIJYyMFITC9oRQRyQA_dG9EPQ8","types":["restaurant","food","point_of_interest","establishment"],"user_ratings_total":16},{"business_status":"OPERATIONAL","formatted_address":"Pl. Filikis Eterias 14, Athina 106 74","geometry":{"location":{"lat":37.97717919999999,"lng":23.7412901},"viewport":{"northeast":{"lat":37.97849217989272,"lng":23.74259087989272},"southwest":{"lat":37.97579252010728,"lng":23.73989122010727}}},"icon":"https://maps.gstatic.com/mapfiles/place_api/icons/v1/png_71/restaurant-71.png","icon_background_color":"#FF9E67","icon_mask_base_uri":"https://maps.gstatic.com/mapfiles/place_api/icons/v2/restaurant_pinlet","name":"KALON Restaurant","opening_hours":{"open_now":true},"photos":[{"height":3000,"html_attributions":["<a href=\"https://maps.google.com/maps/contrib/110735431517822251310\">Altug OGUZ</a>"],"photo_reference":"AeJbb3dsqFEEPtZbCX3dfbFXh0ADkAUKxKFZXs1JNCRk0_s8E3xGeUTeIFaue_zuppIVJG5u2IZH4f3jOysAPqCwPmOmuPaQ-5I-wZisOebfoXAR7ZwLyXUGoUdQWY8a21PMbneNjuxwcSudCKo90Y-tKsT8DC8bASyiivrg8j-Ars_aTKA","width":4000}],"place_id":"ChIJCyf0Czu9oRQRhHh40HLeu0k","plus_code":{"compound_code":"XPGR+VG Athens","global_code":"8G95XPGR+VG"},"rating":4.1,"reference":"ChIJCyf0Czu9oRQRhHh40HLeu0k","types":["restaurant","food","point_of_interest","establishment"],"user_ratings_total":23},{"business_status":"OPERATIONAL","formatted_address":"Mpoumpoulinas 10-12, Pireas 185 35","geometry":{"location":{"lat":37.9418412,"lng":23.644146},"viewport":{"northeast":{"lat":37.94319277989272,"lng":23.64550147989272},"southwest":{"lat":37.94049312010728,"lng":23.64280182010728}}},"icon":"https://maps.gstatic.com/mapfiles/place_api/icons/v1/png_71/restaurant-71.png","icon_background_color":"#FF9E67","icon_mask_base_uri":"https://maps.gstatic.com/mapfiles/place_api/icons/v2/restaurant_pinlet","name":"Greek Souvlaki","opening_hours":{"open_now":true},"place_id":"ChIJhzlOV3W7oRQRT4aNNR6P4L0","plus_code":{"compound_code":"WJRV+PJ Pireas","global_code":"8G95WJRV+PJ"},"rating":4.1,"reference":"ChIJhzlOV3W7oRQRT4aNNR6P4L0","types":["restaurant","food","point_of_interest","establishment"],"user_ratings_total":10},{"business_status":"OPERATIONAL","formatted_address":"Diogenous 4, Athina 105 56","geometry":{"location":{"lat":37.9742837,"lng":23.7276892},"viewport":{"northeast":{"lat":37.97573622989272,"lng":23.72871382989272},"southwest":{"lat":37.97303657010728,"lng":23.72601417010728}}},"icon":"https://maps.gstatic.com/mapfiles/place_api/icons/v1/png_71/restaurant-71.png","icon_background_color":"#FF9E67","icon_mask_base_uri":"https://maps.gstatic.com/mapfiles/place_api/icons/v2/restaurant_pinlet","name":"Platanos Taverna","opening_hours":{"open_now":true},"photos":[{"height":3024,"html_attributions":["<a href=\"https://maps.google.com/maps/contrib/104475273694556364284\">A Google User</a>"],"photo_reference":"AeJbb3dbYcYASVbGkE_j1cetI5Zx5JPZxof0MmklvXG2jCycS1mPK8pCXUo2GCvPrbLnY9e6HLPs-yTuAyP9ubxcDuCBI522aJAp4pLmYxxGEwsiqb3zSxYAdCbs9T7N_7OZYeqR7mjoFoPFerepsmwwFGDXKnxqw5w-BfQ2f9ggS8EZqFzE","width":4032}],"place_id":"ChIJ8ZinUj29oRQRopnDzf4EPn0","plus_code":{"compound_code":"XPFH+P3 Athens","global_code":"8G95XPFH+P3"},"price_level":2,"rating":4,"reference":"ChIJ8ZinUj29oRQRopnDzf4EPn0","types":["restaurant","point_of_interest","food","establishment"],"user_ratings_total":885},{"business_status":"OPERATIONAL","formatted_address":"Unnamed Road, 190 04","geometry":{"location":{"lat":37.9857553,"lng":23.9105177},"viewport":{"northeast":{"lat":37.98710512989272,"lng":23.91186752989272},"southwest":{"lat":37.98440547010728,"lng":23.90916787010728}}},"icon":"https://maps.gstatic.com/mapfiles/place_api/icons/v1/png_71/restaurant-71.png","icon_background_color":"#FF9E67","icon_mask_base_uri":"https://maps.gstatic.com/mapfiles/place_api/icons/v2/restaurant_pinlet","name":"It's all Greek","opening_hours":{"open_now":true},"photos":[{"height":2736,"html_attributions":["<a href=\"https://maps.google.com/maps/contrib/101350645791082885659\">Teo Tatsis</a>"],"photo_reference":"AeJbb3cmn5q9r7KOFKrRyXCBZaRkPuvcmiy3gFltyBd8JoQTMKYNLaakHO8CgLK37_VDlzuiJtfCcQxuPNYkdbRfU6Y-8300wv_wGl3L8w2ehmWw8SDZj4lggFgrQC14dYMh1hTYkUWWWZLOh5qzAWPmqu7tOLwhgyCQ2GTyY27vbk8bOjwt","width":3648}],"place_id":"ChIJS86BndqboRQRBY5I5YDSNMo","plus_code":{"compound_code":"XWP6+86 Spata Loutsa","global_code":"8G95XWP6+86"},"rating":4,"reference":"ChIJS86BndqboRQRBY5I5YDSNMo","types":["restaurant","food","point_of_interest","establishment"],"user_ratings_total":316},{"business_status":"OPERATIONAL","formatted_address":"Kidathineon 16, Athina 105 58","geometry":{"location":{"lat":37.9704093,"lng":23.731678},"viewport":{"northeast":{"lat":37.97171327989273,"lng":23.73299497989272},"southwest":{"lat":37.96901362010728,"lng":23.73029532010727}}},"icon":"https://maps.gstatic.com/mapfiles/place_api/icons/v1/png_71/restaurant-71.png","icon_background_color":"#FF9E67","icon_mask_base_uri":"https://maps.gstatic.com/mapfiles/place_api/icons/v2/restaurant_pinlet","name":"Taverna Plaka","opening_hours":{"open_now":true},"photos":[{"height":3024,"html_attributions":["<a href=\"https://maps.google.com/maps/contrib/105466307445765935002\">André Vieira</a>"],"photo_reference":"AeJbb3fJY8XuI3gpPWEyc8DHJ90js6CY6OMo-zaS4pFJNxO-LJbQ4PSBwmcqrWhnGcdiE8MkcsWxpZS3xA14OPC95kKjrRU9fRHiRiWJOnutzqs-ClAJFa1flHd62meSixyGeF0ACghj9jbb5lcj9r5EwseDDpsSi7TlRB9Z5HN6J16sHDSs","width":4032}],"place_id":"ChIJaZ0IfR29oRQREVomYKbC9i0","plus_code":{"compound_code":"XPCJ+5M Athens","global_code":"8G95XPCJ+5M"},"rating":3.9,"reference":"ChIJaZ0IfR29oRQREVomYKbC9i0","types":["restaurant","food","point_of_interest","establishment"],"user_ratings_total":398},{"business_status":"OPERATIONAL","formatted_address":"B' Area Attiko Alsos, Athina 113 63","geometry":{"location":{"lat":38.0073637,"lng":23.7561298},"viewport":{"northeast":{"lat":38.00871872989272,"lng":23.75754437989272},"southwest":{"lat":38.00601907010727,"lng":23.75484472010728}}},"icon":"https://maps.gstatic.com/mapfiles/place_api/icons/v1/png_71/restaurant-71.png","icon_background_color":"#FF9E67","icon_mask_base_uri":"https://maps.gstatic.com/mapfiles/place_api/icons/v2/restaurant_pinlet","name":"Zafiro Experience Greek Show","opening_hours":{"open_now":true},"photos":[{"height":3024,"html_attributions":["<a href=\"https://maps.google.com/maps/contrib/112324404086127603537\">Rafa Luque</a>"],"photo_reference":"AeJbb3fja88vLaeb0KeoJXQ_DZ3G5N4huOQ8ObPpPY5LclYIVetT_LEnFWed5Pt0V0uCQgcBe359qNO6t8VwH4Wb3Va6QTmOTbyX8D3KXrsSob4o-u-Yb4nF2RL4P-2H5U3aBfXyzFAEakeVy2Sj_50pTwozk5miPF09KPRRV5cUVWp3Xy0M","width":4032}],"place_id":"ChIJRSv0qJiioRQRqLik1vCkbPU","plus_code":{"compound_code":"2Q44+XG Athens","global_code":"8GC52Q44+XG"},"rating":3.8,"reference":"ChIJRSv0qJiioRQRqLik1vCkbPU","types":["restaurant","food","point_of_interest","establishment"],"user_ratings_total":204},{"business_status":"OPERATIONAL","formatted_address":"Pl. Filomousou Eterias 3, Athina 105 58","geometry":{"location":{"lat":37.9717206,"lng":23.7312774},"viewport":{"northeast":{"lat":37.97302302989272,"lng":23.73278157989272},"southwest":{"lat":37.97032337010727,"lng":23.73008192010728}}},"icon":"https://maps.gstatic.com/mapfiles/place_api/icons/v1/png_71/restaurant-71.png","icon_background_color":"#FF9E67","icon_mask_base_uri":"https://maps.gstatic.com/mapfiles/place_api/icons/v2/restaurant_pinlet","name":"Acropol Restaurant","opening_hours":{"open_now":true},"photos":[{"height":2592,"html_attributions":["<a href=\"https://maps.google.com/maps/contrib/104996689128506299491\">yachiko kawakubo</a>"],"photo_reference":"AeJbb3cnnRRGH4s_gljI8GjKD_eU921toPXsK1ZzMlgEuY0FQ9Qki1tYF1x43Nkf-9GT6YCe2LbII2EGfPiEaCvlyRnmt-2YHmp5bFyigFETNbPQ_LXoPL2oK5mF6huw8E1f0WIMvTFaBNgoldZIZ8_S2mU1J5T9zHpuoJHPQ2xoCaA8gAw","width":3888}],"place_id":"ChIJWUAI-Be9oRQRoKmV8fQGQ1Q","plus_code":{"compound_code":"XPCJ+MG Athens","global_code":"8G95XPCJ+MG"},"rating":3.7,"reference":"ChIJWUAI-Be9oRQRoKmV8fQGQ1Q","types":["restaurant","food","point_of_interest","establishment"],"user_ratings_total":328},{"business_status":"OPERATIONAL","formatted_address":"Rovertou Galli 17, Athina 117 42","geometry":{"location":{"lat":37.9688721,"lng":23.7252443},"viewport":{"northeast":{"lat":37.97023337989272,"lng":23.72660042989272},"southwest":{"lat":37.96753372010728,"lng":23.72390077010728}}},"icon":"https://maps.gstatic.com/mapfiles/place_api/icons/v1/png_71/restaurant-71.png","icon_background_color":"#FF9E67","icon_mask_base_uri":"https://maps.gstatic.com/mapfiles/place_api/icons/v2/restaurant_pinlet","name":"Acropolis Restaurant Cafe","opening_hours":{"open_now":true},"photos":[{"height":2322,"html_attributions":["<a href=\"https://maps.google.com/maps/contrib/104829265450948195842\">Acropolis Restaurant Cafe</a>"],"photo_reference":"AeJbb3f2MSkuZnu5VqfEe7p31XY_4McRpd3svozV7FN7EGeCq8MZ37v4kjoUAr0ccqpaOKwRk85xHu_MiT2-EVXYK-Ql27wz-MJrdlJjl-Gs1ZgpArZon_iDC_wOyOaUhQBydBcJcPHHFUiLr17FKt6uaDGeP9uY9xeReTjxb20FB5AdCeVm","width":4128}],"place_id":"ChIJayERLxq9oRQRoQQz1Rx4rVg","plus_code":{"compound_code":"XP9G+G3 Athens","global_code":"8G95XP9G+G3"},"rating":3.7,"reference":"ChIJayERLxq9oRQRoQQz1Rx4rVg","types":["restaurant","food","point_of_interest","establishment"],"user_ratings_total":96},{"business_status":"OPERATIONAL","formatted_address":"Adrianou 21, Athina 105 55","geometry":{"location":{"lat":37.9760036,"lng":23.723642},"viewport":{"northeast":{"lat":37.97715957989272,"lng":23.72548297989272},"southwest":{"lat":37.97445992010728,"lng":23.72278332010728}}},"icon":"https://maps.gstatic.com/mapfiles/place_api/icons/v1/png_71/restaurant-71.png","icon_background_color":"#FF9E67","icon_mask_base_uri":"https://maps.gstatic.com/mapfiles/place_api/icons/v2/restaurant_pinlet","name":"Restaurante misáis con vistas","opening_hours":{"open_now":true},"place_id":"ChIJP7SnLiy9oRQRlxrS2Lmapvo","plus_code":{"compound_code":"XPGF+CF Athens","global_code":"8G95XPGF+CF"},"rating":3,"reference":"ChIJP7SnLiy9oRQRlxrS2Lmapvo","types":["restaurant","food","point_of_interest","establishment"],"user_ratings_total":1},{"business_status":"OPERATIONAL","formatted_address":"Aiolou 29, Athina 105 51","geometry":{"location":{"lat":37.9773767,"lng":23.7276515},"viewport":{"northeast":{"lat":37.97888122989272,"lng":23.72910892989272},"southwest":{"lat":37.97618157010727,"lng":23.72640927010728}}},"icon":"https://maps.gstatic.com/mapfiles/place_api/icons/v1/png_71/restaurant-71.png","icon_background_color":"#FF9E67","icon_mask_base_uri":"https://maps.gstatic.com/mapfiles/place_api/icons/v2/restaurant_pinlet","name":"Taverna","place_id":"ChIJJQ3NkiC9oRQRMSEYf0FM7Qg","plus_code":{"compound_code":"XPGH+X3 Athens","global_code":"8G95XPGH+X3"},"rating":0,"reference":"ChIJJQ3NkiC9oRQRMSEYf0FM7Qg","types":["restaurant","food","point_of_interest","establishment"],"user_ratings_total":0},{"business_status":"OPERATIONAL","formatted_address":"Apollonos 30, Athina 105 56","geometry":{"location":{"lat":37.9746072,"lng":23.7300065},"viewport":{"northeast":{"lat":37.97593892989272,"lng":23.73136327989272},"southwest":{"lat":37.97323927010728,"lng":23.72866362010728}}},"icon":"https://maps.gstatic.com/mapfiles/place_api/icons/v1/png_71/restaurant-71.png","icon_background_color":"#FF9E67","icon_mask_base_uri":"https://maps.gstatic.com/mapfiles/place_api/icons/v2/restaurant_pinlet","name":"Greek Tavern DION - Greek Tavern Dion","opening_hours":{"open_now":true},"place_id":"ChIJEYnhDD29oRQRlIiRQC_gWDI","plus_code":{"compound_code":"XPFJ+R2 Athens","global_code":"8G95XPFJ+R2"},"rating":0,"reference":"ChIJEYnhDD29oRQRlIiRQC_gWDI","types":["restaurant","food","point_of_interest","establishment"],"user_ratings_total":0}]