[{"business_status":"OPERATIONAL","formatted_address":"Vourvachi 5-9, Athina 117 43","geometry":{"location":{"lat":37.9668352,"lng":23.7310761},"viewport":{"northeast":{"lat":37.96813097989273,"lng":23.73236062989272},"southwest":{"lat":37.96543132010728,"lng":23.72966097010728}}},"icon":"https://maps.gstatic.com/mapfiles/place_api/icons/v1/png_71/cafe-71.png","icon_background_color":"#FF9E67","icon_mask_base_uri":"https://maps.gstatic.com/mapfiles/place_api/icons/v2/cafe_pinlet","name":"Coffee Joint","opening_hours":{"open_now":true},"photos":[{"height":1920,"html_attributions":["<a href=\"https://maps.google.com/maps/contrib/101203274959265394194\">Marlene Bolkestein</a>"],"photo_reference":"AeJbb3dIqnCIZv0K8i-moCbNnn0dnm3XBhcXDysF8Stc-Zvq6CXqFCnwlpm9eUpiamoGiDqw1uCBaE1EWfyt4jvLdGqNYmRgTd7m-L96oy5QKJrhni8atjY0kY31kJRVJL_BmqyhYQbyrPd2kSga2MkWz0f_2s0QsWQweX-zU2Xwrm1LwSu5","width":1080}],"place_id":"ChIJCRtlIhG9oRQRM1Net11N-CY","plus_code":{"compound_code":"XP8J+PC Athens","global_code":"8G95XP8J+PC"},"price_level":1,"rating":4.9,"reference":"ChIJCRtlIhG9oRQRM1Net11N-CY","types":["cafe","restaurant","food","point_of_interest","establishment"],"user_ratings_total":755},{"business_status":"OPERATIONAL","formatted_address":"Veikou 84, Athina 117 41","geometry":{"location":{"lat":37.9636839,"lng":23.7216011},"viewport":{"northeast":{"lat":37.96500037989272,"lng":23.72298192989272},"southwest":{"lat":37.96230072010728,"lng":23.72028227010728}}},"icon":"https://maps.gstatic.com/mapfiles/place_api/icons/v1/png_71/cafe-71.png","icon_background_color":"#FF9E67","icon_mask_base_uri":"https://maps.gstatic.com/mapfiles/place_api/icons/v2/cafe_pinlet","name":"Bite Box","opening_hours":{"open_now":true},"photos":[{"height":864,"html_attributions":["<a href=\"https://maps.google.com/maps/contrib/113999185088693349178\">A Google User</a>"],"photo_reference":"AeJbb3dYJUSFjWZeDZk2Al8JPrShyuKFWgfvrl_T_fSYfc0cSXp2T5BeBucp_R6xCKZbRf5viGCm5LE7ckZXnDBty5XS9DDPgsrxv31F_orYAJ9wVOUp3DAkQPDX_3TdXZUsrkQT9oPVhB2xCRyjKsrbC2g--4E6eB-GfyX9dPVvnunkxZjZ","width":1440}],"place_id":"ChIJEbQlYAO9oRQRnOdWHCtEqcY","plus_code":{"compound_code":"XP7C+FJ Athens","global_code":"8G95XP7C+FJ"},"rating":4.8,"reference":"ChIJEbQlYAO9oRQRnOdWHCtEqcY","types":["cafe","bar","meal_takeaway","restaurant","food","point_of_interest","establishment"],"user_ratings_total":351},{"business_status":"OPERATIONAL","formatted_address":"Kountouriotou 12, Keratsini 187 56","geometry":{"location":{"lat":37.9632337,"lng":23.6200731},"viewport":{"northeast":{"lat":37.96458102989271,"lng":23.62146957989272},"southwest":{"lat":37.96188137010727,"lng":23.61876992010728}}},"icon":"https://maps.gstatic.com/mapfiles/place_api/icons/v1/png_71/restaurant-71.png","icon_background_color":"#FF9E67","icon_mask_base_uri":"https://maps.gstatic.com/mapfiles/place_api/icons/v2/restaurant_pinlet","name":"ΨΑΡΟΤΑΒΕΡΝΑ \"Ο ΒΑΣΙΛΗΣ\"","opening_hours":{"open_now":false},"photos":[{"height":2448,"html_attributions":["<a href=\"https://maps.google.com/maps/contrib/104420582452817965126\">Mixalis Voutas</a>"],"photo_reference":"AeJbb3fkdHTBfuqploX9RqaXBcpvM8se0LKwMorhC_rXaWzqt2bTrrqx5M-56zIxcY0eGxJHMTKJmGflmkB34Ms89e6D7WSWDdOlgDlYlv9YYYVq-Y2RkA1fHwEr8jsPny8op5vfNtPladlXtwJwdBxJ87NAWtR28U1TNobQowGYj6oBPZE_","width":3264}],"place_id":"ChIJK2M9zEy6oRQRJNCvqKg8eUU","plus_code":{"compound_code":"XJ7C+72 Keratsini","global_code":"8G95XJ7C+72"},"price_level":2,"rating":4.8,"reference":"ChIJK2M9zEy6oRQRJNCvqKg8eUU","types":["restaurant","food","point_of_interest","establishment"],"user_ratings_total":336},{"business_status":"OPERATIONAL","formatted_address":"Sellei 3, Athina 105 58","geometry":{"location":{"lat":37.971396,"lng":23.7301095},"viewport":{"northeast":{"lat":37.97274557989272,"lng":23.73146137989272},"southwest":{"lat":37.97004592010728,"lng":23.72876172010728}}},"icon":"https://maps.gstatic.com/mapfiles/place_api/icons/v1/png_71/restaurant-71.png","icon_background_color":"#FF9E67","icon_mask_base_uri":"https://maps.gstatic.com/mapfiles/place_api/icons/v2/restaurant_pinlet","name":"Παραδοσιακό (Πλάκα)","opening_hours":{"open_now":true},"photos":[{"height":1600,"html_attributions":["<a href=\"https://maps.google.com/maps/contrib/100216298877937335398\">A Google User</a>"],"photo_reference":"AeJbb3f5WhtMT8HocL2xYdB9HT32ES2L6C24BO0Gm-xv67HkuIWgurVDSKYY5ZnHWT9bGBVqqPZPFz8dVmCHNVOqCukHXvoeXI2wqCyzNR_AKCf-Zm0SVDUbdFrDza9a4Ao4FDJYbGrsngTWtm7MopY2LbiPMQzUnjsSBE3BQFcwZde8jyqs","width":1197}],"place_id":"ChIJeWoSAMe9oRQROdbjcN3F1mY","plus_code":{"compound_code":"XPCJ+H2 Athens","global_code":"8G95XPCJ+H2"},"rating":4.8,"reference":"ChIJeWoSAMe9oRQROdbjcN3F1mY","types":["cafe","bar","restaurant","food","point_of_interest","establishment"],"user_ratings_total":53},{"business_status":"OPERATIONAL","formatted_address":"Efroniou 47, Kesariani 161 21","geometry":{"location":{"lat":37.9725669,"lng":23.7528843},"viewport":{"northeast":{"lat":37.97382857989272,"lng":23.75422667989272},"southwest":{"lat":37.97112892010728,"lng":23.75152702010728}}},"icon":"https://maps.gstatic.com/mapfiles/place_api/icons/v1/png_71/restaurant-71.png","icon_background_color":"#FF9E67","icon_mask_base_uri":"https://maps.gstatic.com/mapfiles/place_api/icons/v2/restaurant_pinlet","name":"To Kaplani","opening_hours":{"open_now":false},"photos":[{"height":3000,"html_attributions":["<a href=\"https://maps.google.com/maps/contrib/104212233699827298099\">Ioannis Ermilios</a>"],"photo_reference":"AeJbb3cCMT4yplfFYsTLO21yIcLlYZ4XS2Ks_M-JVqCC874EwLptf2gGhaqUWxiqijZoh0PGuMEteWfslNezwGLVQaN1H4vXCnkVv5ynbVmHEDn7ipjHP9neZ7Z-8F8EGCd_rNmCY5P57HHXw8uxPs86j5-jstwTkC951MA4H-VOt3gK237u","width":4000}],"place_id":"ChIJef7eGrq9oRQRdbU0xJyltpE","plus_code":{"compound_code":"XQF3+25 Kaisariani","global_code":"8G95XQF3+25"},"price_level":2,"rating":4.7,"reference":"ChIJef7eGrq9oRQRdbU0xJyltpE","types":["restaurant","food","point_of_interest","establishment"],"user_ratings_total":514},{"business_status":"OPERATIONAL","formatted_address":"Pallados 2-4, Athina 105 54","geometry":{"location":{"lat":37.9790608,"lng":23.7264205},"viewport":{"northeast":{"lat":37.98040407989272,"lng":23.72778142989272},"southwest":{"lat":37.97770442010728,"lng":23.72508177010727}}},"icon":"https://maps.gstatic.com/mapfiles/place_api/icons/v1/png_71/restaurant-71.png","icon_background_color":"#FF9E67","icon_mask_base_uri":"https://maps.gstatic.com/mapfiles/place_api/icons/v2/restaurant_pinlet","name":"TsiknaBoom","opening_hours":{"open_now":true},"photos":[{"height":3024,"html_attributions":["<a href=\"https://maps.google.com/maps/contrib/104731148753468769749\">Lee-Onn Tan</a>"],"photo_reference":"AeJbb3fcIppJ--YsxvxLEEUaxzCXjHi9HPBcgBhNEE8eReRX-gJ85KaB7izNuqpvwIXn9nYbaUD_bgDR4N3LTQx8s2Dqx49Wt1r0UEWAkntb8e3etebI9e4H4YWuHa8L5OKF_aC6e0z8m-Le_rsLFMO2XWGUDO7Af5Fvi2tNbSCssg5vZAlg","width":4032}],"place_id":"ChIJ1fSvoCS9oRQRdUUOWL-dGZg","plus_code":{"compound_code":"XPHG+JH Athens","global_code":"8G95XPHG+JH"},"price_level":1,"rating":4.7,"reference":"ChIJ1fSvoCS9oRQRdUUOWL-dGZg","types":["restaurant","food","point_of_interest","establishment"],"user_ratings_total":191},{"business_status":"OPERATIONAL","formatted_address":"Plateon 10, Athina 104 35","geometry":{"location":{"lat":37.9804783,"lng":23.7170972},"viewport":{"northeast":{"lat":37.98180107989273,"lng":23.71839162989272},"southwest":{"lat":37.97910142010728,"lng":23.71569197010728}}},"icon":"https://maps.gstatic.com/mapfiles/place_api/icons/v1/png_71/restaurant-71.png","icon_background_color":"#FF9E67","icon_mask_base_uri":"https://maps.gstatic.com/mapfiles/place_api/icons/v2/restaurant_pinlet","name":"Rakor","opening_hours":{"open_now":true},"photos":[{"height":3024,"html_attributions":["<a href=\"https://maps.google.com/maps/contrib/103486672275608649630\">Sam Woro</a>"],"photo_reference":"AeJbb3du-bhlTriPhuZS3m465akFJ8x3zxnFaEMmELYO4nPM0HstbJh1Yx7L9oPXbkT6yt4O5cXyCe4PqUcwiO06ooP0r52Btrr0OW4eTrJo_b9yaxk2rftx38FFkNomNRm4rfbkyzakehGnlUieGTHQ2p9FexC7ccQxW7rUZh1XdGmzIoJV","width":4032}],"place_id":"ChIJ-e-jtyC9oRQRzuSsQYV3pmI","plus_code":{"compound_code":"XPJ8+5R Athens","global_code":"8G95XPJ8+5R"},"price_level":2,"rating":4.6,"reference":"ChIJ-e-jtyC9oRQRzuSsQYV3pmI","types":["restaurant","food","point_of_interest","establishment"],"user_ratings_total":1380},{"business_status":"OPERATIONAL","formatted_address":"Vrasida 13, Athina 115 28","geometry":{"location":{"lat":37.9746386,"lng":23.7506812},"viewport":{"northeast":{"lat":37.97601917989272,"lng":23.75200387989273},"southwest":{"lat":37.97331952010728,"lng":23.74930422010728}}},"icon":"https://maps.gstatic.com/mapfiles/place_api/icons/v1/png_71/restaurant-71.png","icon_background_color":"#FF9E67","icon_mask_base_uri":"https://maps.gstatic.com/mapfiles/place_api/icons/v2/restaurant_pinlet","name":"Vassilenas","opening_hours":{"open_now":false},"photos":[{"height":1281,"html_attributions":["<a href=\"https://maps.google.com/maps/contrib/101077802165062330495\">Βασιλαινας</a>"],"photo_reference":"AeJbb3dqIGWsOnhw_2G7FCVkc7o-NTtJnewQYujdaNUVa3PWRbFNa765QzpVqTHckAOrYMJ3fQjufI-BM90xDNSqOyNWGdzDbmNMGtBVLr_2gsfcC4CweWddJZXCtzWuSWTKCVgG9oB5u_9F-cyALEwSgDk46x4NUl0dsZMtZNSIS7xlWdiZ","width":1920}],"place_id":"ChIJd7KjsES9oRQR2eLc-aiM_-Q","plus_code":{"compound_code":"XQF2+V7 Athens","global_code":"8G95XQF2+V7"},"price_level":3,"rating":4.6,"reference":"ChIJd7KjsES9oRQR2eLc-aiM_-Q","types":["restaurant","food","point_of_interest","establishment"],"user_ratings_total":1094},{"business_status":"OPERATIONAL","formatted_address":"Rovertou Galli 4a, Athina 117 42","geometry":{"location":{"lat":37.9683667,"lng":23.7270384},"viewport":{"northeast":{"lat":37.96970352989272,"lng":23.72838077989272},"southwest":{"lat":37.96700387010728,"lng":23.72568112010728}}},"icon":"https://maps.gstatic.com/mapfiles/place_api/icons/v1/png_71/restaurant-71.png","icon_background_color":"#FF9E67","icon_mask_base_uri":"https://maps.gstatic.com/mapfiles/place_api/icons/v2/restaurant_pinlet","name":"POINT a (Acropolis Point)","opening_hours":{"open_now":false},"photos":[{"height":1744,"html_attributions":["<a href=\"https://maps.google.com/maps/contrib/118199146134035860214\">Kihong Kim</a>"],"photo_reference":"AeJbb3cAQGSpfuQ5GX4DMsCCCau26jwo7d3Bv5-JC3HC0mRfcgrIcwxhZvCDQ3OLErfcUnnAmYaXi2NFHt8qFkFnw-xaBN1QfNNhqPc24NcolYZsPt5kiR2H3Lfbr2IMhhOl6icKaUd6oor3lbARKXUUMkN6rpYEGx8FTSVI9dBtCbavi0i6","width":2328}],"place_id":"ChIJaa_JBRq9oRQReRYxOVMkqGM","plus_code":{"compound_code":"XP9G+9R Athens","global_code":"8G95XP9G+9R"},"price_level":2,"rating":4.6,"reference":"ChIJaa_JBRq9oRQReRYxOVMkqGM","types":["restaurant","bar","food","point_of_interest","establishment"],"user_ratings_total":667},{"business_status":"OPERATIONAL","formatted_address":"Kolokinthous 41, Athina 104 36","geometry":{"location":{"lat":37.9832555,"lng":23.7203173},"viewport":{"northeast":{"lat":37.98461222989272,"lng":23.72168407989272},"southwest":{"lat":37.98191257010728,"lng":23.71898442010728}}},"icon":"https://maps.gstatic.com/mapfiles/place_api/icons/v1/png_71/restaurant-71.png","icon_background_color":"#FF9E67","icon_mask_base_uri":"https://maps.gstatic.com/mapfiles/place_api/icons/v2/restaurant_pinlet","name":"Akropolis","opening_hours":{"open_now":true},"photos":[{"height":3024,"html_attributions":["<a href=\"https://maps.google.com/maps/contrib/108460304226016337969\">Mahmood Samin</a>"],"photo_reference":"AeJbb3dCtETCmaozwvTB9-AjaL9kuqm3untVzCujfOVDrt7GQWa7YZJsSYTvOmjRpCGXzT4oZ6NDaNuCccr6Hu21hS5L_Q3nsJjxJbxAY5Tsa9cCwomTFUAs0kzCRu275DZ5XNenv5Jb3GgOiTI6ElL_SuWZSqA8yFwh_5Z0OX46hghrcubz","width":4032}],"place_id":"ChIJzfepZya9oRQRJqJi12KUOZw","plus_code":{"compound_code":"XPMC+84 Athens","global_code":"8G95XPMC+84"},"price_level":1,"rating":4.6,"reference":"ChIJzfepZya9oRQRJqJi12KUOZw","types":["restaurant","food","point_of_interest","establishment"],"user_ratings_total":75},{"business_status":"OPERATIONAL","formatted_address":"Roof top, Leof. Alexandras 10, Athina 106 82","geometry":{"location":{"lat":37.9911607,"lng":23.7331137},"viewport":{"northeast":{"lat":37.99263292989273,"lng":23.73452297989272},"southwest":{"lat":37.98993327010728,"lng":23.73182332010728}}},"icon":"https://maps.gstatic.com/mapfiles/place_api/icons/v1/png_71/restaurant-71.png","icon_background_color":"#FF9E67","icon_mask_base_uri":"https://maps.gstatic.com/mapfiles/place_api/icons/v2/restaurant_pinlet","name":"ST'ASTRA Restaurant","opening_hours":{"open_now":true},"photos":[{"height":800,"html_attributions":["<a href=\"https://maps.google.com/maps/contrib/109004689710252822917\">A Google User</a>"],"photo_reference":"AeJbb3dkc5MDPvy3Zwu8hjWDnntX6-Eh2XvR96pZksE7hVFhnOd9qeFzC8cMAEkYg3JmByKZH0VyWcHHoEn8bDK9dJsLXjOw1tQqiIDLoPfNLpQf4g2K4jTg4RgNfNnggIf_Mhx3ddboBmcJHYngud7MDyKkURUHQY5zhpSJjYRK7JoZhEdz","width":1200}],"place_id":"ChIJ3T0zgV69oRQRdYBnj0KM3Y8","plus_code":{"compound_code":"XPRM+F6 Athens","global_code":"8G95XPRM+F6"},"rating":4.6,"reference":"ChIJ3T0zgV69oRQRdYBnj0KM3Y8","types":["restaurant","food","point_of_interest","establishment"],"user_ratings_total":14},{"business_status":"OPERATIONAL","formatted_address":"Lisiou 22, Athina 105 56","geometry":{"location":{"lat":37.9733328,"lng":23.7285967},"viewport":{"northeast":{"lat":37.97466772989272,"lng":23.72993942989272},"southwest":{"lat":37.97196807010728,"lng":23.72723977010728}}},"icon":"https://maps.gstatic.com/mapfiles/place_api/icons/v1/png_71/cafe-71.png","icon_background_color":"#FF9E67","icon_mask_base_uri":"https://maps.gstatic.com/mapfiles/place_api/icons/v2/cafe_pinlet","name":"Melina Mercouri Café","opening_hours":{"open_now":true},"photos":[{"height":1840,"html_attributions":["<a href=\"https://maps.google.com/maps/contrib/100375040025352710135\">Christos Lepesiotis</a>"],"photo_reference":"AeJbb3c5qVlNN_plEpRaXLQ5ScosVzNXxf6gzYh905NoG6cJa1w4glGhqsvXUsXUT4giy6qS5Q0INBjXxhw62gMTHjuKnSjIT8Ly4Q541Z1TBaIGL-Sk58i6QiVbsR90dMIp3RtUYadsSWV0knBl-h97Z1nQOvO1HEoOrbdGyX1ddRW9xx0k","width":3264}],"place_id":"ChIJK3bX4xe9oRQRcUNYhH9qgxQ","plus_code":{"compound_code":"XPFH+8C Athens","global_code":"8G95XPFH+8C"},"price_level":2,"rating":4.5,"reference":"ChIJK3bX4xe9oRQRcUNYhH9qgxQ","types":["cafe","store","restaurant","food","point_of_interest","establishment"],"user_ratings_total":2154},{"business_status":"OPERATIONAL","formatted_address":"Sarri 18, Athina 105 53","geometry":{"location":{"lat":37.9795065,"lng":23.723096},"viewport":{"northeast":{"lat":37.98080692989272,"lng":23.72448892989273},"southwest":{"lat":37.97810727010727,"lng":23.72178927010728}}},"icon":"https://maps.gstatic.com/mapfiles/place_api/icons/v1/png_71/restaurant-71.png","icon_background_color":"#FF9E67","icon_mask_base_uri":"https://maps.gstatic.com/mapfiles/place_api/icons/v2/restaurant_pinlet","name":"Zampano","opening_hours":{"open_now":true},"photos":[{"height":1533,"html_attributions":["<a href=\"https://maps.google.com/maps/contrib/108670124276250846667\">A Google User</a>"],"photo_reference":"AeJbb3eDNlMZv1QViXKi1MfGf0RSupoU1xsUKAeuXv_ahsvbjIulejsQ918kbBZCXp72PYkCPaphkXWZ30KUuXMG7bc6C127fV2dYW794nSdAqaXwl1R5LN2G1_j_gaa3OBwDsaK2nCjBWIg2y04WvRsM1VuBve02l6J0EJORTxplg7-hqFm","width":2300}],"place_id":"ChIJ_6YQiyO9oRQRsKzYjWYuICQ","plus_code":{"compound_code":"XPHF+R6 Athens","global_code":"8G95XPHF+R6"},"price_level":2,"rating":4.5,"reference":"ChIJ_6YQiyO9oRQRsKzYjWYuICQ","types":["bar","restaurant","food","point_of_interest","establishment"],"user_ratings_total":1706},{"business_status":"OPERATIONAL","formatted_address":"Palaiologou 15, Chalandri 152 32","geometry":{"location":{"lat":38.0227285,"lng":23.7917681},"viewport":{"northeast":{"lat":38.02403177989272,"lng":23.79307562989272},"southwest":{"lat":38.02133212010728,"lng":23.79037597010728}}},"icon":"https://maps.gstatic.com/mapfiles/place_api/icons/v1/png_71/restaurant-71.png","icon_background_color":"#FF9E67","icon_mask_base_uri":"https://maps.gstatic.com/mapfiles/place_api/icons/v2/restaurant_pinlet","name":"Pars Restaurant","opening_hours":{"open_now":false},"photos":[{"height":3024,"html_attributions":["<a href=\"https://maps.google.com/maps/contrib/101138897936887241624\">Amir Alnaggar</a>"],"photo_reference":"AeJbb3dvFOkacClq8JBe7HI9gaqEJ7HPG2sH3SzP47hZe5-5b1mhrHDficL0M1bh46A7kL3gM5DF9cM2rMzsi0fqtT0ypX1X7qfeyFyyJ4o6UzrjZgHYcFevAbswAO5mU4LQpNd2_jHLCEPfMHl0nGrp_n8dHdYLmc4YTK71PCWr5tXqnZg","width":4032}],"place_id":"ChIJx29wM_SYoRQRw00MVuP4dD0","plus_code":{"compound_code":"2QFR+3P Chalandri","global_code":"8GC52QFR+3P"},"price_level":2,"rating":4.5,"reference":"ChIJx29wM_SYoRQRw00MVuP4dD0","types":["restaurant","food","point_of_interest","establishment"],"user_ratings_total":587},{"business_status":"OPERATIONAL","formatted_address":"Achilleos 38, Paleo Faliro 175 63","geometry":{"location":{"lat":37.92462769999999,"lng":23.7017834},"viewport":{"northeast":{"lat":37.92601947989271,"lng":23.70304067989272},"southwest":{"lat":37.92331982010727,"lng":23.70034102010728}}},"icon":"https://maps.gstatic.com/mapfiles/place_api/icons/v1/png_71/restaurant-71.png","icon_background_color":"#FF9E67","icon_mask_base_uri":"https://maps.gstatic.com/mapfiles/place_api/icons/v2/restaurant_pinlet","name":"Tasty\"δε γκρηκ γκριλ\" ΨΗΤΟΠΩΛΕΙΟ ΠΑΛΑΙΟ ΦΑΛΗΡΟ","opening_hours":{"open_now":true},"photos":[{"height":1151,"html_attributions":["<a href=\"https://maps.google.com/maps/contrib/115237076388284077335\">A Google User</a>"],"photo_reference":"AeJbb3dgExGbueBvip7WbixUc9abW4_MhnnZ429VWYwTufCIkqyp0HazZoRpoY-lX7lIBueYiOxsKUGBvx__dyE5kRIvng7RhK_B7eHUuoU6nPfm6OFjnOrGcn6s-Lok0QP1cvr-mzmf1gqiT_lp-pOOSzQw6MxDvjk9O7AMEWNpjgbIWB_b","width":2732}],"place_id":"ChIJv6SqdyW8oRQRayh-kIlOs14","plus_code":{"compound_code":"WPF2+VP Palaio Faliro","global_code":"8G95WPF2+VP"},"price_level":1,"rating":4.5,"reference":"ChIJv6SqdyW8oRQRayh-kIlOs14","types":["meal_delivery","bar","restaurant","food","point_of_interest","establishment"],"user_ratings_total":230},{"business_status":"OPERATIONAL","formatted_address":"Kolokotroni 59B, Athina 105 62","geometry":{"location":{"lat":37.977673,"lng":23.7286675},"viewport":{"northeast":{"lat":37.97905267989272,"lng":23.73002037989272},"southwest":{"lat":37.97635302010728,"lng":23.72732072010728}}},"icon":"https://maps.gstatic.com/mapfiles/place_api/icons/v1/png_71/bar-71.png","icon_background_color":"#FF9E67","icon_mask_base_uri":"https://maps.gstatic.com/mapfiles/place_api/icons/v2/bar_pinlet","name":"Noel","opening_hours":{"open_now":false},"photos":[{"height":5472,"html_attributions":["<a href=\"https://maps.google.com/maps/contrib/109728346795265008511\">Allen Chan</a>"],"photo_reference":"AeJbb3fh4LW1j-tJ4Vd0VgmLO7dI3-Rm9w92wJsN1YpTwY06wRZULm1_FlV04A3rZ2zivp1D2oArypNnFthls-Xuaz2z5-Uo3RshsPLIKcTyXY6GS7IwBW00C0wYUDtl5jC5PgxlgoyCMQRSTzFURb-X2Htvn3UUaN25ai7oi9kgOZ1wjCCd","width":3648}],"place_id":"ChIJC-_flzy9oRQRszSczo2Gqyo","plus_code":{"compound_code":"XPHH+3F Athens","global_code":"8G95XPHH+3F"},"price_level":2,"rating":4.4,"reference":"ChIJC-_flzy9oRQRszSczo2Gqyo","types":["bar","restaurant","food","point_of_interest","establishment"],"user_ratings_total":6895},{"business_status":"OPERATIONAL","formatted_address":"Leof. Al. Papanastasiou 19, Ag. Dimitrios 173 43","geometry":{"location":{"lat":37.9474165,"lng":23.7356242},"viewport":{"northeast":{"lat":37.94880327989272,"lng":23.73691807989272},"southwest":{"lat":37.94610362010727,"lng":23.73421842010728}}},"icon":"https://maps.gstatic.com/mapfiles/place_api/icons/v1/png_71/restaurant-71.png","icon_background_color":"#FF9E67","icon_mask_base_uri":"https://maps.gstatic.com/mapfiles/place_api/icons/v2/restaurant_pinlet","name":"Plori (aka The fillets of Fix)","opening_hours":{"open_now":true},"photos":[{"height":3096,"html_attributions":["<a href=\"https://maps.google.com/maps/contrib/114279510504880191740\">Joanna Petsa</a>"],"photo_reference":"AeJbb3cjFmGamNxT9Is4J_8HW4IXLvDwBrrhTE4G0R_ZQtcS-45FF_6Ey_oEdfnnAYGaXMi4gxII5pxiG8QRR1KtQb8bQnBm5pT9PckqbunQGWkAZ8SjFOzK9wY7t1ffVI4D2yMJ5ckocK7u48pWuK7gv_TWBYnWbPvrOtg2xd97CEZACu42","width":4128}],"place_id":"ChIJw5IwZKG9oRQRanTmuD9CP-0","plus_code":{"compound_code":"WPWP+X7 Agios Dimitrios","global_code":"8G95WPWP+X7"},"price_level":2,"rating":4.4,"reference":"ChIJw5IwZKG9oRQRanTmuD9CP-0","types":["restaurant","food","point_of_interest","establishment"],"user_ratings_total":339},{"business_status":"OPERATIONAL","formatted_address":"P. Mela 13, Vironas 162 33","geometry":{"location":{"lat":37.9430629,"lng":23.7723223},"viewport":{"northeast":{"lat":37.94442012989272,"lng":23.77366602989272},"southwest":{"lat":37.94172047010727,"lng":23.77096637010728}}},"icon":"https://maps.gstatic.com/mapfiles/place_api/icons/v1/png_71/restaurant-71.png","icon_background_color":"#FF9E67","icon_mask_base_uri":"https://maps.gstatic.com/mapfiles/place_api/icons/v2/restaurant_pinlet","name":"Balcony In Cyclades","opening_hours":{"open_now":false},"photos":[{"height":3744,"html_attributions":["<a href=\"https://maps.google.com/maps/contrib/115346255047768553930\">Aggelos Koveos</a>"],"photo_reference":"AeJbb3dZ2Dz2sYNGVg5WMQzctvuq-IdXlo6WQ8HbqNdzM16UHU94IiUGG9vjZmDOMKaNwEO1mlm8k4ysmtHRsCJQo5nPlwnYJi9oL9qkodzyfdWcJ77TnL8WcIY7gkzjuiJ1uCAqw5DNq4E6XNckZKkiZpJ409syO2C4NJMZRDSjz42yls-e","width":5616}],"place_id":"ChIJm_-L3yyWoRQRgK9HTdS-jCU","plus_code":{"compound_code":"WQVC+5X Vyronas","global_code":"8G95WQVC+5X"},"price_level":2,"rating":4.3,"reference":"ChIJm_-L3yyWoRQRgK9HTdS-jCU","types":["restaurant","food","point_of_interest","establishment"],"user_ratings_total":1374},{"business_status":"OPERATIONAL","formatted_address":"Pl. Eth. Antistaseos, Melissia 151 27","geometry":{"location":{"lat":38.0652826,"lng":23.8423577},"viewport":{"northeast":{"lat":38.06662097989272,"lng":23.84368397989272},"southwest":{"lat":38.06392132010728,"lng":23.84098432010727}}},"icon":"https://maps.gstatic.com/mapfiles/place_api/icons/v1/png_71/restaurant-71.png","icon_background_color":"#FF9E67","icon_mask_base_uri":"https://maps.gstatic.com/mapfiles/place_api/icons/v2/restaurant_pinlet","name":"MAGGINAS TAVERN - EVENT HALLS","opening_hours":{"open_now":false},"photos":[{"height":1536,"html_attributions":["<a href=\"https://maps.google.com/maps/contrib/100352248562960390493\">musician 82</a>"],"photo_reference":"AeJbb3fmCMRpjPhyJ1n-q5mXyxqib9tI-3AcTzAAt7aO4xxfhzIy4rxLWvcGy38tqPK8rTCUGTo9cJbEFkkDFKk7wz9TtuT-Nd6lulroqd3P3JJI026lsb00TiJYOt8XYE5QOeuhO8f_RsRyyN07dVvmHTipt9hWJYP4lNpJ1r3I1TYYScDt","width":3040}],"place_id":"ChIJc9ywEbyeoRQRKNjeKNKDUv0","plus_code":{"compound_code":"3R8R+4W Melissia","global_code":"8GC53R8R+4W"},"price_level":2,"rating":4.3,"reference":"ChIJc9ywEbyeoRQRKNjeKNKDUv0","types":["restaurant","food","point_of_interest","establishment"],"user_ratings_total":820},{"business_status":"OPERATIONAL","formatted_address":"Makri 24, Athina 117 42","geometry":{"location":{"lat":37.9680855,"lng":23.7304299},"viewport":{"northeast":{"lat":37.96943592989272,"lng":23.73176032989272},"southwest":{"lat":37.96673627010728,"lng":23.72906067010728}}},"icon":"https://maps.gstatic.com/mapfiles/place_api/icons/v1/png_71/restaurant-71.png","icon_background_color":"#FF9E67","icon_mask_base_uri":"https://maps.gstatic.com/mapfiles/place_api/icons/v2/restaurant_pinlet","name":"PANOS TAVERN","opening_hours":{"open_now":true},"photos":[{"height":3628,"html_attributions":["<a href=\"https://maps.google.com/maps/contrib/107705572125283450406\">Angela Cappa</a>"],"photo_reference":"AeJbb3duHCgEo6mJuHDfyxF2DVLLbdbn_glW3CmwY0KylO6uU0n7cFJpCtVFLPBj_w7uYBR2xCMetAfyQdl7L3shJ-H9ZWDTK6357sPFgbYITM2PzDyKpkj59RGZPwtDjWniZJtYt3cOIxjpds-gcJA-8YNdHv96boi3JHr2oiZArckk7R5w","width":7578}],"place_id":"ChIJbz3SKhe9oRQR0kKeN7xc2eU","plus_code":{"compound_code":"XP9J+65 Athens","global_code":"8G95XP9J+65"},"rating":4.3,"reference":"ChIJbz3SKhe9oRQR0kKeN7xc2eU","types":["restaurant","food","point_of_interest","establishment"],"user_ratings_total":153},{"business_status":"OPERATIONAL","formatted_address":"Εντός Αττικού Άλσους Είσοδος Από Οδό, Athanasiou Karpenisioti, Athina 114 76","geometry":{"location":{"lat":38.002402,"lng":23.758385},"viewport":{"northeast":{"lat":38.00384362989272,"lng":23.75969402989272},"southwest":{"lat":38.00114397010727,"lng":23.75699437010728}}},"icon":"https://maps.gstatic.com/mapfiles/place_api/icons/v1/png_71/cafe-71.png","icon_background_color":"#FF9E67","icon_mask_base_uri":"https://maps.gstatic.com/mapfiles/place_api/icons/v2/cafe_pinlet","name":"Hyades","opening_hours":{"open_now":true},"photos":[{"height":2448,"html_attributions":["<a href=\"https://maps.google.com/maps/contrib/114428059813132208949\">excelshop gr</a>"],"photo_reference":"AeJbb3dqPFF6g4DSqzjSl3mWlWeM9Xre4fDL4OVW7YMWB1VUJdwkYRVhakrPjKbi91UR6E032yu3iBPIf48MdJMMOaKaKEMattT46QC_Ctxdf7t6qakFOv7xTtCCvKpQZhWBUSqbeVwHxnABQGW4VMVch1frQ58j_BaHFnoxxeOe0GeauNxV","width":3264}],"place_id":"ChIJzUpkTKGioRQRHxnd10uatwE","plus_code":{"compound_code":"2Q25+X9 Athens","global_code":"8GC52Q25+X9"},"price_level":2,"rating":4,"reference":"ChIJzUpkTKGioRQRHxnd10uatwE","types":["cafe","bar","restaurant","food","point_of_interest","establishment"],"user_ratings_total":3512},{"business_status":"OPERATIONAL","formatted_address":"Kamaterou 12, Athina 140 31","geometry":{"location":{"lat":37.987161,"lng":23.7270046},"viewport":{"northeast":{"lat":37.98842022989272,"lng":23.72835972989272},"southwest":{"lat":37.98572057010728,"lng":23.72566007010728}}},"icon":"https://maps.gstatic.com/mapfiles/place_api/icons/v1/png_71/restaurant-71.png","icon_background_color":"#FF9E67","icon_mask_base_uri":"https://maps.gstatic.com/mapfiles/place_api/icons/v2/restaurant_pinlet","name":"مطعم الخال Alkahl restaurant","opening_hours":{"open_now":true},"photos":[{"height":1080,"html_attributions":["<a href=\"https://maps.google.com/maps/contrib/107462426928931078774\">bashar alyosef</a>"],"photo_reference":"AeJbb3dXGT3t0hcHu4zXxCZPYGgasEriSHos2ozcyQ_xKqqtI76gvvX8gWKy63Wr1WM38xVl3ltjuKK5U_YwnYNzRKQvVck3pmUOsknmdH-wQWwEJ-SUKVtcNLif0jLFymGxpEzmhfemLWcP1W0l_LKu2kJEkFeCO5NrcSUbzOIMTMhnLMJS","width":1920}],"place_id":"ChIJ7caLGwm9oRQRE_xn3pjVk4k","plus_code":{"compound_code":"XPPG+VR Athens","global_code":"8G95XPPG+VR"},"price_level":1,"rating":4,"reference":"ChIJ7caLGwm9oRQRE_xn3pjVk4k","types":["restaurant","food","point_of_interest","establishment"],"user_ratings_total":242},{"business_status":"OPERATIONAL","formatted_address":"Alkiviadou 121, Pireas 185 32","geometry":{"location":{"lat":37.9427372,"lng":23.6486549},"viewport":{"northeast":{"lat":37.94410112989272,"lng":23.64997197989272},"southwest":{"lat":37.94140147010728,"lng":23.64727232010728}}},"icon":"https://maps.gstatic.com/mapfiles/place_api/icons/v1/png_71/restaurant-71.png","icon_background_color":"#FF9E67","icon_mask_base_uri":"https://maps.gstatic.com/mapfiles/place_api/icons/v2/restaurant_pinlet","name":"Olympia","opening_hours":{"open_now":true},"photos":[{"height":2268,"html_attributions":["<a href=\"https://maps.google.com/maps/contrib/112174250549060116766\">W Tai</a>"],"photo_reference":"AeJbb3f038rVd2yfXKwEX-9bcNO-KtB2h5JiBk_x8H-PkCOHX94x9ZewXlrXxuPgjtVYuH3l-GK0oPinqKnHn7oGNmdoKH3i0O1Jf_7srxgiIabxJLQl4lFBIuPGyr3l5g2yYcVX575HKN4gYLdXHxbYbfzfcckOdYP8yPE5NOYZJdH3zhWL","width":4032}],"place_id":"ChIJQeV_IOm7oRQRRpiUGuWTcgo","plus_code":{"compound_code":"WJVX+3F Pireas","global_code":"8G95WJVX+3F"},"rating":4,"reference":"ChIJQeV_IOm7oRQRRpiUGuWTcgo","types":["restaurant","food","point_of_interest","establishment"],"user_ratings_total":13},{"business_status":"OPERATIONAL","formatted_address":"Akadimias 96, Athina 106 77","geometry":{"location":{"lat":37.985068,"lng":23.7316425},"viewport":{"northeast":{"lat":37.98639217989271,"lng":23.73294157989272},"southwest":{"lat":37.98369252010727,"lng":23.73024192010728}}},"icon":"https://maps.gstatic.com/mapfiles/place_api/icons/v1/png_71/restaurant-71.png","icon_background_color":"#FF9E67","icon_mask_base_uri":"https://maps.gstatic.com/mapfiles/place_api/icons/v2/restaurant_pinlet","name":"POLIS CUISINE&BAKEY","opening_hours":{"open_now":true},"photos":[{"height":960,"html_attributions":["<a href=\"https://maps.google.com/maps/contrib/110652705699043961763\">A Google User</a>"],"photo_reference":"AeJbb3dAYHdcxJIqc7AER9PGIl76WjtS5XPEAaH76nBKVKgXoaNrF0dFYB1MwA10b1HRNlbj6NKJuhzmK4AG29r0hyhYzbCvy9Sn0PLMU5MyhvAyfxoVSey_zz51HqjGVMI8i5IiCZJwB4ZvpTrFVQsqHs02wqwDaLCukVXTEHSgPS2rvY2U","width":720}],"place_id":"ChIJ04WYKhe9oRQRDMnxLBwFfYc","plus_code":{"compound_code":"XPPJ+2M Athens","global_code":"8G95XPPJ+2M"},"rating":3.7,"reference":"ChIJ04WYKhe9oRQRDMnxLBwFfYc","types":["restaurant","bakery","store","food","point_of_interest","establishment"],"user_ratings_total":100},{"business_status":"OPERATIONAL","formatted_address":"Papagou 127, Athina 116 33","geometry":{"location":{"lat":37.9768483,"lng":23.7744908},"viewport":{"northeast":{"lat":37.97814532989272,"lng":23.77581477989272},"southwest":{"lat":37.97544567010728,"lng":23.77311512010727}}},"icon":"https://maps.gstatic.com/mapfiles/place_api/icons/v1/png_71/restaurant-71.png","icon_background_color":"#FF9E67","icon_mask_base_uri":"https://maps.gstatic.com/mapfiles/place_api/icons/v2/restaurant_pinlet","name":"The Big Bad Wolf","opening_hours":{"open_now":true},"photos":[{"height":587,"html_attributions":["<a href=\"https://maps.google.com/maps/contrib/106849068212686831500\">The Big Bad Wolf</a>"],"photo_reference":"AeJbb3fkn3WOsfrXppsD0ITXFBOR0IwneKcFwSmeQHwpUOZmaqvqyHp1krV-AsoIySqwim1edgI_uLYsr5RjmmvXUO7Rr0R06yDJ8osKLvBlzvk_fk5GTLq529RDrrZ-gSzJpC4CwD48L020FczPR1C-nIBXQ2eDeb8BLO6CB0fgFHNUKyOz","width":880}],"place_id":"ChIJ16aYV129oRQRlr0P2ylRG5E","plus_code":{"compound_code":"XQGF+PQ Athens","global_code":"8G95XQGF+PQ"},"price_level":2,"rating":3,"reference":"ChIJ16aYV129oRQRlr0P2ylRG5E","types":["restaurant","food","point_of_interest","establishment"],"user_ratings_total":392}]