[{"business_status":"OPERATIONAL","formatted_address":"Corso S. Maurizio, 69 bis/G, 10124 Torino TO","geometry":{"location":{"lat":45.0669703,"lng":7.6976859},"viewport":{"northeast":{"lat":45.06834312989272,"lng":7.698991579892721},"southwest":{"lat":45.06564347010728,"lng":7.696291920107277}}},"icon":"https://maps.gstatic.com/mapfiles/place_api/icons/v1/png_71/restaurant-71.png","icon_background_color":"#FF9E67","icon_mask_base_uri":"https://maps.gstatic.com/mapfiles/place_api/icons/v2/restaurant_pinlet","name":"Piccolo Lord","opening_hours":{"open_now":false},"photos":[{"height":3648,"html_attributions":["<a href=\"https://maps.google.com/maps/contrib/105735803960750343231\">A Google User</a>"],"photo_reference":"AeJbb3erLTt-Gb-G0OYEqN3eE8_9kq21FjIOehhdbi5efEqDDZOf97BCasXMuRoass9gO0L2CE1vBRLa__uQQ7yXAzB-6YS5LDZ4b-XxVoSCGbsGJ3WgwtPRFCo-ny6CFqb4YkgzntLnBK8KP-36uH-BI115Gf9y400bxl9Yd5iVO-tfhNDU","width":5472}],"place_id":"ChIJ2_oj23xtiEcRMmvo2h-lKvg","plus_code":{"compound_code":"3M8X+Q3 Turin, Metropolitan City of Turin","global_code":"8FQ93M8X+Q3"},"price_level":3,"rating":4.7,"reference":"ChIJ2_oj23xtiEcRMmvo2h-lKvg","types":["restaurant","point_of_interest","food","establishment"],"user_ratings_total":409},{"business_status":"OPERATIONAL","formatted_address":"Via San Domenico, 3B, 10122 Torino TO","geometry":{"location":{"lat":45.07419429999999,"lng":7.681869099999999},"viewport":{"northeast":{"lat":45.07546702989272,"lng":7.683092179892721},"southwest":{"lat":45.07276737010728,"lng":7.680392520107277}}},"icon":"https://maps.gstatic.com/mapfiles/place_api/icons/v1/png_71/restaurant-71.png","icon_background_color":"#FF9E67","icon_mask_base_uri":"https://maps.gstatic.com/mapfiles/place_api/icons/v2/restaurant_pinlet","name":"La Casa Del Demone","opening_hours":{"open_now":false},"photos":[{"height":3456,"html_attributions":["<a href=\"https://maps.google.com/maps/contrib/102725232765598959499\">Fabrizio Cuofano</a>"],"photo_reference":"AeJbb3e_Aimj2LoV5enshVHLKaIPJxJ7vuYAlXt0Y5f-hHcHjzRwnsKi8p8g1PJqvDhGgTtU_w1kIc2__MAoV17lq2DidqSw5t-UEuQo0_t-Zoh5-KN_67ad_jcEgrGScLPQmPsfuSxV3WBkytERGvcgbsM7AECDRkMRSPqrsaqfaNzkAEfI","width":4608}],"place_id":"ChIJiT-PDHRtiEcRabIT0i5Olzg","plus_code":{"compound_code":"3MFJ+PJ Turin, Metropolitan City of Turin","global_code":"8FQ93MFJ+PJ"},"price_level":2,"rating":4.6,"reference":"ChIJiT-PDHRtiEcRabIT0i5Olzg","types":["restaurant","point_of_interest","food","establishment"],"user_ratings_total":2074},{"business_status":"OPERATIONAL","formatted_address":"Via Gian Francesco Bellezia, 8g, 10122 Torino TO","geometry":{"location":{"lat":45.0742374,"lng":7.6807996},"viewport":{"northeast":{"lat":45.07559247989272,"lng":7.682131129892722},"southwest":{"lat":45.07289282010728,"lng":7.679431470107279}}},"icon":"https://maps.gstatic.com/mapfiles/place_api/icons/v1/png_71/restaurant-71.png","icon_background_color":"#FF9E67","icon_mask_base_uri":"https://maps.gstatic.com/mapfiles/place_api/icons/v2/restaurant_pinlet","name":"Sibiriaki","opening_hours":{"open_now":false},"photos":[{"height":2268,"html_attributions":["<a href=\"https://maps.google.com/maps/contrib/108004276673757005098\">Roberto Rosso</a>"],"photo_reference":"AeJbb3c1a3OVXKQV0M6Bn15kzjKZNEFyMIxzJHPneNt2r-xo85f2EEU2pzCX9FzJ73sluHwcEoFlF_IG1RizeM52I-CSp_G0dPa4NcFFQ_r2UnriAP9hLrAYMtvzsWI8dlacDwWHiVlFX_yGGaZodsbT22NMOugVAhgpaLg7sNeiJqjcAZrz","width":4032}],"place_id":"ChIJEwTed3RtiEcRQSFCiqibMDY","plus_code":{"compound_code":"3MFJ+M8 Turin, Metropolitan City of Turin","global_code":"8FQ93MFJ+M8"},"price_level":2,"rating":4.5,"reference":"ChIJEwTed3RtiEcRQSFCiqibMDY","types":["restaurant","point_of_interest","food","establishment"],"user_ratings_total":691},{"business_status":"OPERATIONAL","formatted_address":"Via Catania, 25, 10153 Torino TO","geometry":{"location":{"lat":45.0762895,"lng":7.6970731},"viewport":{"northeast":{"lat":45.07760527989273,"lng":7.698350229892722},"southwest":{"lat":45.07490562010728,"lng":7.695650570107278}}},"icon":"https://maps.gstatic.com/mapfiles/place_api/icons/v1/png_71/bar-71.png","icon_background_color":"#FF9E67","icon_mask_base_uri":"https://maps.gstatic.com/mapfiles/place_api/icons/v2/bar_pinlet","name":"Ca' Maìs","opening_hours":{"open_now":false},"photos":[{"height":4000,"html_attributions":["<a href=\"https://maps.google.com/maps/contrib/101583571082473067051\">Alessandro Piatti</a>"],"photo_reference":"AeJbb3dutFc83CfEGTu4sFje5suav2Z0PY6dSSq2j1r5cBgBcQ4PrxCil4KgKT_HfnIClNJS7LKEeXqep1VPNq_bz6F4S_oOhrYaELb47vDd287z5nvcGgs2vTZGhwIrA33mpLfQeOavKtJS68c2375xrCFAxDTK8yfsbFFC9q3O9jTDK0oL","width":3000}],"place_id":"ChIJATqerWttiEcROGm_P9LT7NA","plus_code":{"compound_code":"3MGW+GR Turin, Metropolitan City of Turin","global_code":"8FQ93MGW+GR"},"price_level":2,"rating":4.5,"reference":"ChIJATqerWttiEcROGm_P9LT7NA","types":["bar","restaurant","point_of_interest","food","establishment"],"user_ratings_total":331},{"business_status":"OPERATIONAL","formatted_address":"Via S. Pio V, 8, 10125 Torino TO","geometry":{"location":{"lat":45.0607331,"lng":7.681345099999999},"viewport":{"northeast":{"lat":45.06214392989272,"lng":7.682739779892721},"southwest":{"lat":45.05944427010728,"lng":7.680040120107277}}},"icon":"https://maps.gstatic.com/mapfiles/place_api/icons/v1/png_71/restaurant-71.png","icon_background_color":"#FF9E67","icon_mask_base_uri":"https://maps.gstatic.com/mapfiles/place_api/icons/v2/restaurant_pinlet","name":"TUTTOFABRODO","opening_hours":{"open_now":true},"photos":[{"height":640,"html_attributions":["<a href=\"https://maps.google.com/maps/contrib/108745405033431488137\">Roberto Ludovico</a>"],"photo_reference":"AeJbb3fqgfGO5OU4mgDGDwWWrsR7HnBeyxlq1qTs96RiCMbshxFt9v9tIRsDhXcJ85AuDiGdvo8bwMbqR-TVVfDoMa2nS9lvlughv_Aa-y8T2m8kFyvri3JfEajO9qfybzLUHgRcvdl4fvfj1sJQUF18y3HUo9-dh4fDfHPwgULVQ5Iv6yjh","width":640}],"place_id":"ChIJs4GTD3ttiEcRqVQVh1XVr-c","plus_code":{"compound_code":"3M6J+7G Turin, Metropolitan City of Turin","global_code":"8FQ93M6J+7G"},"rating":4.5,"reference":"ChIJs4GTD3ttiEcRqVQVh1XVr-c","types":["restaurant","point_of_interest","food","establishment"],"user_ratings_total":270},{"business_status":"OPERATIONAL","formatted_address":"P.za Vittorio Veneto, 10, 10123 Torino TO","geometry":{"location":{"lat":45.06469509999999,"lng":7.6934309},"viewport":{"northeast":{"lat":45.06617472989272,"lng":7.694970629892722},"southwest":{"lat":45.06347507010728,"lng":7.692270970107278}}},"icon":"https://maps.gstatic.com/mapfiles/place_api/icons/v1/png_71/restaurant-71.png","icon_background_color":"#FF9E67","icon_mask_base_uri":"https://maps.gstatic.com/mapfiles/place_api/icons/v2/restaurant_pinlet","name":"Just","opening_hours":{"open_now":false},"photos":[{"height":4000,"html_attributions":["<a href=\"https://maps.google.com/maps/contrib/103065923204394909547\">A Google User</a>"],"photo_reference":"AeJbb3ezGSeJBPUwWP8NJJpMAgndMn_C5uWigxbvm-g9f9TvN7qj3dQK0uqWzj1aLqZ8h0hhYVV8MOMJK57qhG2Vwujod2Xxmcd1QmK2yw9enXwcjibOH7A7wU7tfahwoLlEPS_12sn6_E__gIQUqxBM7vDWBn016gvlFBKeoWgvepn82Bej","width":2250}],"place_id":"ChIJsXy7tWNtiEcRbk5IGt8GB50","plus_code":{"compound_code":"3M8V+2H Turin, Metropolitan City of Turin","global_code":"8FQ93M8V+2H"},"price_level":2,"rating":4.4,"reference":"ChIJsXy7tWNtiEcRbk5IGt8GB50","types":["bar","restaurant","point_of_interest","food","establishment"],"user_ratings_total":1213},{"business_status":"OPERATIONAL","formatted_address":"Via Sant'Ottavio, 37, 10124 Torino TO","geometry":{"location":{"lat":45.0700374,"lng":7.6958547},"viewport":{"northeast":{"lat":45.07141562989272,"lng":7.697276229892723},"southwest":{"lat":45.06871597010728,"lng":7.694576570107279}}},"icon":"https://maps.gstatic.com/mapfiles/place_api/icons/v1/png_71/bar-71.png","icon_background_color":"#FF9E67","icon_mask_base_uri":"https://maps.gstatic.com/mapfiles/place_api/icons/v2/bar_pinlet","name":"Klec","opening_hours":{"open_now":false},"photos":[{"height":2268,"html_attributions":["<a href=\"https://maps.google.com/maps/contrib/106726715871369175595\">Cretu Dumitru-Gabriel</a>"],"photo_reference":"AeJbb3cT0BEL1G93eoAFQ3Q_28170oWb7F9oGxlcbLfdMkKGhP9YDD_TAQhsQy2ovvxYN5YjLmRneI_iGKwqT3YZIYcw5xYFKSKff5_TGuPC8PGZo8aSYBOPQxvFzGti3mFNMEGHuMwhB3aaUoIFn5m1oAr3G0m_L7umtF8VsNawDuNLZbX_","width":4032}],"place_id":"ChIJffOKdqxtiEcRwGxghlmPqBw","plus_code":{"compound_code":"3MCW+28 Turin, Metropolitan City of Turin","global_code":"8FQ93MCW+28"},"price_level":2,"rating":4.4,"reference":"ChIJffOKdqxtiEcRwGxghlmPqBw","types":["electronics_store","bar","home_goods_store","store","restaurant","point_of_interest","food","establishment"],"user_ratings_total":628},{"business_status":"OPERATIONAL","formatted_address":"Via Filadelfia, 41, 10134 Torino TO","geometry":{"location":{"lat":45.0378766,"lng":7.6565262},"viewport":{"northeast":{"lat":45.03927737989272,"lng":7.657907029892722},"southwest":{"lat":45.03657772010728,"lng":7.655207370107278}}},"icon":"https://maps.gstatic.com/mapfiles/place_api/icons/v1/png_71/bar-71.png","icon_background_color":"#FF9E67","icon_mask_base_uri":"https://maps.gstatic.com/mapfiles/place_api/icons/v2/bar_pinlet","name":"Piatto Sprintvia","opening_hours":{"open_now":true},"photos":[{"height":540,"html_attributions":["<a href=\"https://maps.google.com/maps/contrib/114664375245375199121\">A Google User</a>"],"photo_reference":"AeJbb3eAFl2eptCwOJe2Uvr0Va_sCYs444PdoXY9Fle38KC8MBV4dryRzHZGH9w4kMg1rab96pJXfbR73Y0mkqj1bWv-zE-eBAnFZXZ2dmbD0WFiQZgn9mfXy8FdYwopwPS5KLGfXZtUmfHOx_QlNI01ygyg9RTEmX3OOCl30TFrIGww4s0g","width":960}],"place_id":"ChIJz7C0Ac4SiEcRSsWuzv65FdQ","plus_code":{"compound_code":"2MQ4+4J Turin, Metropolitan City of Turin","global_code":"8FQ92MQ4+4J"},"price_level":1,"rating":4.4,"reference":"ChIJz7C0Ac4SiEcRSsWuzv65FdQ","types":["bar","restaurant","point_of_interest","food","establishment"],"user_ratings_total":231},{"business_status":"OPERATIONAL","formatted_address":"Via Po, 21, 10124 Torino TO","geometry":{"location":{"lat":45.0687866,"lng":7.689460299999999},"viewport":{"northeast":{"lat":45.07012072989272,"lng":7.690741079892721},"southwest":{"lat":45.06742107010728,"lng":7.688041420107277}}},"icon":"https://maps.gstatic.com/mapfiles/place_api/icons/v1/png_71/bar-71.png","icon_background_color":"#FF9E67","icon_mask_base_uri":"https://maps.gstatic.com/mapfiles/place_api/icons/v2/bar_pinlet","name":"Blah blah","opening_hours":{"open_now":true},"photos":[{"height":3000,"html_attributions":["<a href=\"https://maps.google.com/maps/contrib/104164992173504790688\">Ivano Degiovanni</a>"],"photo_reference":"AeJbb3eNEsG9ZVORisQh28ja-qc-YZo78AoMZoW9sPlLwr4xBBgI_daVoeP_-jzjWMkUST_cHXIxd8CpCYSTP_47sFq1QDrIE70n7mP9SBecjOob51fBORzwleMp4AlQ3aYMYvfAspkCupp_ewdRksDUXHAo82ViL-annHU-ZzsQEQecLzDP","width":4000}],"place_id":"ChIJwy8kK2VtiEcRMow5EdybGHg","plus_code":{"compound_code":"3M9Q+GQ Turin, Metropolitan City of Turin","global_code":"8FQ93M9Q+GQ"},"price_level":2,"rating":4.3,"reference":"ChIJwy8kK2VtiEcRMow5EdybGHg","types":["bar","restaurant","food","point_of_interest","establishment"],"user_ratings_total":2076},{"business_status":"OPERATIONAL","formatted_address":"Corso Regina Margherita, 80/e, 10153 Torino TO","geometry":{"location":{"lat":45.0735137,"lng":7.694212899999999},"viewport":{"northeast":{"lat":45.07482607989271,"lng":7.695537829892722},"southwest":{"lat":45.07212642010727,"lng":7.692838170107279}}},"icon":"https://maps.gstatic.com/mapfiles/place_api/icons/v1/png_71/restaurant-71.png","icon_background_color":"#FF9E67","icon_mask_base_uri":"https://maps.gstatic.com/mapfiles/place_api/icons/v2/restaurant_pinlet","name":"Caffè Rossini","opening_hours":{"open_now":false},"photos":[{"height":1152,"html_attributions":["<a href=\"https://maps.google.com/maps/contrib/105367364467675216048\">Marco Lodola</a>"],"photo_reference":"AeJbb3fqyAZ2OLJhqmiWvgcV4BhFgtQx_ZmS03c8cvL7_X8hx5SiNg9qfE326oO7zHZmh_VAWeshiZj-rAIJRtwYkKgIe5veNloBNLgPxzjegUjnVFratMJiYPBfFOA9ZfVKIivbnkzyPZeGKVt1VyDKBuH4H4uwbZ8VGJXYSqAdM-ex3gBV","width":2048}],"place_id":"ChIJjyPUqH5tiEcRKGEihntX-H4","plus_code":{"compound_code":"3MFV+CM Turin, Metropolitan City of Turin","global_code":"8FQ93MFV+CM"},"price_level":1,"rating":4.3,"reference":"ChIJjyPUqH5tiEcRKGEihntX-H4","types":["restaurant","cafe","bar","point_of_interest","food","establishment"],"user_ratings_total":897},{"business_status":"OPERATIONAL","formatted_address":"Via Cernaia, 22/e, 10122 Torino TO","geometry":{"location":{"lat":45.0718206,"lng":7.6737173},"viewport":{"northeast":{"lat":45.07321037989273,"lng":7.675028379892723},"southwest":{"lat":45.07051072010728,"lng":7.672328720107279}}},"icon":"https://maps.gstatic.com/mapfiles/place_api/icons/v1/png_71/restaurant-71.png","icon_background_color":"#FF9E67","icon_mask_base_uri":"https://maps.gstatic.com/mapfiles/place_api/icons/v2/restaurant_pinlet","name":"Querio","opening_hours":{"open_now":true},"photos":[{"height":4912,"html_attributions":["<a href=\"https://maps.google.com/maps/contrib/106582435870408653051\">Querio</a>"],"photo_reference":"AeJbb3c5jOQFljy6OpBvvLXwdCZBpQVWOL3aczQduTpKNnWf976aYrBs8YnQDyPgWjtiAzf3hAn_5tAcUo2hwNixMSFTqk9hnVh5r9u7x3d9SKPPbpTznZlAcNgyDnlK6_3X0DD3VqDc9GGJrMFudLFr0t-hor5KU3rAOsJW6viAYdo0aKsm","width":7360}],"place_id":"ChIJEwipBw1tiEcRYW0r0mFfzJ8","plus_code":{"compound_code":"3MCF+QG Turin, Metropolitan City of Turin","global_code":"8FQ93MCF+QG"},"price_level":2,"rating":4.3,"reference":"ChIJEwipBw1tiEcRYW0r0mFfzJ8","types":["cafe","bakery","bar","store","restaurant","point_of_interest","food","establishment"],"user_ratings_total":516},{"business_status":"OPERATIONAL","formatted_address":"Via San Domenico, 12/c bis, 10122 Torino TO","geometry":{"location":{"lat":45.0748578,"lng":7.6800817},"viewport":{"northeast":{"lat":45.07620377989273,"lng":7.681432229892724},"southwest":{"lat":45.07350412010728,"lng":7.67873257010728}}},"icon":"https://maps.gstatic.com/mapfiles/place_api/icons/v1/png_71/restaurant-71.png","icon_background_color":"#FF9E67","icon_mask_base_uri":"https://maps.gstatic.com/mapfiles/place_api/icons/v2/restaurant_pinlet","name":"Judafire Music Café","opening_hours":{"open_now":false},"photos":[{"height":1280,"html_attributions":["<a href=\"https://maps.google.com/maps/contrib/113683554990799532484\">Judafire Snc Di Rotundo</a>"],"photo_reference":"AeJbb3eMf76uwmgTRTK_pbR6i5nKU8UPgqGLaOgBW5ru2S0Beh1mAV8AmYHVRObYo7D0MG3Pjk7aAa9tNDr4TPfGXwBLVMjjEJQst9nv8mbkwmY6H1spCcuMiYfIt6y7LtP3uuLTf8gtaP6-x8toN9gbMkw3oyc4VaDQi58yYQ-bWSXNDhFT","width":1920}],"place_id":"ChIJdxghiHRtiEcR9EdyWlMkc40","plus_code":{"compound_code":"3MFJ+W3 Turin, Metropolitan City of Turin","global_code":"8FQ93MFJ+W3"},"price_level":2,"rating":4.3,"reference":"ChIJdxghiHRtiEcR9EdyWlMkc40","types":["restaurant","cafe","store","point_of_interest","food","establishment"],"user_ratings_total":444},{"business_status":"OPERATIONAL","formatted_address":"Via Sant'Agostino, 30/a, 10122 Torino TO","geometry":{"location":{"lat":45.07598710000001,"lng":7.6809265},"viewport":{"northeast":{"lat":45.07731797989273,"lng":7.68219767989272},"southwest":{"lat":45.07461832010728,"lng":7.679498020107276}}},"icon":"https://maps.gstatic.com/mapfiles/place_api/icons/v1/png_71/restaurant-71.png","icon_background_color":"#FF9E67","icon_mask_base_uri":"https://maps.gstatic.com/mapfiles/place_api/icons/v2/restaurant_pinlet","name":"Arsenico Bistrot Pizza e Miscelati","opening_hours":{"open_now":false},"photos":[{"height":2832,"html_attributions":["<a href=\"https://maps.google.com/maps/contrib/101812127615145991343\">Basso 30 Srl</a>"],"photo_reference":"AeJbb3d1eDeyswI-P6bqv1M6gVVwwyDdlcd2RAYrrbk54NUDb2riRtRtezyZnfuYfAwtNP3KYemkovq6XGDCsswdjGk9mrTXNkNQelM5JDHCSmSHetV562eQ-Nuo8rDypImzFrB1aEMsgilOezjAMazRM006EtENKVtwV7cJZUBeLk-BPJAV","width":4256}],"place_id":"ChIJudU873RtiEcRx4s99seySQ0","plus_code":{"compound_code":"3MGJ+99 Turin, Metropolitan City of Turin","global_code":"8FQ93MGJ+99"},"price_level":2,"rating":4.3,"reference":"ChIJudU873RtiEcRx4s99seySQ0","types":["bar","restaurant","point_of_interest","food","establishment"],"user_ratings_total":429},{"business_status":"OPERATIONAL","formatted_address":"Via Michele Buniva, 9, 10124 Torino TO","geometry":{"location":{"lat":45.0692113,"lng":7.6975185},"viewport":{"northeast":{"lat":45.07054942989272,"lng":7.698886029892721},"southwest":{"lat":45.06784977010728,"lng":7.696186370107277}}},"icon":"https://maps.gstatic.com/mapfiles/place_api/icons/v1/png_71/bar-71.png","icon_background_color":"#FF9E67","icon_mask_base_uri":"https://maps.gstatic.com/mapfiles/place_api/icons/v2/bar_pinlet","name":"Margò","opening_hours":{"open_now":false},"photos":[{"height":4230,"html_attributions":["<a href=\"https://maps.google.com/maps/contrib/111321681864408726363\">A Google User</a>"],"photo_reference":"AeJbb3epclbNKEjEh6LjRkl9A1jnWyJGsZ13deiWD4Bt2RKLlSa0fIFLtSKDudVuVPRYLcYftL_GTjZsci3wmsbZIrWOg3zR05gIc4lBxEvWgQx0NfV7Cs3Bw9JGACqgGp671ANUlA5lxtXyTCH-uFAoBn9lDittOVwb0BC3VogHv77DDHTz","width":6345}],"place_id":"ChIJ4UCnXH1tiEcRAEk4d1v-7Ec","plus_code":{"compound_code":"3M9X+M2 Turin, Metropolitan City of Turin","global_code":"8FQ93M9X+M2"},"price_level":1,"rating":4.2,"reference":"ChIJ4UCnXH1tiEcRAEk4d1v-7Ec","types":["night_club","cafe","bar","store","restaurant","point_of_interest","food","establishment"],"user_ratings_total":809},{"business_status":"OPERATIONAL","formatted_address":"Via Vittorio Andreis, 18/16, 10152 Torino TO","geometry":{"location":{"lat":45.0807523,"lng":7.6832293},"viewport":{"northeast":{"lat":45.08208482989271,"lng":7.684374079892722},"southwest":{"lat":45.07938517010727,"lng":7.681674420107278}}},"icon":"https://maps.gstatic.com/mapfiles/place_api/icons/v1/png_71/bar-71.png","icon_background_color":"#FF9E67","icon_mask_base_uri":"https://maps.gstatic.com/mapfiles/place_api/icons/v2/bar_pinlet","name":"Il Maglio Rock House Restaurant","opening_hours":{"open_now":false},"photos":[{"height":2720,"html_attributions":["<a href=\"https://maps.google.com/maps/contrib/100294900492437183788\">sergio giovanni cerutti</a>"],"photo_reference":"AeJbb3cD6ZtbREBSjp10foPaC6b9yrP-jMZbc-WX1qDrxZfaiAURu_tPu20XAvQnzmCtCNb9h1FKpnQl-TzCpxAw1uX-m4yhLJb5h_5A8X2turdnJh_jrW-gITSdLmVOyKCfY7FVdscdhi_CNQ_qgrG3EBASXA5ZuO6NyOKZ0pnkor64tPQE","width":4080}],"place_id":"ChIJI2WSYJ5tiEcRBdfLviy8zQs","plus_code":{"compound_code":"3MJM+77 Turin, Metropolitan City of Turin","global_code":"8FQ93MJM+77"},"price_level":2,"rating":4.1,"reference":"ChIJI2WSYJ5tiEcRBdfLviy8zQs","types":["bar","restaurant","point_of_interest","food","establishment"],"user_ratings_total":998},{"business_status":"OPERATIONAL","formatted_address":"Piazza Carignano, 8, 10123 Torino TO","geometry":{"location":{"lat":45.0689447,"lng":7.684488300000001},"viewport":{"northeast":{"lat":45.07034407989272,"lng":7.685898479892722},"southwest":{"lat":45.06764442010728,"lng":7.683198820107278}}},"icon":"https://maps.gstatic.com/mapfiles/place_api/icons/v1/png_71/restaurant-71.png","icon_background_color":"#FF9E67","icon_mask_base_uri":"https://maps.gstatic.com/mapfiles/place_api/icons/v2/restaurant_pinlet","name":"Gelateria Pepino","opening_hours":{"open_now":true},"photos":[{"height":2976,"html_attributions":["<a href=\"https://maps.google.com/maps/contrib/100219627827470016437\">Antonio Lm</a>"],"photo_reference":"AeJbb3eFg3aAuGloCtQGgbH_9EUy-fQH1PF-x5WG_OzuhBzMzqSsJCb0LWW7dfzFqmyFIJO_EBvod9_9rKb6H1tn-f9QcifZA5WhABLk8GfWet0RUmj4e8PZwxqCmjwImqV009vBy5ZP5mZ9BidRoaEcTbVEfJ2nGHj_HJUlNEH9woqeDh_Z","width":3968}],"place_id":"ChIJ_xJe1m9tiEcRAqx1xk7Q7mc","plus_code":{"compound_code":"3M9M+JR Turin, Metropolitan City of Turin","global_code":"8FQ93M9M+JR"},"price_level":2,"rating":4.1,"reference":"ChIJ_xJe1m9tiEcRAqx1xk7Q7mc","types":["store","restaurant","food","point_of_interest","establishment"],"user_ratings_total":809},{"business_status":"OPERATIONAL","formatted_address":"Via Lanzo, 1, 10071 Borgaro Torinese TO","geometry":{"location":{"lat":45.1307994,"lng":7.652482500000001},"viewport":{"northeast":{"lat":45.13214922989273,"lng":7.653832329892724},"southwest":{"lat":45.12944957010729,"lng":7.651132670107279}}},"icon":"https://maps.gstatic.com/mapfiles/place_api/icons/v1/png_71/restaurant-71.png","icon_background_color":"#FF9E67","icon_mask_base_uri":"https://maps.gstatic.com/mapfiles/place_api/icons/v2/restaurant_pinlet","name":"Chico Loco","opening_hours":{"open_now":true},"photos":[{"height":600,"html_attributions":["<a href=\"https://maps.google.com/maps/contrib/101674196780714050970\">Chico Loco</a>"],"photo_reference":"AeJbb3clX6EFQv75j5P9E56V2r8JJkps1_6jnWW0cEJC-eEVB7gSkAEwMSFuYf3d-ArBHqgg4yji2scSspqCTNzDpD7BTDSSWV0t25CHHhe8Hifx4yhw_Jcwq_BumHcHiSMH2YdiMZl5CKndKh4iladEqaVgXnRbTCKgfPJGkammNoSRBUqn","width":800}],"place_id":"ChIJJ6uTO5duiEcR4NFax_lcL28","plus_code":{"compound_code":"4MJ2+8X Borgaro Torinese, Metropolitan City of Turin","global_code":"8FQ94MJ2+8X"},"price_level":1,"rating":4.1,"reference":"ChIJJ6uTO5duiEcR4NFax_lcL28","types":["restaurant","point_of_interest","food","establishment"],"user_ratings_total":279},{"business_status":"OPERATIONAL","formatted_address":"Via Raimondo Montecuccoli, 1, 10143 Torino TO","geometry":{"location":{"lat":45.06950980000001,"lng":7.672823999999999},"viewport":{"northeast":{"lat":45.07084417989272,"lng":7.674163429892721},"southwest":{"lat":45.06814452010727,"lng":7.671463770107277}}},"icon":"https://maps.gstatic.com/mapfiles/place_api/icons/v1/png_71/bar-71.png","icon_background_color":"#FF9E67","icon_mask_base_uri":"https://maps.gstatic.com/mapfiles/place_api/icons/v2/bar_pinlet","name":"Barbillar","opening_hours":{"open_now":false},"photos":[{"height":1960,"html_attributions":["<a href=\"https://maps.google.com/maps/contrib/100466886156552305196\">A Google User</a>"],"photo_reference":"AeJbb3c7buHxCxWfAOhyFiQ09i9W8iXuzdHinVXjXwQSIsawscoyc4DOx2uLMaH5r16pklCsyqqmWEIiDaciRs98UuU_ga4YAXje_pFQ3LhPjaqXurRub4-d6_NG4XqkiFpp23_mNDjd_33DgPKaiZsfb4DXw_x36tC-aAWRxD6VJXJ6hdqF","width":4032}],"place_id":"ChIJozaIexJtiEcRW9Vqy15guCM","plus_code":{"compound_code":"3M9F+Q4 Turin, Metropolitan City of Turin","global_code":"8FQ93M9F+Q4"},"price_level":2,"rating":4,"reference":"ChIJozaIexJtiEcRW9Vqy15guCM","types":["bar","restaurant","food","point_of_interest","establishment"],"user_ratings_total":987},{"business_status":"OPERATIONAL","formatted_address":"Via Giuseppe Mazzini, 19, 10123 Torino TO","geometry":{"location":{"lat":45.0622959,"lng":7.685970699999999},"viewport":{"northeast":{"lat":45.06365107989272,"lng":7.687209779892721},"southwest":{"lat":45.06095142010728,"lng":7.684510120107277}}},"icon":"https://maps.gstatic.com/mapfiles/place_api/icons/v1/png_71/restaurant-71.png","icon_background_color":"#FF9E67","icon_mask_base_uri":"https://maps.gstatic.com/mapfiles/place_api/icons/v2/restaurant_pinlet","name":"La Spaccanapoli","opening_hours":{"open_now":false},"photos":[{"height":2103,"html_attributions":["<a href=\"https://maps.google.com/maps/contrib/112472298856392860059\">A Google User</a>"],"photo_reference":"AeJbb3fjqg51iWg7ZXCGke9nethJLHZIXCP9BL4-q8IcsPWZHYtIYz0NAQa8FLB9YYzlez4t0ssArhCiCC6HvD1zPpMmTrJ0g46FAecu6kwMOl0QVUZEFL4iz1CFcpNLkqeLc1L1F6MpTITnP63olnE0H_XPtcebZuON7Z75dLpcPQHhpsYm","width":2592}],"place_id":"ChIJSZgnMmZtiEcR8RIBOURbg_k","plus_code":{"compound_code":"3M6P+W9 Turin, Metropolitan City of Turin","global_code":"8FQ93M6P+W9"},"price_level":2,"rating":4,"reference":"ChIJSZgnMmZtiEcR8RIBOURbg_k","types":["restaurant","point_of_interest","food","establishment"],"user_ratings_total":577},{"business_status":"OPERATIONAL","formatted_address":"Corso Moncalieri, 145, 10100 Torino TO","geometry":{"location":{"lat":45.0466139,"lng":7.6870297},"viewport":{"northeast":{"lat":45.04792262989272,"lng":7.688358179892722},"southwest":{"lat":45.04522297010727,"lng":7.685658520107278}}},"icon":"https://maps.gstatic.com/mapfiles/place_api/icons/v1/png_71/generic_business-71.png","icon_background_color":"#13B5C7","icon_mask_base_uri":"https://maps.gstatic.com/mapfiles/place_api/icons/v2/generic_pinlet","name":"Bamboo Club (ex Banus)","photos":[{"height":4032,"html_attributions":["<a href=\"https://maps.google.com/maps/contrib/113450035997775608538\">A Google User</a>"],"photo_reference":"AeJbb3fp_VvQv68dDRhntenvHyTc0KEgm9eSHGJBxKYBhNOVPr_v56GIMYOTMVX2-gIYmdyBuASRsPhdVVooO2ff2GwgcgCpPmRxnPodoE74LGKxaAnAg_BdUAmG5oEnM2wOpo6a7TS13jinVoqLsUTXglaaop9LSZpOZl5Jn1zXeGebjK0g","width":3024}],"place_id":"ChIJJax-tlZtiEcR-JAh1f6EAw8","plus_code":{"compound_code":"2MWP+JR Turin, Metropolitan City of Turin","global_code":"8FQ92MWP+JR"},"rating":3.5,"reference":"ChIJJax-tlZtiEcR-JAh1f6EAw8","types":["restaurant","food","point_of_interest","establishment"],"user_ratings_total":931},{"business_status":"OPERATIONAL","formatted_address":"Presso Istituto Sociale, Corso Siracusa, 10, 10136 Torino TO","geometry":{"location":{"lat":45.0543414,"lng":7.634331599999999},"viewport":{"northeast":{"lat":45.05568932989272,"lng":7.635733329892721},"southwest":{"lat":45.05298967010728,"lng":7.633033670107277}}},"icon":"https://maps.gstatic.com/mapfiles/place_api/icons/v1/png_71/school-71.png","icon_background_color":"#7B9EB0","icon_mask_base_uri":"https://maps.gstatic.com/mapfiles/place_api/icons/v2/school_pinlet","name":"Scuola Russa Turgenev - Русская школа Тургенева в Турине","opening_hours":{"open_now":false},"photos":[{"height":900,"html_attributions":["<a href=\"https://maps.google.com/maps/contrib/117746273133320202227\">Scuola Russa Ivan Turgenev</a>"],"photo_reference":"AeJbb3eD-d7E4hU-B2O59zbE6dXgvgaELcQePe1ypT4mejGS2bq4g6ZzddQL855ACdTQhr88zn4h0-KfZqbZQZRSmgX-QZ0qTzWG14H-kX19tse5dInkiQACnQVnYzmw4iWH02qMxesQ7C6qafbsa92Bu3QGTA4GQDMfyK-XVvzTkYeDVK0o","width":1400}],"place_id":"ChIJwzuJk8VsiEcRpta2KXzbUao","plus_code":{"compound_code":"3J3M+PP Turin, Metropolitan City of Turin","global_code":"8FQ93J3M+PP"},"rating":0,"reference":"ChIJwzuJk8VsiEcRpta2KXzbUao","types":["restaurant","point_of_interest","food","establishment"],"user_ratings_total":0}]