[{"business_status":"OPERATIONAL","formatted_address":"Kaasutehtaankatu 1 Building 8, 00540 Helsinki","geometry":{"location":{"lat":60.18660500000001,"lng":24.9733465},"viewport":{"northeast":{"lat":60.18799242989272,"lng":24.97459487989272},"southwest":{"lat":60.18529277010728,"lng":24.97189522010728}}},"icon":"https://maps.gstatic.com/mapfiles/place_api/icons/v1/png_71/restaurant-71.png","icon_background_color":"#FF9E67","icon_mask_base_uri":"https://maps.gstatic.com/mapfiles/place_api/icons/v2/restaurant_pinlet","name":"Restaurant Peloton Cycling Eatery","opening_hours":{"open_now":true},"photos":[{"height":4032,"html_attributions":["<a href=\"https://maps.google.com/maps/contrib/117047776131611843084\">ripslp</a>"],"photo_reference":"AeJbb3fP2d3OWj-li3G0rNyPU0bXtfaV7G23p5ebxNqeBYpYQDW84UUlu8X28A6zXMWtiwNTjjMyZ0qHMLY4Z14AUwmRCWNQH3zjRkDT-a9biQA3vTNe5u0T2tjhw8uB2F4rLbyAwxfd16tV27Slh9mqbqvqjmJg_bWWYvpcGC5sxiWRznH5","width":3024}],"place_id":"ChIJX8AC238JkkYRN9hFYg3dxTg","plus_code":{"compound_code":"5XPF+J8 Helsinki","global_code":"9GG65XPF+J8"},"rating":4.9,"reference":"ChIJX8AC238JkkYRN9hFYg3dxTg","types":["restaurant","bicycle_store","food","point_of_interest","store","establishment"],"user_ratings_total":40},{"business_status":"OPERATIONAL","formatted_address":"Sampotori, 02100 Espoo","geometry":{"location":{"lat":60.1767134,"lng":24.8028002},"viewport":{"northeast":{"lat":60.17824417989272,"lng":24.80422487989272},"southwest":{"lat":60.17554452010727,"lng":24.80152522010728}}},"icon":"https://maps.gstatic.com/mapfiles/place_api/icons/v1/png_71/restaurant-71.png","icon_background_color":"#FF9E67","icon_mask_base_uri":"https://maps.gstatic.com/mapfiles/place_api/icons/v2/restaurant_pinlet","name":"Tapaspoint","opening_hours":{"open_now":false},"photos":[{"height":2018,"html_attributions":["<a href=\"https://maps.google.com/maps/contrib/106474994638977314527\">Keiju Vikkula</a>"],"photo_reference":"AeJbb3cUP7VLZk_PjJ7oRzKSS88CkWK8suQIL_xMi2G0GdKu7PCF68QsYZMgKYMfNRRZ3jjdMUKfzCx8sV2lxr6PGZO6pmdNOL8KFoR2qHipfpZNSoa8atTIa4C_km7Y3elIVIACgbgpCE6Bq32AfPBzEF_55IkX5lxhyI8k3DsbTkmcHX_h","width":3631}],"place_id":"ChIJg8LmB6D1jUYRe6Sg_6-incE","plus_code":{"compound_code":"5RG3+M4 Espoo","global_code":"9GG65RG3+M4"},"rating":4.9,"reference":"ChIJg8LmB6D1jUYRe6Sg_6-incE","types":["restaurant","food","point_of_interest","establishment"],"user_ratings_total":31},{"business_status":"OPERATIONAL","formatted_address":"Tehtaankatu 27-29 (sisäpiha), 00150 Helsinki","geometry":{"location":{"lat":60.15784360000001,"lng":24.9345428},"viewport":{"northeast":{"lat":60.15914332989272,"lng":24.93590197989272},"southwest":{"lat":60.15644367010728,"lng":24.93320232010728}}},"icon":"https://maps.gstatic.com/mapfiles/place_api/icons/v1/png_71/restaurant-71.png","icon_background_color":"#FF9E67","icon_mask_base_uri":"https://maps.gstatic.com/mapfiles/place_api/icons/v2/restaurant_pinlet","name":"Restaurant Baskeri & Basso","opening_hours":{"open_now":true},"photos":[{"height":4000,"html_attributions":["<a href=\"https://maps.google.com/maps/contrib/104353236508171075930\">Thomas Smet</a>"],"photo_reference":"AeJbb3fUp84JRg_Iljj4EvFJoB6M_FeF8s6yofaeaewFcdf2E9b8eult7996BA1lSIvuyUjThAg_I1JX7FTsBtCMMekeWWmQwr0CfA6z7T5R0qOh8RnD3xBMcSWOvGWCEM2odh1QMQJs-2FxqUpoLdoUWbxgzgN02YBWWOqgyTirMxVNQH9b","width":1824}],"place_id":"ChIJd8mTo7YLkkYRXL0C9Si-nZk","plus_code":{"compound_code":"5W5M+4R Helsinki","global_code":"9GG65W5M+4R"},"price_level":2,"rating":4.8,"reference":"ChIJd8mTo7YLkkYRXL0C9Si-nZk","types":["restaurant","food","point_of_interest","establishment"],"user_ratings_total":589},{"business_status":"OPERATIONAL","formatted_address":"Pohjoisesplanadi 5, 00170 Helsinki","geometry":{"location":{"lat":60.16807619999999,"lng":24.9548618},"viewport":{"northeast":{"lat":60.16938347989272,"lng":24.95622017989272},"southwest":{"lat":60.16668382010727,"lng":24.95352052010728}}},"icon":"https://maps.gstatic.com/mapfiles/place_api/icons/v1/png_71/restaurant-71.png","icon_background_color":"#FF9E67","icon_mask_base_uri":"https://maps.gstatic.com/mapfiles/place_api/icons/v2/restaurant_pinlet","name":"Restaurant Olo","opening_hours":{"open_now":true},"photos":[{"height":3036,"html_attributions":["<a href=\"https://maps.google.com/maps/contrib/105630238297370169840\">Mark Bensley</a>"],"photo_reference":"AeJbb3dbDWPODHQ-DsqgIQinPbKRyBBUZ5z-n1FZS4ItoLDjnyyeFmzfiBAys9ECdcdaN1hhbQUwUaz1pqX-_nhvX0lSww8rbCT3J2BSc9JYtdqcvHeb78e9zuOsZ0dHh7kz9ZhJvMJ4IVjIZZdbFePjjlU1-Y3oeAoi18bS21kYQb5DgMvR","width":4048}],"place_id":"ChIJcbPkLMkLkkYRFeWoki1-0vk","plus_code":{"compound_code":"5X93+6W Helsinki","global_code":"9GG65X93+6W"},"price_level":4,"rating":4.8,"reference":"ChIJcbPkLMkLkkYRFeWoki1-0vk","types":["restaurant","food","point_of_interest","establishment"],"user_ratings_total":466},{"business_status":"OPERATIONAL","formatted_address":"Runeberginkatu 63, 00260 Helsinki","geometry":{"location":{"lat":60.1807252,"lng":24.9252809},"viewport":{"northeast":{"lat":60.18208262989272,"lng":24.92654357989272},"southwest":{"lat":60.17938297010728,"lng":24.92384392010728}}},"icon":"https://maps.gstatic.com/mapfiles/place_api/icons/v1/png_71/restaurant-71.png","icon_background_color":"#FF9E67","icon_mask_base_uri":"https://maps.gstatic.com/mapfiles/place_api/icons/v2/restaurant_pinlet","name":"Sushi Wagocoro","opening_hours":{"open_now":false},"photos":[{"height":2448,"html_attributions":["<a href=\"https://maps.google.com/maps/contrib/106883137444520636622\">Maria Averina</a>"],"photo_reference":"AeJbb3c_a9BshIkO15ScgAjZe6p4bFdGZhB-8-cGQkh62ETraO4WlqZCQ5870CKVxcrJp6EHpjR_3IlrDh7JwX5C0fG-aZRqzTnwqcTiiG5UxoM6mdqwyXGzqf-jDIIr3uMXYPMXtpbcC04-cnTZsPmE0mYPrDXlTQ1YO3jLSGaQK40KeF6M","width":3264}],"place_id":"ChIJ5z5fcS8KkkYRWxa53GVyEM8","plus_code":{"compound_code":"5WJG+74 Helsinki","global_code":"9GG65WJG+74"},"price_level":2,"rating":4.8,"reference":"ChIJ5z5fcS8KkkYRWxa53GVyEM8","types":["meal_takeaway","restaurant","food","point_of_interest","establishment"],"user_ratings_total":317},{"business_status":"OPERATIONAL","formatted_address":"Fabianinkatu 4, 00130 Helsinki","geometry":{"location":{"lat":60.16586389999999,"lng":24.9494582},"viewport":{"northeast":{"lat":60.16721662989271,"lng":24.95091537989272},"southwest":{"lat":60.16451697010727,"lng":24.94821572010728}}},"icon":"https://maps.gstatic.com/mapfiles/place_api/icons/v1/png_71/restaurant-71.png","icon_background_color":"#FF9E67","icon_mask_base_uri":"https://maps.gstatic.com/mapfiles/place_api/icons/v2/restaurant_pinlet","name":"Zucchini Vegetarian Cafe","opening_hours":{"open_now":false},"photos":[{"height":4032,"html_attributions":["<a href=\"https://maps.google.com/maps/contrib/109363031348618949728\">Rieko Tomita</a>"],"photo_reference":"AeJbb3dlybWnkwzYTbT1s3TkFmJu9_P1wS7kjEIDRTcuxMVwllLwqvFYE6_lL2NYtrdZvMrkE_P1v9mdvkWJ5gKy9uU1Ytlzk88A5tqF1q5bgzs8RCTh34AL85eZswqra3yjrQh-vbm7ix5Cq0GKVeYnPkjwnAVAlXpTH7XoNIWYFMpuP_w","width":3024}],"place_id":"ChIJnd0BLM8LkkYRdCpzxxi1MXg","plus_code":{"compound_code":"5W8X+8Q Helsinki","global_code":"9GG65W8X+8Q"},"price_level":2,"rating":4.8,"reference":"ChIJnd0BLM8LkkYRdCpzxxi1MXg","types":["restaurant","food","point_of_interest","establishment"],"user_ratings_total":188},{"business_status":"OPERATIONAL","formatted_address":"Vaasankatu 8, 00500 Helsinki","geometry":{"location":{"lat":60.1882753,"lng":24.9574673},"viewport":{"northeast":{"lat":60.18967132989273,"lng":24.95891002989272},"southwest":{"lat":60.18697167010728,"lng":24.95621037010728}}},"icon":"https://maps.gstatic.com/mapfiles/place_api/icons/v1/png_71/bar-71.png","icon_background_color":"#FF9E67","icon_mask_base_uri":"https://maps.gstatic.com/mapfiles/place_api/icons/v2/bar_pinlet","name":"Vinolito Wine & Tapas","opening_hours":{"open_now":true},"photos":[{"height":3000,"html_attributions":["<a href=\"https://maps.google.com/maps/contrib/113159444032138282382\">Ilka Helo</a>"],"photo_reference":"AeJbb3cAxvzcccLWehbTlg_Aqs5tVReedjv7aOurtWZUEJzf86NOSlOfSNPFqCLTDiumaLKPnLixYiYIG5ygPwi_1zqRbhpIPcPZXGGzDKBQr-BUfDK6QUzr_SkLrxK298n7Ghxco-CfPcihOFSPJGgHWMTpOhwA2MMoP0BH_yJ0nrbphVIu","width":4000}],"place_id":"ChIJm5sQMYYJkkYRTI5cB2-FIjM","plus_code":{"compound_code":"5XQ4+8X Helsinki","global_code":"9GG65XQ4+8X"},"rating":4.8,"reference":"ChIJm5sQMYYJkkYRTI5cB2-FIjM","types":["bar","restaurant","food","point_of_interest","establishment"],"user_ratings_total":21},{"business_status":"OPERATIONAL","formatted_address":"Fredrikinkatu 22, 00120 Helsinki","geometry":{"location":{"lat":60.1633046,"lng":24.9382925},"viewport":{"northeast":{"lat":60.16467082989272,"lng":24.93969082989272},"southwest":{"lat":60.16197117010728,"lng":24.93699117010727}}},"icon":"https://maps.gstatic.com/mapfiles/place_api/icons/v1/png_71/restaurant-71.png","icon_background_color":"#FF9E67","icon_mask_base_uri":"https://maps.gstatic.com/mapfiles/place_api/icons/v2/restaurant_pinlet","name":"Ravintola Nolla","opening_hours":{"open_now":true},"photos":[{"height":4942,"html_attributions":["<a href=\"https://maps.google.com/maps/contrib/111571016604741645143\">A Google User</a>"],"photo_reference":"AeJbb3ftPUSrV21Y6H8sdT7JRtpx55n_UVmQajw8wAFqSeRUz6swztWlbIoCvVHWB6C-LRjwo5oeqGgFBzty1funFXTR6YAMfQ_PklRGMxuH_Aptd_6AOJRaB2YAJHYxG3cU660DFJhrgQFdY6hsvzcaisxaklQiKeQKJVPKDuShVTy3Z_AA","width":7409}],"place_id":"ChIJMy0B7tALkkYRFxxwSiFlRBM","plus_code":{"compound_code":"5W7Q+88 Helsinki","global_code":"9GG65W7Q+88"},"rating":4.7,"reference":"ChIJMy0B7tALkkYRFxxwSiFlRBM","types":["restaurant","food","point_of_interest","establishment"],"user_ratings_total":371},{"business_status":"OPERATIONAL","formatted_address":"Uudenmaankatu 7, 00120 Helsinki","geometry":{"location":{"lat":60.16514710000001,"lng":24.942362},"viewport":{"northeast":{"lat":60.16645682989272,"lng":24.94376852989272},"southwest":{"lat":60.16375717010728,"lng":24.94106887010727}}},"icon":"https://maps.gstatic.com/mapfiles/place_api/icons/v1/png_71/bar-71.png","icon_background_color":"#FF9E67","icon_mask_base_uri":"https://maps.gstatic.com/mapfiles/place_api/icons/v2/bar_pinlet","name":"La Tapería - Viinibaari & Tapas","opening_hours":{"open_now":true},"photos":[{"height":4000,"html_attributions":["<a href=\"https://maps.google.com/maps/contrib/116225198344951615314\">A Google User</a>"],"photo_reference":"AeJbb3diAJ2v_xlM1pwn1v_4ZOj8vGrMkUmZw4wzVUbtAcCw07mqwgtJnpXdpvTl_-QGrZTFQqewevQII8nILS3bsnUfmiI7RDUpd_bgtrzfbAmi9JlqCTsAhH3U2k6TdmhENtcOWnKWz9LwhB2X_ZakbbRg_tHMb1Xj-oIz6KObx4-K002g","width":3000}],"place_id":"ChIJT5_nAiELkkYR1OeHa4EP8nI","plus_code":{"compound_code":"5W8R+3W Helsinki","global_code":"9GG65W8R+3W"},"rating":4.7,"reference":"ChIJT5_nAiELkkYR1OeHa4EP8nI","types":["bar","grocery_or_supermarket","restaurant","food","store","point_of_interest","establishment"],"user_ratings_total":105},{"business_status":"OPERATIONAL","formatted_address":"Urho Kekkosen katu 7, 00100 Helsinki","geometry":{"location":{"lat":60.16838360000001,"lng":24.9316163},"viewport":{"northeast":{"lat":60.16982482989272,"lng":24.93283362989272},"southwest":{"lat":60.16712517010728,"lng":24.93013397010728}}},"icon":"https://maps.gstatic.com/mapfiles/place_api/icons/v1/png_71/restaurant-71.png","icon_background_color":"#FF9E67","icon_mask_base_uri":"https://maps.gstatic.com/mapfiles/place_api/icons/v2/restaurant_pinlet","name":"Phở Nokis","opening_hours":{"open_now":true},"photos":[{"height":2421,"html_attributions":["<a href=\"https://maps.google.com/maps/contrib/104386102685992952648\">Pertti</a>"],"photo_reference":"AeJbb3fxOKKR1ZncUQfjy3i-mR7xlOHIMBdxJDr-sIOcQHvvybUjlllr2Rfwc7byIGo1gyIA4H99tAdzW1Wu77XDi06P6Pzq6eyHNWfoGMpF58AAkOr7mpJntzr4MfWnxw2iIzulcxPpXIb94wNwlz8HR5AQLmMY8QqOAVI-i7w_Y_Chaxbv","width":3024}],"place_id":"ChIJ9wG5ksQLkkYR7ydpf10-POM","plus_code":{"compound_code":"5W9J+9J Helsinki","global_code":"9GG65W9J+9J"},"rating":4.7,"reference":"ChIJ9wG5ksQLkkYR7ydpf10-POM","types":["restaurant","food","point_of_interest","establishment"],"user_ratings_total":88},{"business_status":"OPERATIONAL","formatted_address":"Kalevankatu 13, 00100 Helsinki","geometry":{"location":{"lat":60.16710179999999,"lng":24.9370626},"viewport":{"northeast":{"lat":60.16843832989272,"lng":24.93843212989272},"southwest":{"lat":60.16573867010727,"lng":24.93573247010728}}},"icon":"https://maps.gstatic.com/mapfiles/place_api/icons/v1/png_71/restaurant-71.png","icon_background_color":"#FF9E67","icon_mask_base_uri":"https://maps.gstatic.com/mapfiles/place_api/icons/v2/restaurant_pinlet","name":"Restaurant Passio","opening_hours":{"open_now":true},"photos":[{"height":3648,"html_attributions":["<a href=\"https://maps.google.com/maps/contrib/107228233368976586672\">Passio Ravintola&amp;Bar</a>"],"photo_reference":"AeJbb3fBtrccjp5YP9uRuDc2CwY6bDysmZxmild17wskrebla2_9S71-kaQK0aoYmc4A30d9iCWQrd0lWLGHgzyFNdnwvrLqLahLfREaWeIrXI2vB2ZRqCprbOYX18NHxQv_vJOCsKWcahlmoeVIhISV4Z7HP1E-MEmPPolvpzPzWpQd2E9M","width":5472}],"place_id":"ChIJsSqiDMsLkkYRUoOmF9l72eo","plus_code":{"compound_code":"5W8P+VR Helsinki","global_code":"9GG65W8P+VR"},"price_level":3,"rating":4.6,"reference":"ChIJsSqiDMsLkkYRUoOmF9l72eo","types":["restaurant","food","point_of_interest","establishment"],"user_ratings_total":501},{"business_status":"OPERATIONAL","formatted_address":"Kasarmikatu 25, 00130 Helsinki","geometry":{"location":{"lat":60.1666457,"lng":24.9478456},"viewport":{"northeast":{"lat":60.16799227989273,"lng":24.94912282989272},"southwest":{"lat":60.16529262010728,"lng":24.94642317010727}}},"icon":"https://maps.gstatic.com/mapfiles/place_api/icons/v1/png_71/restaurant-71.png","icon_background_color":"#FF9E67","icon_mask_base_uri":"https://maps.gstatic.com/mapfiles/place_api/icons/v2/restaurant_pinlet","name":"Restaurant Rioni","opening_hours":{"open_now":true},"photos":[{"height":2380,"html_attributions":["<a href=\"https://maps.google.com/maps/contrib/104386102685992952648\">Pertti</a>"],"photo_reference":"AeJbb3fJaKyOA6UUII57iAWg3SAFywUyOdpRKU1sXDfNA3aKmetSI8Q2hZ_vlxx-tSYDhM04xHs6lgmBhjhiJymNfW5bsX1mdlgA7Kuiv8BKGf2yainNY3-W89q025EcrHB76NT0wU7Fe9JV8ajEjdZhQiGmu9GotbBW41fIuhZN0_BTd9Za","width":3949}],"place_id":"ChIJEavX664LkkYRROXKijv6Xmc","plus_code":{"compound_code":"5W8X+M4 Helsinki","global_code":"9GG65W8X+M4"},"price_level":2,"rating":4.6,"reference":"ChIJEavX664LkkYRROXKijv6Xmc","types":["restaurant","food","point_of_interest","establishment"],"user_ratings_total":372},{"business_status":"OPERATIONAL","formatted_address":"Eerikinkatu 4, 00100 Helsinki","geometry":{"location":{"lat":60.1677026,"lng":24.9370313},"viewport":{"northeast":{"lat":60.16908807989272,"lng":24.93833182989272},"southwest":{"lat":60.16638842010727,"lng":24.93563217010728}}},"icon":"https://maps.gstatic.com/mapfiles/place_api/icons/v1/png_71/restaurant-71.png","icon_background_color":"#FF9E67","icon_mask_base_uri":"https://maps.gstatic.com/mapfiles/place_api/icons/v2/restaurant_pinlet","name":"Ravintola Parrilla Española","opening_hours":{"open_now":false},"photos":[{"height":3024,"html_attributions":["<a href=\"https://maps.google.com/maps/contrib/114794878043811045162\">Bernard Rocha</a>"],"photo_reference":"AeJbb3exk9WprmlFdczqLg-w6P_Ce7yDpRiCyNyq9WOjeJOZ_X45KxbJjz353-j65v_VvKCP6CnhgXySLShnGL4MfKi0EpAUNbFVrHdiN6HNRqFSiFGd6ZW7HUQNGxw-5RKj6yT4MpSjF3jyzF6vPoJH6GgJDctb3qgg580Sz7u319Dh4Fro","width":4032}],"place_id":"ChIJV585cMsLkkYRUurSBb9xRX4","plus_code":{"compound_code":"5W9P+3R Helsinki","global_code":"9GG65W9P+3R"},"price_level":3,"rating":4.6,"reference":"ChIJV585cMsLkkYRUurSBb9xRX4","types":["restaurant","food","point_of_interest","establishment"],"user_ratings_total":223},{"business_status":"OPERATIONAL","formatted_address":"Haapaniemenkatu 7-9 B, 00530 Helsinki","geometry":{"location":{"lat":60.17967470000001,"lng":24.9587728},"viewport":{"northeast":{"lat":60.18103627989273,"lng":24.9614053},"southwest":{"lat":60.17833662010728,"lng":24.9578953}}},"icon":"https://maps.gstatic.com/mapfiles/place_api/icons/v1/png_71/restaurant-71.png","icon_background_color":"#FF9E67","icon_mask_base_uri":"https://maps.gstatic.com/mapfiles/place_api/icons/v2/restaurant_pinlet","name":"Restaurant Meritorni By THE INDIAN","opening_hours":{"open_now":true},"photos":[{"height":533,"html_attributions":["<a href=\"https://maps.google.com/maps/contrib/105418270030499011962\">A Google User</a>"],"photo_reference":"AeJbb3fWsEz6jQIp9wMch8k3GDi-PrT5PIw5s-OjJBdeWADKHeK5Oy6-6qaj7haB906uAUvvRUEvMekHqYQzpmAW6q5RuHg0sjsWpuHe7auZIriprbRGjti7R8qflnsMxixF76b-geXdKLCyQfPHo4Exv4bre51_dwfeY0B_-kIN8ofoC-ba","width":800}],"place_id":"ChIJO1T-w-4LkkYRcwdhXNJgwFk","plus_code":{"compound_code":"5XH5+VG Helsinki","global_code":"9GG65XH5+VG"},"rating":4.6,"reference":"ChIJO1T-w-4LkkYRcwdhXNJgwFk","types":["restaurant","food","point_of_interest","establishment"],"user_ratings_total":60},{"business_status":"OPERATIONAL","formatted_address":"Annankatu 22, 00100 Helsinki","geometry":{"location":{"lat":60.1666812,"lng":24.9369451},"viewport":{"northeast":{"lat":60.16806482989272,"lng":24.93838657989272},"southwest":{"lat":60.16536517010728,"lng":24.93568692010728}}},"icon":"https://maps.gstatic.com/mapfiles/place_api/icons/v1/png_71/restaurant-71.png","icon_background_color":"#FF9E67","icon_mask_base_uri":"https://maps.gstatic.com/mapfiles/place_api/icons/v2/restaurant_pinlet","name":"Lappi Ravintola","opening_hours":{"open_now":true},"photos":[{"height":1035,"html_attributions":["<a href=\"https://maps.google.com/maps/contrib/112336202140438856771\">Roman Holdener</a>"],"photo_reference":"AeJbb3e0gH0erZ4uySKLP7JeOyzbDBGxyXe11sc7Ij4YRQlKGTdi4_UD0QckJWqFpoT_eZ6nHXZGddDR6pn5V0wPgX-7t7jZjJ39XIrDvl48Hr9nNL42Bi8ZxluQr1e_BfYdTu51DNRKhc6AORtTMhICaxq9teSYEUIOIOdscf2qvTGR3wce","width":1380}],"place_id":"ChIJ36bwCcsLkkYRB4sbBayISh0","plus_code":{"compound_code":"5W8P+MQ Helsinki","global_code":"9GG65W8P+MQ"},"price_level":3,"rating":4.5,"reference":"ChIJ36bwCcsLkkYRB4sbBayISh0","types":["restaurant","food","point_of_interest","establishment"],"user_ratings_total":1468},{"business_status":"OPERATIONAL","formatted_address":"Nordenskiöldinkatu 8, 00250 Helsinki","geometry":{"location":{"lat":60.186328,"lng":24.9170617},"viewport":{"northeast":{"lat":60.18766227989272,"lng":24.91854337989272},"southwest":{"lat":60.18496262010728,"lng":24.91584372010728}}},"icon":"https://maps.gstatic.com/mapfiles/place_api/icons/v1/png_71/restaurant-71.png","icon_background_color":"#FF9E67","icon_mask_base_uri":"https://maps.gstatic.com/mapfiles/place_api/icons/v2/restaurant_pinlet","name":"Ravintola Mountain","opening_hours":{"open_now":true},"photos":[{"height":1960,"html_attributions":["<a href=\"https://maps.google.com/maps/contrib/104641157351755905381\">Ari Saarinen</a>"],"photo_reference":"AeJbb3f5OX_Rmg3M4y7p_hB_WXp7ffViZ_EYMx3g1RujspC7bS6wPHashpBDvgRV9EoxzYbUoXo4CtiJRclWCKNq3aF8Fa9KuvVj9MouolXVW5t5bxZWgRMgKz9RNas5iRWvAW25fDaWIBX43repJxFPQxvtvnTC9foJ6AkBxhKCj1b_EPfh","width":4032}],"place_id":"ChIJ1xgjSyEKkkYRzIl7vq966j0","plus_code":{"compound_code":"5WP8+GR Helsinki","global_code":"9GG65WP8+GR"},"price_level":2,"rating":4.5,"reference":"ChIJ1xgjSyEKkkYRzIl7vq966j0","types":["restaurant","food","point_of_interest","establishment"],"user_ratings_total":725},{"business_status":"OPERATIONAL","formatted_address":"Otakaari 22, 02150 Espoo","geometry":{"location":{"lat":60.186139,"lng":24.8330348},"viewport":{"northeast":{"lat":60.18750117989272,"lng":24.83434582989272},"southwest":{"lat":60.18480152010728,"lng":24.83164617010728}}},"icon":"https://maps.gstatic.com/mapfiles/place_api/icons/v1/png_71/generic_business-71.png","icon_background_color":"#7B9EB0","icon_mask_base_uri":"https://maps.gstatic.com/mapfiles/place_api/icons/v2/generic_pinlet","name":"Täffä (Teknologföreningen)","photos":[{"height":4640,"html_attributions":["<a href=\"https://maps.google.com/maps/contrib/106290023488354779181\">Saqlain Ali</a>"],"photo_reference":"AeJbb3c_nEq6UWtY8DB6Q39NyMI0SxTbyWJQx_1t3YZv-R_qm3znlF8yC_rPQ7xcJfqS6R-qTLvQorT5J7NeBzqadgt6sNHr3gUJ0w8yIUww0TLTugG_39w0dothYlIiiK5DC4SB8gJs4ijRC_rqEeZOTyNkpguDZMbyqna6bG-9uktuEzBe","width":3480}],"place_id":"ChIJR6AQce31jUYR_IFrVSMCL7M","plus_code":{"compound_code":"5RPM+C6 Espoo","global_code":"9GG65RPM+C6"},"price_level":1,"rating":4.5,"reference":"ChIJR6AQce31jUYR_IFrVSMCL7M","types":["bar","restaurant","food","point_of_interest","establishment"],"user_ratings_total":715},{"business_status":"OPERATIONAL","formatted_address":"Mechelininkatu 13, 00100 Helsinki","geometry":{"location":{"lat":60.1720039,"lng":24.920401},"viewport":{"northeast":{"lat":60.17334307989272,"lng":24.92167057989272},"southwest":{"lat":60.17064342010728,"lng":24.91897092010728}}},"icon":"https://maps.gstatic.com/mapfiles/place_api/icons/v1/png_71/bar-71.png","icon_background_color":"#FF9E67","icon_mask_base_uri":"https://maps.gstatic.com/mapfiles/place_api/icons/v2/bar_pinlet","name":"Favela","opening_hours":{"open_now":true},"photos":[{"height":1322,"html_attributions":["<a href=\"https://maps.google.com/maps/contrib/103316991589768715451\">Favela</a>"],"photo_reference":"AeJbb3eY-iyz6VVsWp9sKVEOHsfTgWdovP9kg-Yyd4y7U1B6VacZ1FXLM5AvnHTgHIenXPDXCc-ueVIiPDqF_ynjiHkrt5OTqeEY1S7-S9AJCwIt8LikAA4Ma6kpssTs8mpQ3vNY2eziq8BHeLF51eb4rbNvy3GPY5OUTWneoyx8gAlqbBEZ","width":1500}],"place_id":"ChIJK9KWfl4Ck0MRNHQa2An18CM","plus_code":{"compound_code":"5WCC+R5 Helsinki","global_code":"9GG65WCC+R5"},"price_level":2,"rating":4.5,"reference":"ChIJK9KWfl4Ck0MRNHQa2An18CM","types":["bar","restaurant","food","point_of_interest","establishment"],"user_ratings_total":379},{"business_status":"OPERATIONAL","formatted_address":"Välimerenkatu 14, 00220 Helsinki","geometry":{"location":{"lat":60.1588172,"lng":24.9155866},"viewport":{"northeast":{"lat":60.16021302989271,"lng":24.91688857989272},"southwest":{"lat":60.15751337010727,"lng":24.91418892010728}}},"icon":"https://maps.gstatic.com/mapfiles/place_api/icons/v1/png_71/restaurant-71.png","icon_background_color":"#FF9E67","icon_mask_base_uri":"https://maps.gstatic.com/mapfiles/place_api/icons/v2/restaurant_pinlet","name":"Restaurant Be My Guest","opening_hours":{"open_now":true},"photos":[{"height":3136,"html_attributions":["<a href=\"https://maps.google.com/maps/contrib/100708117906917784373\">Le Trang</a>"],"photo_reference":"AeJbb3c03Y-KfJZcEhtsb68EaK1ApuRByyGDBbGWS7EGZCZ6NbNNW49fVUQkcKjuDKEJ0U01kb6zv-sojQ8_cpzJ9QOMpEZwidzgrWvVhKwuel3IpbGOxxBGVDa34787S_nUNRNXSJ1IRCmi4hwFWpHVrwbcRZf0Mmc6HaFaoygWoEFqSH20","width":3136}],"place_id":"ChIJGRNtjC0LkkYRDh6oVuKTKDk","plus_code":{"compound_code":"5W58+G6 Helsinki","global_code":"9GG65W58+G6"},"price_level":2,"rating":4.5,"reference":"ChIJGRNtjC0LkkYRDh6oVuKTKDk","types":["restaurant","food","point_of_interest","establishment"],"user_ratings_total":250},{"business_status":"OPERATIONAL","formatted_address":"Kapteeninkatu 24, 00140 Helsinki","geometry":{"location":{"lat":60.1586159,"lng":24.9460118},"viewport":{"northeast":{"lat":60.15992297989271,"lng":24.94741802989272},"southwest":{"lat":60.15722332010726,"lng":24.94471837010728}}},"icon":"https://maps.gstatic.com/mapfiles/place_api/icons/v1/png_71/restaurant-71.png","icon_background_color":"#FF9E67","icon_mask_base_uri":"https://maps.gstatic.com/mapfiles/place_api/icons/v2/restaurant_pinlet","name":"Ravintola Paulette","opening_hours":{"open_now":false},"photos":[{"height":1080,"html_attributions":["<a href=\"https://maps.google.com/maps/contrib/108763515526938448510\">A Google User</a>"],"photo_reference":"AeJbb3dAfL9hxY_LRC8I3UrlAGDM3HK0eKPYx1KgXeVPrjKwPBtdzkecS789Vp2rVGU6n2t87XEMLKRtD5l7rN-BVWZucNUHSnwUdhJBEfTQNm-OqJ-pPbkMyM0kOd2ecX1WKsGXUaB9QFOP2nAKjjc6a4FgdRB7jHGAeUg4sn6cW_q59bm-","width":1620}],"place_id":"ChIJA92WibcLkkYRdV_8yGGmg60","plus_code":{"compound_code":"5W5W+CC Helsinki","global_code":"9GG65W5W+CC"},"rating":4.5,"reference":"ChIJA92WibcLkkYRdV_8yGGmg60","types":["restaurant","food","point_of_interest","establishment"],"user_ratings_total":121},{"business_status":"OPERATIONAL","formatted_address":"Eteläinen Hesperiankatu 22, 00100 Helsinki","geometry":{"location":{"lat":60.17656900000001,"lng":24.922915},"viewport":{"northeast":{"lat":60.17796967989273,"lng":24.92421567989272},"southwest":{"lat":60.17527002010728,"lng":24.92151602010728}}},"icon":"https://maps.gstatic.com/mapfiles/place_api/icons/v1/png_71/restaurant-71.png","icon_background_color":"#FF9E67","icon_mask_base_uri":"https://maps.gstatic.com/mapfiles/place_api/icons/v2/restaurant_pinlet","name":"Restaurant Elite","opening_hours":{"open_now":true},"photos":[{"height":2592,"html_attributions":["<a href=\"https://maps.google.com/maps/contrib/108316058531660237934\">Tuomas Eloranta</a>"],"photo_reference":"AeJbb3eCQjezclB9jkcbiEuyReB3newzbDjcH2E45MmWj1BrGd6wckhreVQGJ7H2yJfOOqvHv9XVEkkkXjZt6UwaQf4dDu5ttxqYnJnUrMdwShBnf7Vp7qMQlWvNS-j5U7UUpRoHotnjV1VJ_-4Bd08v9Y1HHwvQ-i1wATb6Z9-AZ4Wxmrrv","width":4608}],"place_id":"ChIJJcDVNjAKkkYRVAiBMq4jrUo","plus_code":{"compound_code":"5WGF+J5 Helsinki","global_code":"9GG65WGF+J5"},"price_level":3,"rating":4.4,"reference":"ChIJJcDVNjAKkkYRVAiBMq4jrUo","types":["restaurant","food","point_of_interest","establishment"],"user_ratings_total":880},{"business_status":"OPERATIONAL","formatted_address":"Runeberginkatu 55, 00260 Helsinki","geometry":{"location":{"lat":60.1794576,"lng":24.9239549},"viewport":{"northeast":{"lat":60.18081782989272,"lng":24.92516937989272},"southwest":{"lat":60.17811817010727,"lng":24.92246972010727}}},"icon":"https://maps.gstatic.com/mapfiles/place_api/icons/v1/png_71/restaurant-71.png","icon_background_color":"#FF9E67","icon_mask_base_uri":"https://maps.gstatic.com/mapfiles/place_api/icons/v2/restaurant_pinlet","name":"Ravintola Tokyo 55","opening_hours":{"open_now":false},"photos":[{"height":2976,"html_attributions":["<a href=\"https://maps.google.com/maps/contrib/103774169655062953002\">Renny Ruha</a>"],"photo_reference":"AeJbb3cc8FCPj23Kqz22woBdCr9PWlpMbi687P3bedo6rkljHysgUDi-PIyfGYh9UsGOwEqNPR-R6Ru27DUKhN9qAOLnefshQjNANFtMZ69u_LtuJv9wfK9OiXvs2ZqO_g0AA_fQHPZZpGUL0anUW4QMeBk4cP-mZzBZA2pqI0LxHF9vFGAX","width":3968}],"place_id":"ChIJXwShkC8KkkYRvgGeQaOzip8","plus_code":{"compound_code":"5WHF+QH Helsinki","global_code":"9GG65WHF+QH"},"price_level":2,"rating":4.4,"reference":"ChIJXwShkC8KkkYRvgGeQaOzip8","types":["restaurant","food","point_of_interest","establishment"],"user_ratings_total":802},{"business_status":"OPERATIONAL","formatted_address":"Vuorimiehentie 5, 02150 Espoo","geometry":{"location":{"lat":60.1828462,"lng":24.8279664},"viewport":{"northeast":{"lat":60.18434592989272,"lng":24.82902752989272},"southwest":{"lat":60.18164627010727,"lng":24.82632787010727}}},"icon":"https://maps.gstatic.com/mapfiles/place_api/icons/v1/png_71/restaurant-71.png","icon_background_color":"#FF9E67","icon_mask_base_uri":"https://maps.gstatic.com/mapfiles/place_api/icons/v2/restaurant_pinlet","name":"Restaurant Mau-Kas","opening_hours":{"open_now":false},"photos":[{"height":3968,"html_attributions":["<a href=\"https://maps.google.com/maps/contrib/106432935030375336402\">Iitu Hagström</a>"],"photo_reference":"AeJbb3dtrz35Rl6RlrmuJsbDOwcplAzW_-sQsVEeLeEUQYvXkayK3Ofbvn7EhOEAnk9stJM5RUFh9b6h_ljpPlIlEVWF0E3ZSvUezvatzrRO1fxyumjd3qHaVINfGnjwzDRc7JzgVX114bAI109eCZz3bpLyom-fKQVNAFwx-rlIJX7f_kXQ","width":2976}],"place_id":"ChIJZ3kL8Y31jUYR9YPL_w0NG_g","plus_code":{"compound_code":"5RMH+45 Espoo","global_code":"9GG65RMH+45"},"price_level":1,"rating":4.4,"reference":"ChIJZ3kL8Y31jUYR9YPL_w0NG_g","types":["restaurant","food","point_of_interest","establishment"],"user_ratings_total":327},{"business_status":"OPERATIONAL","formatted_address":"Runeberginkatu 55, 00260 Helsinki","geometry":{"location":{"lat":60.17948329999999,"lng":24.9237996},"viewport":{"northeast":{"lat":60.18082092989273,"lng":24.92509417989272},"southwest":{"lat":60.17812127010728,"lng":24.92239452010728}}},"icon":"https://maps.gstatic.com/mapfiles/place_api/icons/v1/png_71/restaurant-71.png","icon_background_color":"#FF9E67","icon_mask_base_uri":"https://maps.gstatic.com/mapfiles/place_api/icons/v2/restaurant_pinlet","name":"Rosa Izakaya","opening_hours":{"open_now":false},"photos":[{"height":3008,"html_attributions":["<a href=\"https://maps.google.com/maps/contrib/118259681986258433752\">Risto Tuomarla</a>"],"photo_reference":"AeJbb3crxVhmcrLy90AD6mqaSVo8ESi8OzReSosr67NcrUcnaabrDYxFmCmkFN7C-fPdXklhIjaiZF5gh08YQiATreOs1VdDmp6Q5XTKdfSLRhFq7YS-rrEGMw89L1lAGuF3Jxnv_zy2JJUTc0Gc5VM-mo67qZHbMW83-x7uT9VCXZz8R6L5","width":4000}],"place_id":"ChIJSZ8e3IgLkkYRs8qlQZYuKaU","plus_code":{"compound_code":"5WHF+QG Helsinki","global_code":"9GG65WHF+QG"},"rating":4.4,"reference":"ChIJSZ8e3IgLkkYRs8qlQZYuKaU","types":["restaurant","food","point_of_interest","establishment"],"user_ratings_total":43},{"business_status":"OPERATIONAL","formatted_address":"Hernesaarenranta 4, 00150 Helsinki","geometry":{"location":{"lat":60.15206559999999,"lng":24.9302737},"viewport":{"northeast":{"lat":60.15346877989272,"lng":24.93142182989272},"southwest":{"lat":60.15076912010727,"lng":24.92872217010727}}},"icon":"https://maps.gstatic.com/mapfiles/place_api/icons/v1/png_71/restaurant-71.png","icon_background_color":"#FF9E67","icon_mask_base_uri":"https://maps.gstatic.com/mapfiles/place_api/icons/v2/restaurant_pinlet","name":"Löyly Helsinki","opening_hours":{"open_now":true},"photos":[{"height":2736,"html_attributions":["<a href=\"https://maps.google.com/maps/contrib/111174027728753279826\">Shintaro Sano</a>"],"photo_reference":"AeJbb3eAeHb36yz1cRXb-QyB2Kjt5PXORO4RkyNSTlRokDXNv05Js2bkqA73qacKjYiEa1BHCTP7O091klTOdyJTTIPcnsiE2AMOAxwEEP0ZkE89cv7j3dUlVeECJFUZBkeJt8alV_ezS1m-KCCm2PwQeKLsZ4K2FDHOOJq8NcfNOqI5mcgD","width":3648}],"place_id":"ChIJ7WWs57ELkkYRJJRbVu2rgfo","plus_code":{"compound_code":"5W2J+R4 Helsinki","global_code":"9GG65W2J+R4"},"price_level":3,"rating":4.3,"reference":"ChIJ7WWs57ELkkYRJJRbVu2rgfo","types":["restaurant","spa","bar","food","point_of_interest","health","establishment"],"user_ratings_total":4365},{"business_status":"OPERATIONAL","formatted_address":"Kapteeninkatu 11, 00140 Helsinki","geometry":{"location":{"lat":60.1587358,"lng":24.9465112},"viewport":{"northeast":{"lat":60.16010397989271,"lng":24.94775107989272},"southwest":{"lat":60.15740432010727,"lng":24.94505142010728}}},"icon":"https://maps.gstatic.com/mapfiles/place_api/icons/v1/png_71/restaurant-71.png","icon_background_color":"#FF9E67","icon_mask_base_uri":"https://maps.gstatic.com/mapfiles/place_api/icons/v2/restaurant_pinlet","name":"Restaurant Sea Horse","opening_hours":{"open_now":true},"photos":[{"height":2268,"html_attributions":["<a href=\"https://maps.google.com/maps/contrib/114389529065912753251\">Giovanni Puglisi</a>"],"photo_reference":"AeJbb3f5C2xa5f0RP2sf4QX7tSVGuSMu7aW-_wa4yTmvmumpLEY5TFH4jxm-imQwIj6JEZgDvIr0o6Csr0tPCcTMId9Mct7nJHg9Ht9UtZGpgcY-F-_3dLLOBkfjom0H95T3cFDpdgQAurbNhYBu2woTRusFfxyNVFI0Yh_UEmXSKngtjM3a","width":4032}],"place_id":"ChIJtQpbILgLkkYR_Q8zrTMdT-w","plus_code":{"compound_code":"5W5W+FJ Helsinki","global_code":"9GG65W5W+FJ"},"price_level":2,"rating":4.3,"reference":"ChIJtQpbILgLkkYR_Q8zrTMdT-w","types":["restaurant","food","point_of_interest","establishment"],"user_ratings_total":1129},{"business_status":"OPERATIONAL","formatted_address":"Eerikinkatu 27, 00180 Helsinki","geometry":{"location":{"lat":60.16526409999999,"lng":24.9293042},"viewport":{"northeast":{"lat":60.16655612989273,"lng":24.93073802989272},"southwest":{"lat":60.16385647010728,"lng":24.92803837010728}}},"icon":"https://maps.gstatic.com/mapfiles/place_api/icons/v1/png_71/restaurant-71.png","icon_background_color":"#FF9E67","icon_mask_base_uri":"https://maps.gstatic.com/mapfiles/place_api/icons/v2/restaurant_pinlet","name":"Restaurant Pueblo Bar y Taqueria","opening_hours":{"open_now":true},"photos":[{"height":4032,"html_attributions":["<a href=\"https://maps.google.com/maps/contrib/108913884205642511110\">Juuso Ilmelä</a>"],"photo_reference":"AeJbb3ds2ME8WAzD7AZmqHg73sbDFwoOt3CMsaA0x2ADn6BXRlT_BdRNnn_Jcmv6shFN11p0APSUlV-MDDgeXID0UTGhuuuUR5JiZni5PUTZhx9UYHcZizKwzB-774AUK0qs2GhgADtQ_PBfTOIRK4Tu9Q0FulRTMOyctroF3rkqmgxqnS_N","width":3024}],"place_id":"ChIJHxSuSzUKkkYRJKvNmkny4fQ","plus_code":{"compound_code":"5W8H+4P Helsinki","global_code":"9GG65W8H+4P"},"price_level":2,"rating":4.3,"reference":"ChIJHxSuSzUKkkYRJKvNmkny4fQ","types":["restaurant","food","point_of_interest","establishment"],"user_ratings_total":598},{"business_status":"OPERATIONAL","formatted_address":"Yrjönkatu 29, 00100 Helsinki","geometry":{"location":{"lat":60.16827809999999,"lng":24.9374795},"viewport":{"northeast":{"lat":60.16958232989273,"lng":24.93869322989272},"southwest":{"lat":60.16688267010728,"lng":24.93599357010728}}},"icon":"https://maps.gstatic.com/mapfiles/place_api/icons/v1/png_71/restaurant-71.png","icon_background_color":"#FF9E67","icon_mask_base_uri":"https://maps.gstatic.com/mapfiles/place_api/icons/v2/restaurant_pinlet","name":"Suburritos","opening_hours":{"open_now":true},"photos":[{"height":3024,"html_attributions":["<a href=\"https://maps.google.com/maps/contrib/114427709345631517203\">H G</a>"],"photo_reference":"AeJbb3erlpywYJ4y5KwLqg1CBIka4wTPKEwCdr-HuGfJYTmSXi77mfF1S818fMwxuRT1EFpFlHrj833Gs3b9D-Z2Gifh51IE2wmpdMCXYS8h8Vlhrw6UY63KNdWIBxooRu6AH-2OVfqEMNKKoVfMVRVAdyTmBJhwvFRVjxHb_I9eb9YbXGeK","width":4032}],"place_id":"ChIJ4a-llMwLkkYR9c4AERNi7O0","plus_code":{"compound_code":"5W9P+8X Helsinki","global_code":"9GG65W9P+8X"},"price_level":2,"rating":4.3,"reference":"ChIJ4a-llMwLkkYR9c4AERNi7O0","types":["restaurant","food","point_of_interest","establishment"],"user_ratings_total":545},{"business_status":"OPERATIONAL","formatted_address":"Mechelininkatu 7, 00100 Helsinki","geometry":{"location":{"lat":60.1707955,"lng":24.9209631},"viewport":{"northeast":{"lat":60.17212447989272,"lng":24.92222772989272},"southwest":{"lat":60.16942482010728,"lng":24.91952807010728}}},"icon":"https://maps.gstatic.com/mapfiles/place_api/icons/v1/png_71/restaurant-71.png","icon_background_color":"#FF9E67","icon_mask_base_uri":"https://maps.gstatic.com/mapfiles/place_api/icons/v2/restaurant_pinlet","name":"Restaurant Perho","opening_hours":{"open_now":true},"photos":[{"height":3096,"html_attributions":["<a href=\"https://maps.google.com/maps/contrib/117671311340884928629\">Jukka Kokko</a>"],"photo_reference":"AeJbb3cdZd3sj3lG3fYPXj2kGrsqOUp-6yi0EjX2Vr9PLAwRrdSdPr7WyqoYUQeS8bIR6m4ImChm9nRrAm1jTOyHIdxcaiNsyFD4piqaoFK21XT7VtvRvDZ2OAX2LMC2sxeP4yXDCNJBMw08KFVsKxbi87JY1-HWUnEXl3YL_x5CxqNDfE4G","width":5504}],"place_id":"ChIJxbp6uDYKkkYRV8bhH9tlXL4","plus_code":{"compound_code":"5WCC+8C Helsinki","global_code":"9GG65WCC+8C"},"price_level":1,"rating":4.3,"reference":"ChIJxbp6uDYKkkYRV8bhH9tlXL4","types":["restaurant","food","point_of_interest","establishment"],"user_ratings_total":504},{"business_status":"OPERATIONAL","formatted_address":"Lintuvaarantie 28, 02650 Espoo","geometry":{"location":{"lat":60.2290158,"lng":24.8133447},"viewport":{"northeast":{"lat":60.23039697989272,"lng":24.81484412989272},"southwest":{"lat":60.22769732010728,"lng":24.81214447010728}}},"icon":"https://maps.gstatic.com/mapfiles/place_api/icons/v1/png_71/restaurant-71.png","icon_background_color":"#FF9E67","icon_mask_base_uri":"https://maps.gstatic.com/mapfiles/place_api/icons/v2/restaurant_pinlet","name":"Restaurant Spice Garden","opening_hours":{"open_now":true},"photos":[{"height":3120,"html_attributions":["<a href=\"https://maps.google.com/maps/contrib/102630098948906570438\">sakib khan</a>"],"photo_reference":"AeJbb3euSg1tLySBai51-RhKaOajnHkwso8OiMfBHAVsLyOzoTDgMISaWY0J62kXbgz-Z3UMGlsuP9kpXrLthiMdA4kD56_SurbN0x5_IBxzYfUsFk1Tla4OrAxYuiBKjk5EIFdWPZyRXrJDYEAjVevxyb0Aa2yAejsYwQ6oGbijbQFL66rr","width":4160}],"place_id":"ChIJV1QDR2L2jUYRXdq9ay6i9sM","plus_code":{"compound_code":"6RH7+H7 Espoo","global_code":"9GG66RH7+H7"},"price_level":2,"rating":4.3,"reference":"ChIJV1QDR2L2jUYRXdq9ay6i9sM","types":["restaurant","food","point_of_interest","establishment"],"user_ratings_total":445},{"business_status":"OPERATIONAL","formatted_address":"Benktankuja 1, 00810 Helsinki","geometry":{"location":{"lat":60.1857864,"lng":25.0320964},"viewport":{"northeast":{"lat":60.18719192989273,"lng":25.03346832989272},"southwest":{"lat":60.18449227010728,"lng":25.03076867010727}}},"icon":"https://maps.gstatic.com/mapfiles/place_api/icons/v1/png_71/restaurant-71.png","icon_background_color":"#FF9E67","icon_mask_base_uri":"https://maps.gstatic.com/mapfiles/place_api/icons/v2/restaurant_pinlet","name":"Del Mar","opening_hours":{"open_now":true},"photos":[{"height":3120,"html_attributions":["<a href=\"https://maps.google.com/maps/contrib/113775168613773163519\">Eija Lehtiö</a>"],"photo_reference":"AeJbb3dFMcHF_pQeINL8FhGXmI2n1QCEYyOVNKGKAjg14mS_x3P892loVO223ZfbJJOXzCVR8B824pQeTuhbKOfMV7T01W-Zc9xaGtLWFyLmBdamQ6E8opCizEr8Vd5e0PoJMCuPHRryeRQQlBn2BgM84KtovxYXtSbxCMwcbA4g6Xg8BwnU","width":4160}],"place_id":"ChIJBRe1uU4JkkYR_jb1eMInpT4","plus_code":{"compound_code":"52PJ+8R Helsinki","global_code":"9GG752PJ+8R"},"price_level":2,"rating":4.3,"reference":"ChIJBRe1uU4JkkYR_jb1eMInpT4","types":["restaurant","food","point_of_interest","establishment"],"user_ratings_total":374},{"business_status":"OPERATIONAL","formatted_address":"Kapteeninkatu 26, 00140 Helsinki","geometry":{"location":{"lat":60.15897260000001,"lng":24.9462598},"viewport":{"northeast":{"lat":60.16030992989271,"lng":24.94768442989272},"southwest":{"lat":60.15761027010727,"lng":24.94498477010728}}},"icon":"https://maps.gstatic.com/mapfiles/place_api/icons/v1/png_71/restaurant-71.png","icon_background_color":"#FF9E67","icon_mask_base_uri":"https://maps.gstatic.com/mapfiles/place_api/icons/v2/restaurant_pinlet","name":"Ravintola Pontus","opening_hours":{"open_now":true},"photos":[{"height":3000,"html_attributions":["<a href=\"https://maps.google.com/maps/contrib/102846916811162450616\">Juha Räsänen</a>"],"photo_reference":"AeJbb3da302JsPftf_HGTHo8_hRdz-vh5Jl_8DydfgW14c1tZcajXcNxdmcFw6prbDbAYXYTivWMO-ZIWMAk-xun8cIMOsa8o1K44teZ-T92uAFBHLY2ZVsE1j-X7-iuBhyD6jpD7kQRlt_3QVxY1hoAq0g4EZiz5Jva2jKHVF30meDzaxeB","width":5333}],"place_id":"ChIJkwvz9LcLkkYR1ZoNp5Uqw3U","plus_code":{"compound_code":"5W5W+HG Helsinki","global_code":"9GG65W5W+HG"},"price_level":2,"rating":4.3,"reference":"ChIJkwvz9LcLkkYR1ZoNp5Uqw3U","types":["restaurant","food","point_of_interest","establishment"],"user_ratings_total":210},{"business_status":"OPERATIONAL","formatted_address":"Iso Roobertinkatu 1, 00120 Helsinki","geometry":{"location":{"lat":60.1642049,"lng":24.943981},"viewport":{"northeast":{"lat":60.16554762989272,"lng":24.94531507989273},"southwest":{"lat":60.16284797010728,"lng":24.94261542010728}}},"icon":"https://maps.gstatic.com/mapfiles/place_api/icons/v1/png_71/restaurant-71.png","icon_background_color":"#FF9E67","icon_mask_base_uri":"https://maps.gstatic.com/mapfiles/place_api/icons/v2/restaurant_pinlet","name":"Restaurant Yes Yes Yes","opening_hours":{"open_now":true},"photos":[{"height":2000,"html_attributions":["<a href=\"https://maps.google.com/maps/contrib/104180744345778712792\">A Google User</a>"],"photo_reference":"AeJbb3ehPMQkgo3wZAcLVTVgQBi-WUSY15Oth2CkOjIg0nHZlz19H_Og6VMMah1pAk1j6fubnmf8Ak2oWVbkgM1Cnvaf3AELPmCGwulcnDWhf1oarvBD5pboalVQWXx5UIIe1gC0v0S6yJ_hEGx8k_nZJr6VbaWyVQT9An1ENrXt6ILOFxbC","width":3000}],"place_id":"ChIJNemmCskLkkYRtUtQ5ZXEdLc","plus_code":{"compound_code":"5W7V+MH Helsinki","global_code":"9GG65W7V+MH"},"price_level":2,"rating":4.2,"reference":"ChIJNemmCskLkkYRtUtQ5ZXEdLc","types":["bar","restaurant","food","point_of_interest","establishment"],"user_ratings_total":910},{"business_status":"OPERATIONAL","formatted_address":"Runeberginkatu 61, 00260 Helsinki","geometry":{"location":{"lat":60.1805256,"lng":24.9249127},"viewport":{"northeast":{"lat":60.18183512989272,"lng":24.92610717989272},"southwest":{"lat":60.17913547010728,"lng":24.92340752010728}}},"icon":"https://maps.gstatic.com/mapfiles/place_api/icons/v1/png_71/bar-71.png","icon_background_color":"#FF9E67","icon_mask_base_uri":"https://maps.gstatic.com/mapfiles/place_api/icons/v2/bar_pinlet","name":"Bar Teos","opening_hours":{"open_now":true},"photos":[{"height":3024,"html_attributions":["<a href=\"https://maps.google.com/maps/contrib/104420629073348638456\">Laury BOËCASSE</a>"],"photo_reference":"AeJbb3cRGLeX4XW_hX-Cae03ilK3CrNmu1KDZv35XqqmQkAAf1VtZ9_PofZrfjJ098DhhBEr-RJeNbw_NXnYjtmGgvA6K3VVGVT92WyZkgk8xgzEws7WYf7N2zech_NKIzLZo7xMMIiTL7R-5KRZpv2abxDMtL63jGsTKmaGztZCsoLyLnLj","width":4032}],"place_id":"ChIJ4RBmdi8KkkYRM0zz8sCVkBg","plus_code":{"compound_code":"5WJF+6X Helsinki","global_code":"9GG65WJF+6X"},"price_level":1,"rating":4.2,"reference":"ChIJ4RBmdi8KkkYRM0zz8sCVkBg","types":["bar","restaurant","food","point_of_interest","establishment"],"user_ratings_total":396},{"business_status":"OPERATIONAL","formatted_address":"Lapinlahdenkatu 15, 00180 Helsinki","geometry":{"location":{"lat":60.16699649999999,"lng":24.9275192},"viewport":{"northeast":{"lat":60.16830317989271,"lng":24.92884542989272},"southwest":{"lat":60.16560352010727,"lng":24.92614577010728}}},"icon":"https://maps.gstatic.com/mapfiles/place_api/icons/v1/png_71/restaurant-71.png","icon_background_color":"#FF9E67","icon_mask_base_uri":"https://maps.gstatic.com/mapfiles/place_api/icons/v2/restaurant_pinlet","name":"Mount Everest Kamppi","opening_hours":{"open_now":true},"photos":[{"height":3373,"html_attributions":["<a href=\"https://maps.google.com/maps/contrib/107098487429379748160\">Matti Dahlbom</a>"],"photo_reference":"AeJbb3c9X_f9eAJvPrYRIeJgsTXyEBUlyy2w8X5Hk5NdusGvryntvlHPs4p4ymZM1nUUzx7gPl83q7rxxUBa7-X7WTVs8ssVO-bnaKy9n_3I_cYBK5gtfU_DxlcTfOPJ2i26caAxpqj5T5wDr-RkvD_chiM5CUqDruSZcAYVD_VNrx6VXXia","width":4501}],"place_id":"ChIJiVemHDUKkkYR3N64KR21SpU","plus_code":{"compound_code":"5W8H+Q2 Helsinki","global_code":"9GG65W8H+Q2"},"price_level":2,"rating":4.2,"reference":"ChIJiVemHDUKkkYR3N64KR21SpU","types":["restaurant","food","point_of_interest","establishment"],"user_ratings_total":389},{"business_status":"OPERATIONAL","formatted_address":"Aleksanterinkatu 15, 00100 Helsinki","geometry":{"location":{"lat":60.1692771,"lng":24.9445914},"viewport":{"northeast":{"lat":60.17043157989272,"lng":24.94605367989272},"southwest":{"lat":60.16773192010728,"lng":24.94335402010728}}},"icon":"https://maps.gstatic.com/mapfiles/place_api/icons/v1/png_71/restaurant-71.png","icon_background_color":"#FF9E67","icon_mask_base_uri":"https://maps.gstatic.com/mapfiles/place_api/icons/v2/restaurant_pinlet","name":"Ravintola Amigo","opening_hours":{"open_now":false},"photos":[{"height":2268,"html_attributions":["<a href=\"https://maps.google.com/maps/contrib/101256934046136789095\">Anna Hietanen</a>"],"photo_reference":"AeJbb3cFcACKkTCf6_8ur4GZ7XmXG12J1E8omyjyXsMMKA2xfcyZIR4sDjq9XhqYvGVkOQ-RBZCVTu7mJTCB4473h6GO0fCymY5sv9AU2WpbxuIiYRJ8mYhzKNfTQvZt7KrKO1Nwp9IQFjAEBn01N9g6tX4radLQ0dlhHQu_DxGCpYhaeKu4","width":4032}],"place_id":"ChIJ5U-labgLkkYRfSO8rCZ5el0","plus_code":{"compound_code":"5W9V+PR Helsinki","global_code":"9GG65W9V+PR"},"price_level":2,"rating":4.2,"reference":"ChIJ5U-labgLkkYRfSO8rCZ5el0","types":["restaurant","food","point_of_interest","establishment"],"user_ratings_total":308},{"business_status":"OPERATIONAL","formatted_address":"Työpajankatu 2a R 1 d, 00580 Helsinki","geometry":{"location":{"lat":60.19016749999999,"lng":24.9720157},"viewport":{"northeast":{"lat":60.19143327989272,"lng":24.97347027989272},"southwest":{"lat":60.18873362010728,"lng":24.97077062010728}}},"icon":"https://maps.gstatic.com/mapfiles/place_api/icons/v1/png_71/restaurant-71.png","icon_background_color":"#FF9E67","icon_mask_base_uri":"https://maps.gstatic.com/mapfiles/place_api/icons/v2/restaurant_pinlet","name":"Restaurant Taqueria Lopez y Lopez","opening_hours":{"open_now":true},"photos":[{"height":3456,"html_attributions":["<a href=\"https://maps.google.com/maps/contrib/101182723531904100737\">Markku Rouvala</a>"],"photo_reference":"AeJbb3epqp2uUvSpSf6POW0EGGEExOsEMR6IyRDf14YYKU5HJ2xUDtgKq9-cdTe0Bh3eJIlXsu1q9t1VnsHpmjbYevTuTOAy3FnzJrDpRsdTrn2IHepE3xhPWnZIL3_UJVd4biRFYS-j6uvSw-9kYACTmyKFh7-NjrapfplTcwuigD3tvM8","width":4608}],"place_id":"ChIJ5f_afMIJkkYR88EUtST2bcs","plus_code":{"compound_code":"5XRC+3R Helsinki","global_code":"9GG65XRC+3R"},"price_level":2,"rating":4.2,"reference":"ChIJ5f_afMIJkkYR88EUtST2bcs","types":["restaurant","food","point_of_interest","establishment"],"user_ratings_total":285},{"business_status":"OPERATIONAL","formatted_address":"Sofiankatu 1 sisäpiha, 00170 Helsinki","geometry":{"location":{"lat":60.1685981,"lng":24.9527605},"viewport":{"northeast":{"lat":60.16994227989273,"lng":24.95379957989272},"southwest":{"lat":60.16724262010728,"lng":24.95109992010728}}},"icon":"https://maps.gstatic.com/mapfiles/place_api/icons/v1/png_71/restaurant-71.png","icon_background_color":"#FF9E67","icon_mask_base_uri":"https://maps.gstatic.com/mapfiles/place_api/icons/v2/restaurant_pinlet","name":"Kaupungintalon Ravintola","opening_hours":{"open_now":false},"photos":[{"height":3024,"html_attributions":["<a href=\"https://maps.google.com/maps/contrib/106511927243179213015\">Mikko Lehtonen</a>"],"photo_reference":"AeJbb3ekqA2qg0qNQ8SGlRXr0B47QzuhmgWQ7KlKNLmSsC56CzQVVgvyTK-_OdSB_OUaDc6APlMb4uJW32MKiq4WtCMWGQDqKQlKwBZy8k0V52J2jpyMb91TOLTiGVwsG2wfVQMkcoI0qpy-ymTfytp4-VjJeylm8GJJx4pGRrskqlKQ43wn","width":4032}],"place_id":"ChIJV01ND88LkkYR_bh0IUD7KR0","plus_code":{"compound_code":"5X93+C4 Helsinki","global_code":"9GG65X93+C4"},"price_level":1,"rating":4.2,"reference":"ChIJV01ND88LkkYR_bh0IUD7KR0","types":["restaurant","food","point_of_interest","establishment"],"user_ratings_total":217},{"business_status":"OPERATIONAL","formatted_address":"Iso Roobertinkatu 24, 00120 Helsinki","geometry":{"location":{"lat":60.1629571,"lng":24.940932},"viewport":{"northeast":{"lat":60.16434192989273,"lng":24.94223322989272},"southwest":{"lat":60.16164227010729,"lng":24.93953357010728}}},"icon":"https://maps.gstatic.com/mapfiles/place_api/icons/v1/png_71/restaurant-71.png","icon_background_color":"#FF9E67","icon_mask_base_uri":"https://maps.gstatic.com/mapfiles/place_api/icons/v2/restaurant_pinlet","name":"Lopez y Lopez, Punavuori","opening_hours":{"open_now":true},"photos":[{"height":3024,"html_attributions":["<a href=\"https://maps.google.com/maps/contrib/109220756504755129530\">tubacopy</a>"],"photo_reference":"AeJbb3cEaEy1qdqRgskFU6FajWH5YZDmPIIFkevqa0EQUbx13oQa1b8Nn71ua2tmwpHgfWisd4Aw0cWgAPs0lrUfTUGjuH4BREWpsip9iEcivKD4PudobQSnd117maXyemigZxo_YU91MPot69kNe55-9AtEwu-LVOhAM-jLQ6VC7djykVbF","width":4032}],"place_id":"ChIJAesR5N8LkkYRmO4ZmIgtZAU","plus_code":{"compound_code":"5W7R+59 Helsinki","global_code":"9GG65W7R+59"},"rating":4.2,"reference":"ChIJAesR5N8LkkYRmO4ZmIgtZAU","types":["restaurant","food","point_of_interest","establishment"],"user_ratings_total":92},{"business_status":"OPERATIONAL","formatted_address":"Pohjoisesplanadi 15, 00170 Helsinki","geometry":{"location":{"lat":60.16805559999999,"lng":24.9519444},"viewport":{"northeast":{"lat":60.16932762989272,"lng":24.95328497989272},"southwest":{"lat":60.16662797010727,"lng":24.95058532010728}}},"icon":"https://maps.gstatic.com/mapfiles/place_api/icons/v1/png_71/restaurant-71.png","icon_background_color":"#FF9E67","icon_mask_base_uri":"https://maps.gstatic.com/mapfiles/place_api/icons/v2/restaurant_pinlet","name":"Restaurant Salutorget","opening_hours":{"open_now":true},"photos":[{"height":3456,"html_attributions":["<a href=\"https://maps.google.com/maps/contrib/107908987509351069174\">Robert Hyvönen</a>"],"photo_reference":"AeJbb3dkqDONKvrC0FFv8c_CxWo5QX3OgWjSCdDoMTbzqpooKVHiYASWEIPD5PBDzwgTVJgAuoI8wwhSU3OyWU-BwddXBumyrGktSh2GPLvZLQJskeR6jvr2LlgFd5waKmIwh_vQKkyYIEKqfVVyjzAGIpz4S1rSaf9ReZXnmhgSSsXN5xnV","width":4608}],"place_id":"ChIJw79lu84LkkYRv_B3qFspPc8","plus_code":{"compound_code":"5X92+6Q Helsinki","global_code":"9GG65X92+6Q"},"price_level":3,"rating":4.1,"reference":"ChIJw79lu84LkkYRv_B3qFspPc8","types":["restaurant","cafe","food","point_of_interest","establishment"],"user_ratings_total":501},{"business_status":"OPERATIONAL","formatted_address":"Eteläesplanadi 4, 00130 Helsinki","geometry":{"location":{"lat":60.1671485,"lng":24.9505271},"viewport":{"northeast":{"lat":60.16853912989271,"lng":24.95192342989272},"southwest":{"lat":60.16583947010727,"lng":24.94922377010728}}},"icon":"https://maps.gstatic.com/mapfiles/place_api/icons/v1/png_71/restaurant-71.png","icon_background_color":"#FF9E67","icon_mask_base_uri":"https://maps.gstatic.com/mapfiles/place_api/icons/v2/restaurant_pinlet","name":"Kita Esplanadi","opening_hours":{"open_now":false},"photos":[{"height":2592,"html_attributions":["<a href=\"https://maps.google.com/maps/contrib/108606567152114977416\">Eveliina Lahti</a>"],"photo_reference":"AeJbb3d0_rbzwnsIL1mX7k3AMz8Uo5Fx73gDFUB40Eyg4Nh9BkdmHNbqQvpFMEucHc2l6AfB8s-MNJWfafKMWONID8jRtuFl8rTq0ibZcWYz9nNbnpO-nxeVN0b8uDFesXHFFRb1FpfKNhFapA4qSJntT1IlJTde6dH7whPauueBLqH2JX4x","width":1944}],"place_id":"ChIJd98AI88LkkYRcg18eTgHkeU","plus_code":{"compound_code":"5X82+V6 Helsinki","global_code":"9GG65X82+V6"},"price_level":2,"rating":4.1,"reference":"ChIJd98AI88LkkYRcg18eTgHkeU","types":["restaurant","food","point_of_interest","establishment"],"user_ratings_total":314},{"business_status":"OPERATIONAL","formatted_address":"Simonkatu 9, 00100 Helsinki","geometry":{"location":{"lat":60.1691474,"lng":24.9355373},"viewport":{"northeast":{"lat":60.17040862989272,"lng":24.93701922989272},"southwest":{"lat":60.16770897010728,"lng":24.93431957010728}}},"icon":"https://maps.gstatic.com/mapfiles/place_api/icons/v1/png_71/restaurant-71.png","icon_background_color":"#FF9E67","icon_mask_base_uri":"https://maps.gstatic.com/mapfiles/place_api/icons/v2/restaurant_pinlet","name":"Ravintola Más Helsinki","opening_hours":{"open_now":true},"photos":[{"height":3024,"html_attributions":["<a href=\"https://maps.google.com/maps/contrib/102803387683589260944\">Niklas Koskimies</a>"],"photo_reference":"AeJbb3cR_reDHpnuZwZmjClXaaSnpF0x9E4CurIKBJQZpvYDmacL9KqPvd_tcDMHstqZcrLwNJZGAVXTJp7aAGtKujN7OB0OuPLzdeNy9_zQwjjwX7Weq97Y1NQOotlvHVffVazN_RlcAkJzaH2bTksNtHW_m4IAfSbqNPMKPbeAG-rPudSU","width":4032}],"place_id":"ChIJh2sdpswLkkYRbileQbzOyRY","plus_code":{"compound_code":"5W9P+M6 Helsinki","global_code":"9GG65W9P+M6"},"price_level":2,"rating":4.1,"reference":"ChIJh2sdpswLkkYRbileQbzOyRY","types":["restaurant","food","point_of_interest","establishment"],"user_ratings_total":213},{"business_status":"OPERATIONAL","formatted_address":"Markkinakatu 2a, 02230 Espoo","geometry":{"location":{"lat":60.16039379999999,"lng":24.7381898},"viewport":{"northeast":{"lat":60.16172052989272,"lng":24.73936757989273},"southwest":{"lat":60.15902087010728,"lng":24.73666792010728}}},"icon":"https://maps.gstatic.com/mapfiles/place_api/icons/v1/png_71/restaurant-71.png","icon_background_color":"#FF9E67","icon_mask_base_uri":"https://maps.gstatic.com/mapfiles/place_api/icons/v2/restaurant_pinlet","name":"ORIENT EXPRESS","opening_hours":{"open_now":true},"photos":[{"height":2896,"html_attributions":["<a href=\"https://maps.google.com/maps/contrib/100549273858916394000\">Raili Ilmsalu</a>"],"photo_reference":"AeJbb3cf42SKOr_ppNd16ZSHsOrW7u2Bs6adg4Ooiw-6KGQUqJuYzRNT2uBmVyF_yodaIcnyA0brNFltS-aWOqmDIGgDMD6oc0-W57R_cvyTfX4-GYuHeoM19YnlP7yTWNWedBZV7AK6nkLP2yJHW6IU2QI81UJZ2pu996LmuSyRR7i2Aesa","width":5152}],"place_id":"ChIJX9fqhB31jUYRq0oxG4xplDw","plus_code":{"compound_code":"5P6Q+57 Espoo","global_code":"9GG65P6Q+57"},"price_level":1,"rating":4.1,"reference":"ChIJX9fqhB31jUYRq0oxG4xplDw","types":["restaurant","food","point_of_interest","establishment"],"user_ratings_total":199},{"business_status":"OPERATIONAL","formatted_address":"Tammiontie 1, 00630 Helsinki","geometry":{"location":{"lat":60.2316915,"lng":24.9347387},"viewport":{"northeast":{"lat":60.23304082989272,"lng":24.93613362989272},"southwest":{"lat":60.23034117010728,"lng":24.93343397010728}}},"icon":"https://maps.gstatic.com/mapfiles/place_api/icons/v1/png_71/restaurant-71.png","icon_background_color":"#FF9E67","icon_mask_base_uri":"https://maps.gstatic.com/mapfiles/place_api/icons/v2/restaurant_pinlet","name":"El Torito","opening_hours":{"open_now":true},"photos":[{"height":3072,"html_attributions":["<a href=\"https://maps.google.com/maps/contrib/101768998645996787973\">Tanel Tuuha</a>"],"photo_reference":"AeJbb3ewhuYNZ2ugP64EK3yWLsig-eehAYXJSh37j6w6SUjCrgxh-9loIrsWc5wsVSKRt_xDBDSLDa2aid3zkUhiN2yCU1MYEl2TpdQjRHkczO-6RvxQIsGa1nfjUeEe_56niNH8i-wleyEZ48xJbBSjF-fHeQCu3N4Ex2favch-3AG7gVsK","width":4096}],"place_id":"ChIJ2Xs9O-oJkkYR1VBQFElvnW4","plus_code":{"compound_code":"6WJM+MR Helsinki","global_code":"9GG66WJM+MR"},"price_level":2,"rating":4.1,"reference":"ChIJ2Xs9O-oJkkYR1VBQFElvnW4","types":["restaurant","food","point_of_interest","establishment"],"user_ratings_total":142},{"business_status":"OPERATIONAL","formatted_address":"Tietotie 3, 02150 Espoo","geometry":{"location":{"lat":60.18482840000001,"lng":24.818398},"viewport":{"northeast":{"lat":60.18615732989272,"lng":24.81984857989272},"southwest":{"lat":60.18345767010727,"lng":24.81714892010728}}},"icon":"https://maps.gstatic.com/mapfiles/place_api/icons/v1/png_71/restaurant-71.png","icon_background_color":"#FF9E67","icon_mask_base_uri":"https://maps.gstatic.com/mapfiles/place_api/icons/v2/restaurant_pinlet","name":"nova Maukas","opening_hours":{"open_now":false},"place_id":"ChIJoQyVMc71jUYRqz_0VYoUc30","plus_code":{"compound_code":"5RM9+W9 Espoo","global_code":"9GG65RM9+W9"},"price_level":2,"rating":4.1,"reference":"ChIJoQyVMc71jUYRqz_0VYoUc30","types":["restaurant","food","point_of_interest","establishment"],"user_ratings_total":12},{"business_status":"OPERATIONAL","formatted_address":"Asema-aukio 2, 00100 Helsinki","geometry":{"location":{"lat":60.170628,"lng":24.9385121},"viewport":{"northeast":{"lat":60.17186852989273,"lng":24.94032527989272},"southwest":{"lat":60.16916887010728,"lng":24.93762562010728}}},"icon":"https://maps.gstatic.com/mapfiles/place_api/icons/v1/png_71/restaurant-71.png","icon_background_color":"#FF9E67","icon_mask_base_uri":"https://maps.gstatic.com/mapfiles/place_api/icons/v2/restaurant_pinlet","name":"Casa Largo","opening_hours":{"open_now":true},"photos":[{"height":2976,"html_attributions":["<a href=\"https://maps.google.com/maps/contrib/111558722894332953149\">Veli Luhtala</a>"],"photo_reference":"AeJbb3dVmaBaMhbuB3TdzaOZgINgywmR4igPamF7CpQtDAGEoa-tPn9zNQ-7R1KFBSkk1KlCUTwDvWXaPied_LJq578q5_r14ybU4EfcSl0CDqv-PRPGiAmWHXXQxi-JnTznA8SF5gl1LDa9zWFphJs0mzdQQtzKdtsLXeUNfI8naSdgNSV0","width":3968}],"place_id":"ChIJdeP45swLkkYRU0ZvDBQ0-Q4","plus_code":{"compound_code":"5WCQ+7C Helsinki","global_code":"9GG65WCQ+7C"},"price_level":2,"rating":4,"reference":"ChIJdeP45swLkkYRU0ZvDBQ0-Q4","types":["restaurant","food","point_of_interest","establishment"],"user_ratings_total":1637},{"business_status":"OPERATIONAL","formatted_address":"Mikonkatu 9, 00100 Helsinki","geometry":{"location":{"lat":60.1699412,"lng":24.9455812},"viewport":{"northeast":{"lat":60.17128777989272,"lng":24.94683972989272},"southwest":{"lat":60.16858812010727,"lng":24.94414007010727}}},"icon":"https://maps.gstatic.com/mapfiles/place_api/icons/v1/png_71/restaurant-71.png","icon_background_color":"#FF9E67","icon_mask_base_uri":"https://maps.gstatic.com/mapfiles/place_api/icons/v2/restaurant_pinlet","name":"Restaurant Penélope","opening_hours":{"open_now":true},"photos":[{"height":3024,"html_attributions":["<a href=\"https://maps.google.com/maps/contrib/102219722676133589035\">Antti Niitynpää</a>"],"photo_reference":"AeJbb3ftdWMTIZeZYWTOgeYpaJqIICIdK7S0yfN7qZIl1bvy-z6r6f6f23AfD0UK20zxPA00jP2uaWiR9xgYlG769qGTl8Yv4ZJdRsvAjrD3Upk3Sa5lHPLK7ChnlUUclZiJelb15brpVIcUAXDxAnFEt-MS4zGeFwk8luFiwBbETSqqhHBp","width":4032}],"place_id":"ChIJB3auLAgLkkYRgHgGmBbQDLU","plus_code":{"compound_code":"5W9W+X6 Helsinki","global_code":"9GG65W9W+X6"},"price_level":3,"rating":4,"reference":"ChIJB3auLAgLkkYRgHgGmBbQDLU","types":["restaurant","food","point_of_interest","establishment"],"user_ratings_total":351},{"business_status":"OPERATIONAL","formatted_address":"Unioninkatu 20, 00130 Helsinki","geometry":{"location":{"lat":60.1658333,"lng":24.9511111},"viewport":{"northeast":{"lat":60.16731827989272,"lng":24.9518261},"southwest":{"lat":60.16461862010728,"lng":24.9489661}}},"icon":"https://maps.gstatic.com/mapfiles/place_api/icons/v1/png_71/restaurant-71.png","icon_background_color":"#FF9E67","icon_mask_base_uri":"https://maps.gstatic.com/mapfiles/place_api/icons/v2/restaurant_pinlet","name":"Tapahtumatalo Bank","opening_hours":{"open_now":false},"photos":[{"height":2976,"html_attributions":["<a href=\"https://maps.google.com/maps/contrib/110390680758545783070\">Manuel Furlotti</a>"],"photo_reference":"AeJbb3eimQm1LTR6btHvz3U-WkTsVpX9aSD1KClWguq42TxWwwXobwPQlmcMoOF1fli8mnJ5ckex6YOxohpO8-tL0gd-Fkj4a12D25fLMWNkMxP9hvYIT9u5lzH7i6oKt5fLE8LRkon98rJAiJdmDuM3XIKiAzr_2mDSVO95YpPKmWt97R7u","width":3968}],"place_id":"ChIJlaOFSs8LkkYRDDlWIi29yIk","plus_code":{"compound_code":"5X82+8C Helsinki","global_code":"9GG65X82+8C"},"price_level":2,"rating":4,"reference":"ChIJlaOFSs8LkkYRDDlWIi29yIk","types":["restaurant","food","point_of_interest","establishment"],"user_ratings_total":304},{"business_status":"OPERATIONAL","formatted_address":"Aleksanterinkatu 46, 00100 Helsinki","geometry":{"location":{"lat":60.16880560000001,"lng":24.9451075},"viewport":{"northeast":{"lat":60.16962162989272,"lng":24.94656262989272},"southwest":{"lat":60.16692197010728,"lng":24.94386297010728}}},"icon":"https://maps.gstatic.com/mapfiles/place_api/icons/v1/png_71/restaurant-71.png","icon_background_color":"#FF9E67","icon_mask_base_uri":"https://maps.gstatic.com/mapfiles/place_api/icons/v2/restaurant_pinlet","name":"Tapas BarCelona","opening_hours":{"open_now":true},"photos":[{"height":2160,"html_attributions":["<a href=\"https://maps.google.com/maps/contrib/112556628522582656799\">oskari martti</a>"],"photo_reference":"AeJbb3fVaNtnjBUSWYnwG2FuJ8rJeSUN0yT4EzUunMKimHHx9DyDSwnjk0ZAtQIZdBvef-qDpIPP4dHY56m2bsnlh2Fd2i8onS8d-5xuPerXMMtWZHVoJ_6nr0tJhc4PMAkWuvS4nD6pKmGdb7r4m-jwiAdkw7j99XMDvqx4vNdzQ2toi0iR","width":3840}],"place_id":"ChIJ3-_8pM4LkkYRDnmjnwtp2ls","plus_code":{"compound_code":"5W9W+G2 Helsinki","global_code":"9GG65W9W+G2"},"price_level":2,"rating":4,"reference":"ChIJ3-_8pM4LkkYRDnmjnwtp2ls","types":["restaurant","food","point_of_interest","establishment"],"user_ratings_total":283},{"business_status":"OPERATIONAL","formatted_address":"Fredrikinkatu 51, 00100 Helsinki","geometry":{"location":{"lat":60.1670452,"lng":24.933525},"viewport":{"northeast":{"lat":60.16835817989273,"lng":24.93477027989272},"southwest":{"lat":60.16565852010728,"lng":24.93207062010728}}},"icon":"https://maps.gstatic.com/mapfiles/place_api/icons/v1/png_71/restaurant-71.png","icon_background_color":"#FF9E67","icon_mask_base_uri":"https://maps.gstatic.com/mapfiles/place_api/icons/v2/restaurant_pinlet","name":"Latin Bistro & Bar Maestro 51","opening_hours":{"open_now":true},"photos":[{"height":2000,"html_attributions":["<a href=\"https://maps.google.com/maps/contrib/103782587725217268579\">A Google User</a>"],"photo_reference":"AeJbb3f97f-ff2PIska0T7GAWjvDNadzUGVmUhyP5X4vWktCZNSN3T0v1OT_Kd6V8TwdxwAB1dRZO2CHP342CQYz39ad1y_cDJACcfUo7O-OvM2mcSaAqHsq7f7_sufb7CpZhO__oJOl-zhrQOZDe5aedZzT-xD_yCdM3pM6ThQb7Eo30Yv1","width":3000}],"place_id":"ChIJi8f_v6sLkkYR9VUcRTOkLnI","plus_code":{"compound_code":"5W8M+RC Helsinki","global_code":"9GG65W8M+RC"},"rating":4,"reference":"ChIJi8f_v6sLkkYR9VUcRTOkLnI","types":["restaurant","food","point_of_interest","establishment"],"user_ratings_total":3},{"business_status":"OPERATIONAL","formatted_address":"Raumantie 1, 00350 Helsinki","geometry":{"location":{"lat":60.20615249999999,"lng":24.8769321},"viewport":{"northeast":{"lat":60.20720612989273,"lng":24.87838312989272},"southwest":{"lat":60.20450647010728,"lng":24.87568347010728}}},"icon":"https://maps.gstatic.com/mapfiles/place_api/icons/v1/png_71/restaurant-71.png","icon_background_color":"#FF9E67","icon_mask_base_uri":"https://maps.gstatic.com/mapfiles/place_api/icons/v2/restaurant_pinlet","name":"Ristorante E’Milano","opening_hours":{"open_now":true},"photos":[{"height":683,"html_attributions":["<a href=\"https://maps.google.com/maps/contrib/101632113383697186073\">A Google User</a>"],"photo_reference":"AeJbb3eFsinfWb3Gj5O2mk0sGWACPJIQXxxT9lVs4LxaTIbI9mQ_qE4QoiJg5bbWMLZEeV7GIEno6qtTrZFoqothQ1f2WvcEUiy0hhvCcFNIztVA9VkQl40E7YM434T4l8lhQ6zHsyGpXwt_Eu7_q-4a-BfTRKz7NVKcCrf8I2yELQo3LWqf","width":960}],"place_id":"ChIJ1bXuFyL3jUYRJXN3Ir_RQ0I","plus_code":{"compound_code":"6V4G+FQ Helsinki","global_code":"9GG66V4G+FQ"},"rating":3.9,"reference":"ChIJ1bXuFyL3jUYRJXN3Ir_RQ0I","types":["restaurant","food","point_of_interest","establishment"],"user_ratings_total":23},{"business_status":"OPERATIONAL","formatted_address":"Paasivuorenkatu 2a, 00530 Helsinki","geometry":{"location":{"lat":60.17817149999999,"lng":24.9490174},"viewport":{"northeast":{"lat":60.17948232989271,"lng":24.95083967989272},"southwest":{"lat":60.17678267010727,"lng":24.94814002010728}}},"icon":"https://maps.gstatic.com/mapfiles/place_api/icons/v1/png_71/restaurant-71.png","icon_background_color":"#FF9E67","icon_mask_base_uri":"https://maps.gstatic.com/mapfiles/place_api/icons/v2/restaurant_pinlet","name":"Taqueria Lopez y Lopez, Siltasaari","opening_hours":{"open_now":true},"photos":[{"height":4000,"html_attributions":["<a href=\"https://maps.google.com/maps/contrib/105940555545536806842\">Patrik Sahiluoma</a>"],"photo_reference":"AeJbb3cfTxCkwBDREq5axBmhTfz_yqUp3w_NVZHkPTuDuKCHJPRJtDxED_Ad1xz0BhHCHbOmwpAEk7tXOUTsZc403Ega5CSF_yFoWmtEvDGXu1MD7qF2s_ySiKqe_c-isQgvrrLRjSjxmlUoE5k5TILTRzngRA-LrSLj38nKPAgc1obptB0","width":3000}],"place_id":"ChIJVfQzFtkLkkYRhzogMBqkZKw","plus_code":{"compound_code":"5WHX+7J Helsinki","global_code":"9GG65WHX+7J"},"rating":3.9,"reference":"ChIJVfQzFtkLkkYRhzogMBqkZKw","types":["restaurant","food","point_of_interest","establishment"],"user_ratings_total":10},{"business_status":"OPERATIONAL","formatted_address":"Marinsatamantie 10, 02320 Espoo","geometry":{"location":{"lat":60.1558749,"lng":24.6244879},"viewport":{"northeast":{"lat":60.15722027989273,"lng":24.62584537989272},"southwest":{"lat":60.15452062010728,"lng":24.62314572010728}}},"icon":"https://maps.gstatic.com/mapfiles/place_api/icons/v1/png_71/restaurant-71.png","icon_background_color":"#FF9E67","icon_mask_base_uri":"https://maps.gstatic.com/mapfiles/place_api/icons/v2/restaurant_pinlet","name":"Ravintola Marine","opening_hours":{"open_now":true},"photos":[{"height":2272,"html_attributions":["<a href=\"https://maps.google.com/maps/contrib/100780443431219472311\">Ulla Andersson</a>"],"photo_reference":"AeJbb3d60m1IOD8BnuKOAK5L2ZTSavErvcXQkHVb8qXWFeHvx3Gv8o_RXoGW_gL9LF3YtJpkMB9ub1LdpQFrTG1SqAjMXtL1kP3seOun-BFAw6cm9DmTg-VaauMI5gIl20UC4L7IwN7QIzWzn7jwzCxvfgJxFr4A5h2koJQ03LMevOycaTic","width":4608}],"place_id":"ChIJs4lw5FPzjUYRT5itntzwMZ0","plus_code":{"compound_code":"5J4F+8R Espoo","global_code":"9GG65J4F+8R"},"price_level":2,"rating":3.8,"reference":"ChIJs4lw5FPzjUYRT5itntzwMZ0","types":["restaurant","food","point_of_interest","establishment"],"user_ratings_total":432},{"business_status":"OPERATIONAL","formatted_address":"Kaivokatu 8, 00100 Helsinki","geometry":{"location":{"lat":60.1693756,"lng":24.9417209},"viewport":{"northeast":{"lat":60.17094757989273,"lng":24.94364797989272},"southwest":{"lat":60.16824792010728,"lng":24.94094832010728}}},"icon":"https://maps.gstatic.com/mapfiles/place_api/icons/v1/png_71/restaurant-71.png","icon_background_color":"#FF9E67","icon_mask_base_uri":"https://maps.gstatic.com/mapfiles/place_api/icons/v2/restaurant_pinlet","name":"Fafa's","opening_hours":{"open_now":true},"photos":[{"height":2448,"html_attributions":["<a href=\"https://maps.google.com/maps/contrib/116771837002430802149\">Marie-Audrey Turmel</a>"],"photo_reference":"AeJbb3ebg-97eLoAiBV0vwo2iNIUAZdQcB2qS0vMjFgBUR5lyWHAD62N58UlA612KjvvfUDyekOARivshu3eB-WCahE4PNignWHP_Gus1ijgABfK8Zk2eaZjuuHbIeipsQRigs9zP85cgNmBZHoDPjJQLqhD8s1glYUpEo2mVJIbr5wDujED","width":3264}],"place_id":"ChIJIwH2WswLkkYRSXivrLRsNQw","plus_code":{"compound_code":"5W9R+QM Helsinki","global_code":"9GG65W9R+QM"},"price_level":2,"rating":3.8,"reference":"ChIJIwH2WswLkkYRSXivrLRsNQw","types":["cafe","restaurant","food","point_of_interest","establishment"],"user_ratings_total":168},{"business_status":"OPERATIONAL","formatted_address":"Hietalahdenlaituri, 00150 Helsinki","geometry":{"location":{"lat":60.16006849999999,"lng":24.9291658},"viewport":{"northeast":{"lat":60.16149802989272,"lng":24.93059342989272},"southwest":{"lat":60.15879837010727,"lng":24.92789377010728}}},"icon":"https://maps.gstatic.com/mapfiles/place_api/icons/v1/png_71/restaurant-71.png","icon_background_color":"#FF9E67","icon_mask_base_uri":"https://maps.gstatic.com/mapfiles/place_api/icons/v2/restaurant_pinlet","name":"Restaurant Boat Wäiski","opening_hours":{"open_now":false},"photos":[{"height":3096,"html_attributions":["<a href=\"https://maps.google.com/maps/contrib/108169179359481374052\">Jari Virtanen</a>"],"photo_reference":"AeJbb3e_V0-oKqi4s7Pr9xC9A0SzszK0kowZlVWw_9d1uwMpypwVOudY4YWHsWVEafFeCOSeWjP-cueE16oqZfw38BZjY8XBkTAR7Npst0dlQLpGjUhlwXjihRsLBHNXit8Ie9PopEr-otz1sQu4X70zwmm3az9ozpBy6oITgMC1qPehYYAv","width":4128}],"place_id":"ChIJc_L3Nw0LkkYRDANhE1CGagM","plus_code":{"compound_code":"5W6H+2M Helsinki","global_code":"9GG65W6H+2M"},"rating":3.7,"reference":"ChIJc_L3Nw0LkkYRDANhE1CGagM","types":["restaurant","food","point_of_interest","establishment"],"user_ratings_total":116},{"business_status":"OPERATIONAL","formatted_address":"Tehtaankatu 12, 00140 Helsinki","geometry":{"location":{"lat":60.15841889999999,"lng":24.9497032},"viewport":{"northeast":{"lat":60.15980932989271,"lng":24.95119157989272},"southwest":{"lat":60.15710967010727,"lng":24.94849192010728}}},"icon":"https://maps.gstatic.com/mapfiles/place_api/icons/v1/png_71/restaurant-71.png","icon_background_color":"#FF9E67","icon_mask_base_uri":"https://maps.gstatic.com/mapfiles/place_api/icons/v2/restaurant_pinlet","name":"Ravintola Restaurant","place_id":"ChIJOxMwargLkkYRsUC9aJ9uUrs","plus_code":{"compound_code":"5W5X+9V Helsinki","global_code":"9GG65W5X+9V"},"rating":0,"reference":"ChIJOxMwargLkkYRsUC9aJ9uUrs","types":["restaurant","food","point_of_interest","establishment"],"user_ratings_total":0},{"business_status":"OPERATIONAL","formatted_address":"Fredrikinkatu 37, 00120 Helsinki","geometry":{"location":{"lat":60.1642139,"lng":24.9374897},"viewport":{"northeast":{"lat":60.16553317989273,"lng":24.93874752989272},"southwest":{"lat":60.16283352010728,"lng":24.93604787010728}}},"icon":"https://maps.gstatic.com/mapfiles/place_api/icons/v1/png_71/restaurant-71.png","icon_background_color":"#FF9E67","icon_mask_base_uri":"https://maps.gstatic.com/mapfiles/place_api/icons/v2/restaurant_pinlet","name":"Kitch Eat & Drink","place_id":"ChIJjVOzQMoLkkYRHl-PizJzKow","plus_code":{"compound_code":"5W7P+MX Helsinki","global_code":"9GG65W7P+MX"},"rating":0,"reference":"ChIJjVOzQMoLkkYRHl-PizJzKow","types":["restaurant","food","point_of_interest","establishment"],"user_ratings_total":0}]