[{"business_status":"OPERATIONAL","formatted_address":"Via Paolo Sarpi, 25, 20154 Milano MI","geometry":{"location":{"lat":45.48132630000001,"lng":9.1762072},"viewport":{"northeast":{"lat":45.48271752989272,"lng":9.177378779892724},"southwest":{"lat":45.48001787010728,"lng":9.17467912010728}}},"icon":"https://maps.gstatic.com/mapfiles/place_api/icons/v1/png_71/restaurant-71.png","icon_background_color":"#FF9E67","icon_mask_base_uri":"https://maps.gstatic.com/mapfiles/place_api/icons/v2/restaurant_pinlet","name":"Mo","opening_hours":{"open_now":true},"photos":[{"height":1702,"html_attributions":["<a href=\"https://maps.google.com/maps/contrib/106486926744701432069\">A Google User</a>"],"photo_reference":"AeJbb3fKxjlRYtTOakPuCEP6bGggp8wx77C4o7RacQ2J98wLYcJYizUahZs-OEsjDFU4bdra7XP284cRc_9AFkEFrLKpgWVsKW6PhfVfEpRdezX2KpBB5bwOpxOFEMXigEgT_Fo_9W6ol5O6xbyF27TXXr6eI84aNoOXg0fOCdDir2TcvVlP","width":1276}],"place_id":"ChIJkQw2eh3BhkcRjwFmAkirYE4","plus_code":{"compound_code":"F5JG+GF Milan, Metropolitan City of Milan","global_code":"8FQFF5JG+GF"},"rating":4.9,"reference":"ChIJkQw2eh3BhkcRjwFmAkirYE4","types":["restaurant","food","point_of_interest","establishment"],"user_ratings_total":229},{"business_status":"OPERATIONAL","formatted_address":"Via Luigi Canonica, 71, 20154 Milano MI","geometry":{"location":{"lat":45.4801788,"lng":9.1714136},"viewport":{"northeast":{"lat":45.48157142989272,"lng":9.172805979892722},"southwest":{"lat":45.47887177010728,"lng":9.170106320107278}}},"icon":"https://maps.gstatic.com/mapfiles/place_api/icons/v1/png_71/restaurant-71.png","icon_background_color":"#FF9E67","icon_mask_base_uri":"https://maps.gstatic.com/mapfiles/place_api/icons/v2/restaurant_pinlet","name":"Ravioleria Su Fantasy 苏家饺子","opening_hours":{"open_now":true},"photos":[{"height":4032,"html_attributions":["<a href=\"https://maps.google.com/maps/contrib/113388776318054203594\">Sab Ra</a>"],"photo_reference":"AeJbb3fbybBh3ES3gbcUGCxTJ8Rqy991bsgQZOUcp7rlMMmwugZohylppFR3XB5Klrh9FleIkFuVlLZe2jbmk-_Y_3-FP_032mSiXFNJvsvvIPxwl82UKtU9aJ75_-_HrnwD1CKcd_4QPHIS4x6jLVSAm0AT55--ZO3LDOJ5WNr-9vD2aNiC","width":2268}],"place_id":"ChIJ_9Jqx1LBhkcRxt6R5Ci0SWY","plus_code":{"compound_code":"F5JC+3H Milan, Metropolitan City of Milan","global_code":"8FQFF5JC+3H"},"rating":4.9,"reference":"ChIJ_9Jqx1LBhkcRxt6R5Ci0SWY","types":["restaurant","food","point_of_interest","establishment"],"user_ratings_total":55},{"business_status":"OPERATIONAL","formatted_address":"Via Broletto, 26, 20121 Milano MI","geometry":{"location":{"lat":45.467151,"lng":9.1860159},"viewport":{"northeast":{"lat":45.46848152989273,"lng":9.18726757989272},"southwest":{"lat":45.46578187010729,"lng":9.184567920107277}}},"icon":"https://maps.gstatic.com/mapfiles/place_api/icons/v1/png_71/restaurant-71.png","icon_background_color":"#FF9E67","icon_mask_base_uri":"https://maps.gstatic.com/mapfiles/place_api/icons/v2/restaurant_pinlet","name":"Ravioli Box","opening_hours":{"open_now":true},"photos":[{"height":3000,"html_attributions":["<a href=\"https://maps.google.com/maps/contrib/118210594640655580122\">Alessia Prina</a>"],"photo_reference":"AeJbb3ew5w9OBOOWOketpCXi_WRh6LktWiy4cFMpReY4u4LQ6JPjNEgOJm1noglnoCd1BTdL3ZPFxl2P_Sw7ctsuzW41VCWtjxievr8dIBUqkEMdiyA9zbLtki8cgu0Yq1DZum-iN1fxN5AS-4oG94fYaitjnXOrjsS99N-MJSBlhShHQF5F","width":4000}],"place_id":"ChIJwaun8bvHhkcRzQFXaXO3_u4","plus_code":{"compound_code":"F58P+V9 Milan, Metropolitan City of Milan","global_code":"8FQFF58P+V9"},"rating":4.9,"reference":"ChIJwaun8bvHhkcRzQFXaXO3_u4","types":["restaurant","food","point_of_interest","establishment"],"user_ratings_total":35},{"business_status":"OPERATIONAL","formatted_address":"Via Vitruvio, 38, 20124 Milano MI","geometry":{"location":{"lat":45.4827113,"lng":9.2063036},"viewport":{"northeast":{"lat":45.48401807989272,"lng":9.20760717989272},"southwest":{"lat":45.48131842010728,"lng":9.204907520107277}}},"icon":"https://maps.gstatic.com/mapfiles/place_api/icons/v1/png_71/restaurant-71.png","icon_background_color":"#FF9E67","icon_mask_base_uri":"https://maps.gstatic.com/mapfiles/place_api/icons/v2/restaurant_pinlet","name":"TAO sushi & dimsum","opening_hours":{"open_now":true},"photos":[{"height":3809,"html_attributions":["<a href=\"https://maps.google.com/maps/contrib/109825343998388290441\">A Google User</a>"],"photo_reference":"AeJbb3dNw3U8gRvI3h7X7qj6qS3kNRzfkpS_t-gS-JOFAoCjQMTXd514s9jQUIefddcRuZ9BgqoXOTwrGEnyYxBX4UZB6Y3zNoicP0nRMgVR8hnf8Rdy_ThX3WSSEsr4HMTFDAzmPhCriQY2SHXtz2tWu4lkb_Vb2WdmKmuMH0k8BzVhXNNv","width":3809}],"place_id":"ChIJK_LdN4fHhkcR8UdS-WJEAxE","plus_code":{"compound_code":"F6M4+3G Milan, Metropolitan City of Milan","global_code":"8FQFF6M4+3G"},"price_level":1,"rating":4.8,"reference":"ChIJK_LdN4fHhkcR8UdS-WJEAxE","types":["restaurant","food","point_of_interest","establishment"],"user_ratings_total":253},{"business_status":"OPERATIONAL","formatted_address":"Generale Mac Mahon, 79, 20155 Milano MI","geometry":{"location":{"lat":45.493544,"lng":9.158151499999999},"viewport":{"northeast":{"lat":45.49491432989272,"lng":9.159531979892721},"southwest":{"lat":45.49221467010728,"lng":9.156832320107277}}},"icon":"https://maps.gstatic.com/mapfiles/place_api/icons/v1/png_71/restaurant-71.png","icon_background_color":"#FF9E67","icon_mask_base_uri":"https://maps.gstatic.com/mapfiles/place_api/icons/v2/restaurant_pinlet","name":"Bao Ravioleria","opening_hours":{"open_now":true},"photos":[{"height":4000,"html_attributions":["<a href=\"https://maps.google.com/maps/contrib/100933528479904714483\">Roberto Ortu</a>"],"photo_reference":"AeJbb3duPNZBcWy7zLvbvY0FdvZnqVyLUFsk3Yeewp4N6MBbj6NXjDTpH9rzXlCGyO3S-3G_YGNE8kfhFVlFuobRjbqVfwov0_7QfBKV_AbwYeF-rfovaC9eCt3rKx7ZrkAfAA8Zc2jiPnoN9QtPvCUWW9PFXx-cbCB3Z1ug1xFGbsgxIXBS","width":2256}],"place_id":"ChIJgSEiqI3BhkcRxSH1q4VCrUo","plus_code":{"compound_code":"F5V5+C7 Milan, Metropolitan City of Milan","global_code":"8FQFF5V5+C7"},"rating":4.8,"reference":"ChIJgSEiqI3BhkcRxSH1q4VCrUo","types":["restaurant","food","point_of_interest","establishment"],"user_ratings_total":36},{"business_status":"OPERATIONAL","formatted_address":"Viale Sabotino, 16, 20135 Milano MI","geometry":{"location":{"lat":45.4508447,"lng":9.2004255},"viewport":{"northeast":{"lat":45.45223137989272,"lng":9.20176877989272},"southwest":{"lat":45.44953172010727,"lng":9.199069120107277}}},"icon":"https://maps.gstatic.com/mapfiles/place_api/icons/v1/png_71/restaurant-71.png","icon_background_color":"#FF9E67","icon_mask_base_uri":"https://maps.gstatic.com/mapfiles/place_api/icons/v2/restaurant_pinlet","name":"Ji Li Ravioleria","opening_hours":{"open_now":true},"photos":[{"height":4032,"html_attributions":["<a href=\"https://maps.google.com/maps/contrib/106857450750584217753\">Luciano Manfra</a>"],"photo_reference":"AeJbb3fr8d0OVahrJhrQ7vn7xUE_Gmzc54P_F1kbGZ-WET-_eb4d5bPn8f_6rBu-AGAXVNkewtHdRtz1s5XpMe5m-9BbMkScSGZ39HP6UljDF_d7w7xtBRHX3FYiBpV6pGmDmIRKhh-uPU4_oqaHIfhKj35CS3qFSgShymGu8x59041K3Yiw","width":3024}],"place_id":"ChIJe7e7W3fFhkcRvb71LOc4yXw","plus_code":{"compound_code":"F622+85 Milan, Metropolitan City of Milan","global_code":"8FQFF622+85"},"rating":4.8,"reference":"ChIJe7e7W3fFhkcRvb71LOc4yXw","types":["restaurant","food","point_of_interest","establishment"],"user_ratings_total":34},{"business_status":"OPERATIONAL","formatted_address":"Via Paolo Sarpi, 50, 20154 Milano MI","geometry":{"location":{"lat":45.48122009999999,"lng":9.172661800000002},"viewport":{"northeast":{"lat":45.48257612989272,"lng":9.174149829892722},"southwest":{"lat":45.47987647010727,"lng":9.171450170107278}}},"icon":"https://maps.gstatic.com/mapfiles/place_api/icons/v1/png_71/restaurant-71.png","icon_background_color":"#FF9E67","icon_mask_base_uri":"https://maps.gstatic.com/mapfiles/place_api/icons/v2/restaurant_pinlet","name":"Xiao Hutong","opening_hours":{"open_now":true},"photos":[{"height":2016,"html_attributions":["<a href=\"https://maps.google.com/maps/contrib/117042589207132822346\">A Google User</a>"],"photo_reference":"AeJbb3eqwWRYBpVuErBGbwxqoEBm-JAhzZlmDFkWohPqwHdc0esomjyyWtgeCLA7rxSkoKjXPsrkPYcFM3oe4J51XAvNlf2NE2JUOzKWS3zV1VWzvI4HjdEZHC3RZfuvRDQMtL7zqbpnL1eTLKBj5tmy8_2vSRDBvEAOSmvS3SDSqExvo8H5","width":1612}],"place_id":"ChIJidip9d7BhkcRJOipD6SwK98","plus_code":{"compound_code":"F5JF+F3 Milan, Metropolitan City of Milan","global_code":"8FQFF5JF+F3"},"rating":4.8,"reference":"ChIJidip9d7BhkcRJOipD6SwK98","types":["restaurant","food","point_of_interest","establishment"],"user_ratings_total":33},{"business_status":"OPERATIONAL","formatted_address":"Viale Bligny, 26, 20136 Milano MI","geometry":{"location":{"lat":45.450823,"lng":9.1908576},"viewport":{"northeast":{"lat":45.45224332989272,"lng":9.19222717989272},"southwest":{"lat":45.44954367010727,"lng":9.189527520107276}}},"icon":"https://maps.gstatic.com/mapfiles/place_api/icons/v1/png_71/restaurant-71.png","icon_background_color":"#FF9E67","icon_mask_base_uri":"https://maps.gstatic.com/mapfiles/place_api/icons/v2/restaurant_pinlet","name":"Delicious Baobing","opening_hours":{"open_now":true},"photos":[{"height":2610,"html_attributions":["<a href=\"https://maps.google.com/maps/contrib/105827104591005548576\">MrPalby</a>"],"photo_reference":"AeJbb3femCDfJz0lRW5sFtkomD7TSmWUbQx0nZ71jZcQ4ukJK5EJGFnAT-0YNETQNgyDxvmsuOKgoxXA_T1evVnDu0NbGTO4uEqiJRzEmn2HXMvga7Jm9DDywFIMvc2ynzgQo5VMEBXDs2E8BnQPi_7iSIAUS2s7JyEdc4nBFHyHvVCXFIG4","width":4640}],"place_id":"ChIJ9T1u1QTEhkcRTkTGF465BrY","plus_code":{"compound_code":"F52R+88 Milan, Metropolitan City of Milan","global_code":"8FQFF52R+88"},"price_level":1,"rating":4.7,"reference":"ChIJ9T1u1QTEhkcRTkTGF465BrY","types":["meal_takeaway","restaurant","food","point_of_interest","establishment"],"user_ratings_total":619},{"business_status":"OPERATIONAL","formatted_address":"Via S. Rocco, 17, 20135 Milano MI","geometry":{"location":{"lat":45.4502032,"lng":9.202347699999999},"viewport":{"northeast":{"lat":45.45153767989272,"lng":9.203714579892722},"southwest":{"lat":45.44883802010727,"lng":9.201014920107278}}},"icon":"https://maps.gstatic.com/mapfiles/place_api/icons/v1/png_71/restaurant-71.png","icon_background_color":"#FF9E67","icon_mask_base_uri":"https://maps.gstatic.com/mapfiles/place_api/icons/v2/restaurant_pinlet","name":"JiaoZi e Bollicine","opening_hours":{"open_now":true},"photos":[{"height":456,"html_attributions":["<a href=\"https://maps.google.com/maps/contrib/113235471795298888095\">A Google User</a>"],"photo_reference":"AeJbb3dX5R7aUFE0wc7OTXhrAKCllaSqf5Yo1tTEsGk7nuT4i0Cak-_O7N08m4-uiz9KHBJROEZ9hVtOMtN1uH8plUvrp6ovBhZHMEuDjUx9lpk6HKCAzqMedC_kAWqMUPm87ipkwuiNpcD5S0OfHw8PR1IEjhTNHsFMRIJrYuiDWXiGbLaH","width":603}],"place_id":"ChIJgxxhB_3FhkcRj9u_3bwwBL8","plus_code":{"compound_code":"F622+3W Milan, Metropolitan City of Milan","global_code":"8FQFF622+3W"},"rating":4.7,"reference":"ChIJgxxhB_3FhkcRj9u_3bwwBL8","types":["restaurant","food","point_of_interest","establishment"],"user_ratings_total":102},{"business_status":"OPERATIONAL","formatted_address":"Via Giovanni Celoria, 1, 20133 Milano MI","geometry":{"location":{"lat":45.4768634,"lng":9.2274095},"viewport":{"northeast":{"lat":45.47822102989272,"lng":9.228759229892722},"southwest":{"lat":45.47552137010727,"lng":9.226059570107278}}},"icon":"https://maps.gstatic.com/mapfiles/place_api/icons/v1/png_71/restaurant-71.png","icon_background_color":"#FF9E67","icon_mask_base_uri":"https://maps.gstatic.com/mapfiles/place_api/icons/v2/restaurant_pinlet","name":"Baozi dumplings","opening_hours":{"open_now":true},"photos":[{"height":3840,"html_attributions":["<a href=\"https://maps.google.com/maps/contrib/113900776475961901145\">Andrea Benedetto</a>"],"photo_reference":"AeJbb3cwccUbTb57wMi0e2Mg_YZw3r-UjKUG9-AQ0Z3_OJNHVOMhc-ERpuuzANrhFer7PPYmOiUn86ci7HDYGdOApBGc39xnG6_wlHil4_wBzJK6vGMYaA-sIeMisb5RVcKu1T41zmmq1VJ4tfYAePR3Vlv7SurEk1r68ImSmXPluFFvydr-","width":2160}],"place_id":"ChIJ3z4OLanHhkcRPg0wnOSHVDs","plus_code":{"compound_code":"F6GG+PX Milan, Metropolitan City of Milan","global_code":"8FQFF6GG+PX"},"rating":4.7,"reference":"ChIJ3z4OLanHhkcRPg0wnOSHVDs","types":["restaurant","food","point_of_interest","establishment"],"user_ratings_total":7},{"business_status":"OPERATIONAL","formatted_address":"Via Rubens, 24, 20148 Milano MI","geometry":{"location":{"lat":45.4674129,"lng":9.1426248},"viewport":{"northeast":{"lat":45.46872017989273,"lng":9.143978829892722},"southwest":{"lat":45.46602052010728,"lng":9.141279170107278}}},"icon":"https://maps.gstatic.com/mapfiles/place_api/icons/v1/png_71/restaurant-71.png","icon_background_color":"#FF9E67","icon_mask_base_uri":"https://maps.gstatic.com/mapfiles/place_api/icons/v2/restaurant_pinlet","name":"La Collina d'Oro","opening_hours":{"open_now":true},"photos":[{"height":2988,"html_attributions":["<a href=\"https://maps.google.com/maps/contrib/101271282755393585080\">Marika Calcinardi</a>"],"photo_reference":"AeJbb3cSOFQly6zi1QCc79D67GL3wWwRGJFme6N1nkPvyZTRZnOLAbo8T98RVj6S8ShlyDyDlBD_1CDmcdnFd1ZqKja7RlZwYcmToFm4QSgd3fqQ7cGlW96Ekhthe7ZZdzc7qYxJIITQXZnoHIwDzUMsK3h57m8tpGYZqPySVEgnmnJ1gXaJ","width":5312}],"place_id":"ChIJTZGlOHnBhkcRAha643ausgY","plus_code":{"compound_code":"F48V+X2 Milan, Metropolitan City of Milan","global_code":"8FQFF48V+X2"},"price_level":2,"rating":4.6,"reference":"ChIJTZGlOHnBhkcRAha643ausgY","types":["restaurant","food","point_of_interest","establishment"],"user_ratings_total":627},{"business_status":"OPERATIONAL","formatted_address":"Via Pietro Borsieri, 41, 20159 Milano MI","geometry":{"location":{"lat":45.4897029,"lng":9.1889284},"viewport":{"northeast":{"lat":45.49102287989272,"lng":9.190357829892722},"southwest":{"lat":45.48832322010728,"lng":9.187658170107278}}},"icon":"https://maps.gstatic.com/mapfiles/place_api/icons/v1/png_71/restaurant-71.png","icon_background_color":"#FF9E67","icon_mask_base_uri":"https://maps.gstatic.com/mapfiles/place_api/icons/v2/restaurant_pinlet","name":"Olo-Olo Ravioleria","opening_hours":{"open_now":true},"photos":[{"height":3024,"html_attributions":["<a href=\"https://maps.google.com/maps/contrib/103102389086835576292\">Andrea Credaro</a>"],"photo_reference":"AeJbb3eSvINKSKGAAE8fTpba7im2IIsLeJRZd0fLVDvqSZFJZvC-lYx4XbrCX8fYhh0eZFzlKuLZD5Q3XVZGLaiOK2DFyEIZhI0D6B8tECt9UlJy3bLbGChwryxuYCvMPgyLjI3gr7OfxZT9h59BMFfqE3E11_aFe7jYjG3UEbuL-OqffQbe","width":4032}],"place_id":"ChIJ7bj1BFrBhkcR5gYycm3sfXg","plus_code":{"compound_code":"F5QQ+VH Milan, Metropolitan City of Milan","global_code":"8FQFF5QQ+VH"},"price_level":1,"rating":4.6,"reference":"ChIJ7bj1BFrBhkcR5gYycm3sfXg","types":["restaurant","food","point_of_interest","establishment"],"user_ratings_total":384},{"business_status":"OPERATIONAL","formatted_address":"Piazzale Luigi Cadorna, 8/1, 20123 Milano MI","geometry":{"location":{"lat":45.468181,"lng":9.176506},"viewport":{"northeast":{"lat":45.46943687989273,"lng":9.17799047989272},"southwest":{"lat":45.46673722010728,"lng":9.175290820107277}}},"icon":"https://maps.gstatic.com/mapfiles/place_api/icons/v1/png_71/cafe-71.png","icon_background_color":"#FF9E67","icon_mask_base_uri":"https://maps.gstatic.com/mapfiles/place_api/icons/v2/cafe_pinlet","name":"Yours Bubble Tea","opening_hours":{"open_now":true},"photos":[{"height":900,"html_attributions":["<a href=\"https://maps.google.com/maps/contrib/101241129604484033838\">shuhong zhu</a>"],"photo_reference":"AeJbb3fFKWVegPYPKAfT9BYq960k4QnDdHVvNTL9ZSkCN61h-vh2NG90Nk1hxUsRxhIFmUC5z3W7ZCDJLR6E8na5n_VhUzYevyoAh2yBQcAWVNYGocPPOLWUTpRVOu_gFLWfYz4MAtbVP3X_3dlKyCJV6BQF3HjVSvEclse9hBvKWzaNMLsk","width":900}],"place_id":"ChIJd0gqKU7BhkcR2FfAzEY3wAo","plus_code":{"compound_code":"F59G+7J Milan, Metropolitan City of Milan","global_code":"8FQFF59G+7J"},"price_level":1,"rating":4.6,"reference":"ChIJd0gqKU7BhkcR2FfAzEY3wAo","types":["cafe","restaurant","food","point_of_interest","establishment"],"user_ratings_total":166},{"business_status":"OPERATIONAL","formatted_address":"V.le Monza, 50, 20127 Milano MI","geometry":{"location":{"lat":45.492905,"lng":9.2189198},"viewport":{"northeast":{"lat":45.49426227989272,"lng":9.22021637989272},"southwest":{"lat":45.49156262010727,"lng":9.217516720107277}}},"icon":"https://maps.gstatic.com/mapfiles/place_api/icons/v1/png_71/restaurant-71.png","icon_background_color":"#FF9E67","icon_mask_base_uri":"https://maps.gstatic.com/mapfiles/place_api/icons/v2/restaurant_pinlet","name":"Wang guiren","opening_hours":{"open_now":true},"photos":[{"height":433,"html_attributions":["<a href=\"https://maps.google.com/maps/contrib/116014247945579394814\">A Google User</a>"],"photo_reference":"AeJbb3eI4gm4ji0-Yc7jDuchO8EX1j46TYuQyaKOdPkf5_S4NWCEyLnxH3iWKx2jq5eNLmk4XhCHcc87tk6CpX2BYPKqkWJ4d4mf3aLk8mwQD86BVn0s_8JB86DR7LdZvnzyDSqfhBTstBDm13zRQoN0Wyj8bQCv6GMn9pgaQAvXLzLbAICp","width":720}],"place_id":"ChIJMcWutr_HhkcRlRmWjQK4IwQ","plus_code":{"compound_code":"F6V9+5H Milan, Metropolitan City of Milan","global_code":"8FQFF6V9+5H"},"rating":4.6,"reference":"ChIJMcWutr_HhkcRlRmWjQK4IwQ","types":["meal_delivery","meal_takeaway","restaurant","food","point_of_interest","establishment"],"user_ratings_total":80},{"business_status":"OPERATIONAL","formatted_address":"Via Paolo Sarpi, 27, 20154 Milano MI","geometry":{"location":{"lat":45.4812802,"lng":9.1759905},"viewport":{"northeast":{"lat":45.48268802989272,"lng":9.177296379892724},"southwest":{"lat":45.47998837010727,"lng":9.17459672010728}}},"icon":"https://maps.gstatic.com/mapfiles/place_api/icons/v1/png_71/restaurant-71.png","icon_background_color":"#FF9E67","icon_mask_base_uri":"https://maps.gstatic.com/mapfiles/place_api/icons/v2/restaurant_pinlet","name":"Ravioleria Sarpi","opening_hours":{"open_now":true},"photos":[{"height":2304,"html_attributions":["<a href=\"https://maps.google.com/maps/contrib/110460806030863860465\">Consuelo Angioni</a>"],"photo_reference":"AeJbb3fZ56psKHA3GeKAnu8M1fWBVjl77SPfsECcKzCHeStKoq1fPweyWZMpCpKT9jltrtLcNXh-AGPmRt1yHa0LsWVicEATFE2KY3yO1SQKfl8UmR8_IZp4yCZTDSKm-x4EKBmgyZoJCEfIuvrLesVoB0ibuF-jW8oUqBmpiO5Ys7h_j-5_","width":3680}],"place_id":"ChIJ0SLMvjnBhkcRAJkKVvChWjM","plus_code":{"compound_code":"F5JG+G9 Milan, Metropolitan City of Milan","global_code":"8FQFF5JG+G9"},"price_level":1,"rating":4.5,"reference":"ChIJ0SLMvjnBhkcRAJkKVvChWjM","types":["restaurant","food","point_of_interest","establishment"],"user_ratings_total":3261},{"business_status":"OPERATIONAL","formatted_address":"Via Aminto Caretto, 3, 20124 Milano MI","geometry":{"location":{"lat":45.4828066,"lng":9.199688199999999},"viewport":{"northeast":{"lat":45.48419342989272,"lng":9.200866379892723},"southwest":{"lat":45.48149377010728,"lng":9.19816672010728}}},"icon":"https://maps.gstatic.com/mapfiles/place_api/icons/v1/png_71/restaurant-71.png","icon_background_color":"#FF9E67","icon_mask_base_uri":"https://maps.gstatic.com/mapfiles/place_api/icons/v2/restaurant_pinlet","name":"MU dimsum","opening_hours":{"open_now":false},"photos":[{"height":2937,"html_attributions":["<a href=\"https://maps.google.com/maps/contrib/107357759928271008692\">Claudio Moltedo</a>"],"photo_reference":"AeJbb3fUCMhkSawjzFLTprVbTfbl5nz4XgxV4gYt89u5o2HkrIuabmaooM6lqxCAauJQJk4UbgeSCdw5vU2e4mgcPfvXnFXV_YMz8lLMV2jt6OVwBaNI_LJKKa5FF8e_qqkM-pkJd20ibDodLIEJEsWJV03joUoYsxEweJGIbOjZf-thRIjS","width":3039}],"place_id":"ChIJ83nHDs_GhkcRcYLaKeVd4t0","plus_code":{"compound_code":"F5MX+4V Milan, Metropolitan City of Milan","global_code":"8FQFF5MX+4V"},"price_level":2,"rating":4.5,"reference":"ChIJ83nHDs_GhkcRcYLaKeVd4t0","types":["restaurant","food","point_of_interest","establishment"],"user_ratings_total":1041},{"business_status":"OPERATIONAL","formatted_address":"Via Garofalo, 22a, 20133 Milano MI","geometry":{"location":{"lat":45.4802075,"lng":9.2195837},"viewport":{"northeast":{"lat":45.48156612989272,"lng":9.220920129892724},"southwest":{"lat":45.47886647010728,"lng":9.21822047010728}}},"icon":"https://maps.gstatic.com/mapfiles/place_api/icons/v1/png_71/restaurant-71.png","icon_background_color":"#FF9E67","icon_mask_base_uri":"https://maps.gstatic.com/mapfiles/place_api/icons/v2/restaurant_pinlet","name":"Mandarin 2","opening_hours":{"open_now":false},"photos":[{"height":2736,"html_attributions":["<a href=\"https://maps.google.com/maps/contrib/107866161698929396373\">alberto milli</a>"],"photo_reference":"AeJbb3cLKgcMMT_vAMT3lMVFcHcA1fWN4Wd_kb4drAqvah_pscfSeisjRXQdLl6fWWVzU1m9-oaBMbxFrl_Uyd--hIDI-Qih_ttz4gJDHkK9DFW0DX1JB189MqSnjxZgZuGvwv5Q-shqN1so6d4bg9zlKlwJMwURNjFyiMowkTAwhb4qPq7O","width":3648}],"place_id":"ChIJCTYIlu7GhkcRqnslh8iexd0","plus_code":{"compound_code":"F6J9+3R Milan, Metropolitan City of Milan","global_code":"8FQFF6J9+3R"},"price_level":2,"rating":4.5,"reference":"ChIJCTYIlu7GhkcRqnslh8iexd0","types":["restaurant","food","point_of_interest","establishment"],"user_ratings_total":1011},{"business_status":"OPERATIONAL","formatted_address":"V.le Monza, 37, 20125 Milano MI","geometry":{"location":{"lat":45.48994810000001,"lng":9.2175803},"viewport":{"northeast":{"lat":45.49127457989272,"lng":9.219020729892723},"southwest":{"lat":45.48857492010728,"lng":9.216321070107279}}},"icon":"https://maps.gstatic.com/mapfiles/place_api/icons/v1/png_71/restaurant-71.png","icon_background_color":"#FF9E67","icon_mask_base_uri":"https://maps.gstatic.com/mapfiles/place_api/icons/v2/restaurant_pinlet","name":"Kung Fu Bao","opening_hours":{"open_now":true},"photos":[{"height":6944,"html_attributions":["<a href=\"https://maps.google.com/maps/contrib/118340426692957458018\">A Google User</a>"],"photo_reference":"AeJbb3c9eBis1EV435jfo_wu7JTq7TfSc4ZGb9EJDs7a753PQsxmZMuVomQySvy4XPvYV9bVEAitBbVUtq88Bd42YR6Uf3mwHYdS9bygqohe8tyNb9Ou1itrHduTkbD2iVgphE1rk1QX7iIxK0YCl2hl-48ykUNh3QHvKn-0mPZ4fFPo9U8G","width":9280}],"place_id":"ChIJXTPv3ODGhkcRu-6qqFoa0FY","plus_code":{"compound_code":"F6Q9+X2 Milan, Metropolitan City of Milan","global_code":"8FQFF6Q9+X2"},"price_level":1,"rating":4.5,"reference":"ChIJXTPv3ODGhkcRu-6qqFoa0FY","types":["restaurant","food","point_of_interest","establishment"],"user_ratings_total":795},{"business_status":"OPERATIONAL","formatted_address":"Viale Tunisia, 30, 20124 Milano MI","geometry":{"location":{"lat":45.4787171,"lng":9.202760699999999},"viewport":{"northeast":{"lat":45.48009282989272,"lng":9.203977729892722},"southwest":{"lat":45.47739317010728,"lng":9.201278070107278}}},"icon":"https://maps.gstatic.com/mapfiles/place_api/icons/v1/png_71/restaurant-71.png","icon_background_color":"#FF9E67","icon_mask_base_uri":"https://maps.gstatic.com/mapfiles/place_api/icons/v2/restaurant_pinlet","name":"Fan Wu","opening_hours":{"open_now":true},"photos":[{"height":4032,"html_attributions":["<a href=\"https://maps.google.com/maps/contrib/115239656475336433372\">Ellie</a>"],"photo_reference":"AeJbb3cJUgGQlb4ckvNf74dO3Bba2nEWZE0-57tolGO3EUXv0AOzArwR-NkXPLIb2APdkoxFQgHPX4_hjioNnxnZrMrG5Osc870syhGn82bU_zDro-NU4HVwkk5zA29qMKKsph5E1Fgi-Bzr8KuzCZmwjdGp9ZFKlvBSL4KOHew595LOM44k","width":3024}],"place_id":"ChIJL17GV8bGhkcRJ8uPmO3DgCI","plus_code":{"compound_code":"F6H3+G4 Milan, Metropolitan City of Milan","global_code":"8FQFF6H3+G4"},"price_level":1,"rating":4.5,"reference":"ChIJL17GV8bGhkcRJ8uPmO3DgCI","types":["restaurant","food","point_of_interest","establishment"],"user_ratings_total":520},{"business_status":"OPERATIONAL","formatted_address":"Via Casale, 3, 20144 Milano MI","geometry":{"location":{"lat":45.4523772,"lng":9.1701565},"viewport":{"northeast":{"lat":45.45379327989272,"lng":9.17143372989272},"southwest":{"lat":45.45109362010727,"lng":9.168734070107277}}},"icon":"https://maps.gstatic.com/mapfiles/place_api/icons/v1/png_71/restaurant-71.png","icon_background_color":"#FF9E67","icon_mask_base_uri":"https://maps.gstatic.com/mapfiles/place_api/icons/v2/restaurant_pinlet","name":"Fratelli Ravioli","opening_hours":{"open_now":true},"photos":[{"height":3024,"html_attributions":["<a href=\"https://maps.google.com/maps/contrib/115968242670899721832\">Andrea Guido Biasi</a>"],"photo_reference":"AeJbb3c3PIlpxqiOAvpwQ7xxhEbfIwLU1fu7AQTO8GZDG268qUq_RdKvVpO2IEdVPE_WJQYDiQq5t1gOue__H1nFdQg5ndVoRa0YAzc7ou0WsRJRSCM6uriGFONEPsgwa7_j7Zn9LtGMdcV7CzyBErhdfh0NSd5lQaJ5NqfspAe6zK37ZCB5","width":4032}],"place_id":"ChIJwaCA4vrDhkcRfMcy5WV4LHc","plus_code":{"compound_code":"F52C+X3 Milan, Metropolitan City of Milan","global_code":"8FQFF52C+X3"},"price_level":2,"rating":4.5,"reference":"ChIJwaCA4vrDhkcRfMcy5WV4LHc","types":["restaurant","food","point_of_interest","establishment"],"user_ratings_total":425},{"business_status":"OPERATIONAL","formatted_address":"Via Plinio, 37, 20129 Milano MI","geometry":{"location":{"lat":45.4772838,"lng":9.2164212},"viewport":{"northeast":{"lat":45.47858312989273,"lng":9.217717629892721},"southwest":{"lat":45.47588347010728,"lng":9.215017970107278}}},"icon":"https://maps.gstatic.com/mapfiles/place_api/icons/v1/png_71/restaurant-71.png","icon_background_color":"#FF9E67","icon_mask_base_uri":"https://maps.gstatic.com/mapfiles/place_api/icons/v2/restaurant_pinlet","name":"Bao House Taiwanese Street Food Milano","opening_hours":{"open_now":false},"photos":[{"height":3959,"html_attributions":["<a href=\"https://maps.google.com/maps/contrib/103624642719645219762\">Federica Calabrese</a>"],"photo_reference":"AeJbb3exGu_Bmu0Bye18oC3nwa3GsQdY1ltQhyqYn4wUay3PvifovsA78ibrMOtOSw-d6k9CJGJRoyiE-QpS_Vn_GgfP3z149xZXRcNd925mHgw0UNKtkA3Rju_eoscG_A_zmICP4fagRchd1GN3u60P3i_kEs6TEjueTEAdhlvKTZyWTZzL","width":2304}],"place_id":"ChIJIzvEguvGhkcRdTKZ1pC_4Xk","plus_code":{"compound_code":"F6G8+WH Milan, Metropolitan City of Milan","global_code":"8FQFF6G8+WH"},"rating":4.5,"reference":"ChIJIzvEguvGhkcRdTKZ1pC_4Xk","types":["restaurant","food","point_of_interest","establishment"],"user_ratings_total":377},{"business_status":"OPERATIONAL","formatted_address":"Via Gustavo Fara, 15, 20124 Milano MI","geometry":{"location":{"lat":45.4833393,"lng":9.1980565},"viewport":{"northeast":{"lat":45.48470917989272,"lng":9.199471029892722},"southwest":{"lat":45.48200952010727,"lng":9.196771370107278}}},"icon":"https://maps.gstatic.com/mapfiles/place_api/icons/v1/png_71/restaurant-71.png","icon_background_color":"#FF9E67","icon_mask_base_uri":"https://maps.gstatic.com/mapfiles/place_api/icons/v2/restaurant_pinlet","name":"Ta-Hua","opening_hours":{"open_now":false},"photos":[{"height":4624,"html_attributions":["<a href=\"https://maps.google.com/maps/contrib/103854644152399427704\">Marta Menegon</a>"],"photo_reference":"AeJbb3dJYEB0kVBbTYmEsrkGJGJXAWApOsTPEDxAd_gwSjPhkwMnSA8lBGP63_yjSVELl62AkqRVKXomSTpCa8RVZ8KjtfoAvBduEM81iEJFPi5jHQDVJqWnbXCrHKl-pc5O6FjlR-4y5haB7FvRYS9O5iXQRQDtZRkctdOQRCsianJzGsRF","width":3472}],"place_id":"ChIJ-aSFUc7GhkcRKqMZ4Znyt-g","plus_code":{"compound_code":"F5MX+86 Milan, Metropolitan City of Milan","global_code":"8FQFF5MX+86"},"price_level":2,"rating":4.4,"reference":"ChIJ-aSFUc7GhkcRKqMZ4Znyt-g","types":["restaurant","food","point_of_interest","establishment"],"user_ratings_total":1776},{"business_status":"OPERATIONAL","formatted_address":"V.le Monza, 4, 20127 Milano MI","geometry":{"location":{"lat":45.487495,"lng":9.217301299999999},"viewport":{"northeast":{"lat":45.48884577989272,"lng":9.218590279892723},"southwest":{"lat":45.48614612010728,"lng":9.21589062010728}}},"icon":"https://maps.gstatic.com/mapfiles/place_api/icons/v1/png_71/restaurant-71.png","icon_background_color":"#FF9E67","icon_mask_base_uri":"https://maps.gstatic.com/mapfiles/place_api/icons/v2/restaurant_pinlet","name":"Le Nove Scodelle","opening_hours":{"open_now":true},"photos":[{"height":2160,"html_attributions":["<a href=\"https://maps.google.com/maps/contrib/111407100275849925601\">Matteo Mosca</a>"],"photo_reference":"AeJbb3cJ0P7l5xZXq-mb56X4F1f3CwC1VMTQj0Mr6Q0N-QYXnTmmbRW9fMqSWwqI0FYpex4SKiTOaZTomrbgcSf8MEWlKhqoxMmql8sHstJxK0fmWF8z-SsT7A5_-65_gtoblbyLFU6q1nz7BOubHWep8gEjfsm2LlYu0uUYQ6kDELHgoo3k","width":3840}],"place_id":"ChIJfQBmA-fGhkcRX22-W8Vl7AU","plus_code":{"compound_code":"F6P8+XW Milan, Metropolitan City of Milan","global_code":"8FQFF6P8+XW"},"price_level":2,"rating":4.4,"reference":"ChIJfQBmA-fGhkcRX22-W8Vl7AU","types":["restaurant","food","point_of_interest","establishment"],"user_ratings_total":1193},{"business_status":"OPERATIONAL","formatted_address":"Via Paolo Sarpi, 42, 20154 Milano MI","geometry":{"location":{"lat":45.4813734,"lng":9.174440299999999},"viewport":{"northeast":{"lat":45.48267467989272,"lng":9.175914879892721},"southwest":{"lat":45.47997502010728,"lng":9.173215220107277}}},"icon":"https://maps.gstatic.com/mapfiles/place_api/icons/v1/png_71/restaurant-71.png","icon_background_color":"#FF9E67","icon_mask_base_uri":"https://maps.gstatic.com/mapfiles/place_api/icons/v2/restaurant_pinlet","name":"Yuebinlou","opening_hours":{"open_now":true},"photos":[{"height":3024,"html_attributions":["<a href=\"https://maps.google.com/maps/contrib/114755164682589559489\">Tomasz Pawłowski</a>"],"photo_reference":"AeJbb3eBeI1IER2z9MF2lciwmMYDeeVu-0w_dvaRTlholz8xM7oZ2Pq8fR6oiY137sDGxQzmFlIqb1JJh5pL59-sn7EDzo1MFjgP4sIFNs8Gw-Wr0RoQ2XnBajkbTXsbCEWPyviU7KgXn3Ku2nxYiP81XUFmeY32Hp2W-f2oiDUWt9S1Pd4k","width":4032}],"place_id":"ChIJvyBXCDnBhkcRGq9uCKAZqls","plus_code":{"compound_code":"F5JF+GQ Milan, Metropolitan City of Milan","global_code":"8FQFF5JF+GQ"},"price_level":1,"rating":4.4,"reference":"ChIJvyBXCDnBhkcRGq9uCKAZqls","types":["restaurant","food","point_of_interest","establishment"],"user_ratings_total":789},{"business_status":"OPERATIONAL","formatted_address":"Tra civico 32 e 34, Via Carlo Farini, 32, 20159 Milano MI","geometry":{"location":{"lat":45.4897533,"lng":9.1833944},"viewport":{"northeast":{"lat":45.49111832989272,"lng":9.184691879892721},"southwest":{"lat":45.48841867010728,"lng":9.181992220107277}}},"icon":"https://maps.gstatic.com/mapfiles/place_api/icons/v1/png_71/restaurant-71.png","icon_background_color":"#FF9E67","icon_mask_base_uri":"https://maps.gstatic.com/mapfiles/place_api/icons/v2/restaurant_pinlet","name":"Castello D'oro 金城","opening_hours":{"open_now":false},"photos":[{"height":4032,"html_attributions":["<a href=\"https://maps.google.com/maps/contrib/113709346277976812665\">Abel SHG</a>"],"photo_reference":"AeJbb3c48UkZW0orNJJlXeKiKjigBrir63_vnh6h1HjkzqHGsigBPN2yq4BdbwtKeqwxBuInPPbs1J7ESoh_AflfFddSeF4U0gOa8bE63_rxr3JOkQPbfSq4h_k4ES1UGcyKGEOpHRSEcWxQcjIUYazPvzbMdb1hzst1JGGpFzDEm6ITug2E","width":3024}],"place_id":"ChIJl2i1_y7BhkcRNB4fb2SMrrc","plus_code":{"compound_code":"F5QM+V9 Milan, Metropolitan City of Milan","global_code":"8FQFF5QM+V9"},"price_level":1,"rating":4.4,"reference":"ChIJl2i1_y7BhkcRNB4fb2SMrrc","types":["meal_takeaway","restaurant","food","point_of_interest","establishment"],"user_ratings_total":446},{"business_status":"OPERATIONAL","formatted_address":"Via Giovanni Battista Pergolesi, 19, 20124 Milano MI","geometry":{"location":{"lat":45.4846667,"lng":9.2107916},"viewport":{"northeast":{"lat":45.48603007989272,"lng":9.212229579892723},"southwest":{"lat":45.48333042010727,"lng":9.209529920107279}}},"icon":"https://maps.gstatic.com/mapfiles/place_api/icons/v1/png_71/restaurant-71.png","icon_background_color":"#FF9E67","icon_mask_base_uri":"https://maps.gstatic.com/mapfiles/place_api/icons/v2/restaurant_pinlet","name":"浙江饭店","opening_hours":{"open_now":true},"photos":[{"height":3456,"html_attributions":["<a href=\"https://maps.google.com/maps/contrib/105533505954187524146\">Seppo Laine</a>"],"photo_reference":"AeJbb3ejz1wTdpG9ieml-ExSeVBEJtdtBcKBsvxi6Pj0dY99o6Gidu2mNEns1_3VsA_sQMkg-5TvFc9PfCn8tCWA7HrZj8AvbZsJo4ie5xsxA9So2w4YnbIemwJm7T72DZmEqfSTjXC896u1svoInHftxCyO5tO_R1NebHTDRYzGSQYmm3qU","width":4608}],"place_id":"ChIJoR5CH-zLhkcRJfn_1GeEeB4","plus_code":{"compound_code":"F6M6+V8 Milan, Metropolitan City of Milan","global_code":"8FQFF6M6+V8"},"price_level":1,"rating":4.4,"reference":"ChIJoR5CH-zLhkcRJfn_1GeEeB4","types":["restaurant","food","point_of_interest","establishment"],"user_ratings_total":411},{"business_status":"OPERATIONAL","formatted_address":"Piazza Napoli, 25, 20146 Milano MI","geometry":{"location":{"lat":45.4524927,"lng":9.1547938},"viewport":{"northeast":{"lat":45.45389162989272,"lng":9.156084079892722},"southwest":{"lat":45.45119197010727,"lng":9.153384420107278}}},"icon":"https://maps.gstatic.com/mapfiles/place_api/icons/v1/png_71/restaurant-71.png","icon_background_color":"#FF9E67","icon_mask_base_uri":"https://maps.gstatic.com/mapfiles/place_api/icons/v2/restaurant_pinlet","name":"DOU","opening_hours":{"open_now":false},"photos":[{"height":683,"html_attributions":["<a href=\"https://maps.google.com/maps/contrib/102740289115077461839\">DOU</a>"],"photo_reference":"AeJbb3eW7PtN7l6oOPFwnVSY4xE7LdxOpRY5dTR592dFpKUAmjgLeb_XcpHKB-lX6Dgv29wJjrv1cFGVSiEFIVyLWEgqX4zmu4QlbO3rLuFn6hPXRBX0ExZPvL6T2TmpJ7wPFdNR7J86mwKxiB05NTOJptFV8hICAnRaWiCHTyBOtgfyb4Kb","width":1024}],"place_id":"ChIJZf40FN3DhkcR0O6B1P0e91o","plus_code":{"compound_code":"F523+XW Milan, Metropolitan City of Milan","global_code":"8FQFF523+XW"},"price_level":2,"rating":4.4,"reference":"ChIJZf40FN3DhkcR0O6B1P0e91o","types":["meal_takeaway","restaurant","food","point_of_interest","establishment"],"user_ratings_total":384},{"business_status":"OPERATIONAL","formatted_address":"Via Paolo Lomazzo, 14, 20154 Milano MI","geometry":{"location":{"lat":45.4818164,"lng":9.172615799999999},"viewport":{"northeast":{"lat":45.48310552989271,"lng":9.173919729892722},"southwest":{"lat":45.48040587010727,"lng":9.171220070107278}}},"icon":"https://maps.gstatic.com/mapfiles/place_api/icons/v1/png_71/restaurant-71.png","icon_background_color":"#FF9E67","icon_mask_base_uri":"https://maps.gstatic.com/mapfiles/place_api/icons/v2/restaurant_pinlet","name":"Houjie","opening_hours":{"open_now":true},"photos":[{"height":2160,"html_attributions":["<a href=\"https://maps.google.com/maps/contrib/100251534001138105602\">kary lat</a>"],"photo_reference":"AeJbb3frM5s4pKfwb2eeaH0ylXBX9ClF2mcSA2ftQsX16ogI9_m0U5U7f7PLFdhQVT5-a1uKow6D1qPa__mTYJKVEgbh81BrorK0Uqe4eNd5cr93zc7xFn5XeIkjvVf-qUklO0WQdmu3gnY9hx9FFjdr4CUcCsDq6fiD4ioSL8lQDFvVq0BK","width":3840}],"place_id":"ChIJl82cNznBhkcRr-eihJMGD-I","plus_code":{"compound_code":"F5JF+P2 Milan, Metropolitan City of Milan","global_code":"8FQFF5JF+P2"},"rating":4.4,"reference":"ChIJl82cNznBhkcRr-eihJMGD-I","types":["restaurant","food","point_of_interest","establishment"],"user_ratings_total":366},{"business_status":"OPERATIONAL","formatted_address":"Via Correggio, 16, 20149 Milano MI","geometry":{"location":{"lat":45.4702357,"lng":9.1509257},"viewport":{"northeast":{"lat":45.47155227989273,"lng":9.152334329892723},"southwest":{"lat":45.46885262010728,"lng":9.149634670107279}}},"icon":"https://maps.gstatic.com/mapfiles/place_api/icons/v1/png_71/restaurant-71.png","icon_background_color":"#FF9E67","icon_mask_base_uri":"https://maps.gstatic.com/mapfiles/place_api/icons/v2/restaurant_pinlet","name":"Kim Bar","opening_hours":{"open_now":false},"photos":[{"height":4032,"html_attributions":["<a href=\"https://maps.google.com/maps/contrib/109360906215980035240\">A Google User</a>"],"photo_reference":"AeJbb3c_5aIRzHFzmChLryWNQS2IUQJHAsO3WALyqKE_TDMi2kDB2wwMKd4MJzExOWFqYb8S5asSnlAt0smDWYV9z41wWwpL-7nb5WjtjUSeTjrJE5afDszjETiNvJzzJWO6lMrtlN4qwdFmVDUCJzcTdhqdGtB9AM9T2SZgGrsRx_kj7TGd","width":3024}],"place_id":"ChIJGT6vU2XBhkcRgivrIBjvZd8","plus_code":{"compound_code":"F5C2+39 Milan, Metropolitan City of Milan","global_code":"8FQFF5C2+39"},"price_level":2,"rating":4.4,"reference":"ChIJGT6vU2XBhkcRgivrIBjvZd8","types":["restaurant","food","point_of_interest","establishment"],"user_ratings_total":333},{"business_status":"OPERATIONAL","formatted_address":"Via Pellegrino Rossi, 28, 20161 Milano MI","geometry":{"location":{"lat":45.5090674,"lng":9.177189300000002},"viewport":{"northeast":{"lat":45.51042492989271,"lng":9.17851822989272},"southwest":{"lat":45.50772527010727,"lng":9.175818570107277}}},"icon":"https://maps.gstatic.com/mapfiles/place_api/icons/v1/png_71/restaurant-71.png","icon_background_color":"#FF9E67","icon_mask_base_uri":"https://maps.gstatic.com/mapfiles/place_api/icons/v2/restaurant_pinlet","name":"Jinyunfang","opening_hours":{"open_now":true},"photos":[{"height":400,"html_attributions":["<a href=\"https://maps.google.com/maps/contrib/102117721412939493233\">A Google User</a>"],"photo_reference":"AeJbb3cyzIS6hBWSq7waFwyUycxQn_79xEZZt0zrvl_1byj3V6Iksac6NXmoyjlDodbQzSBEG_M_pKMen_iV7At9P9u0h4GMn6Gar5eZSHGjslf4Uae8rLYQco5_y2__9rX0r1-qZefXK4VrJt__aaL2-SKQfTMdAA38jC1bqZ9OmCf-7fZ0","width":720}],"place_id":"ChIJbfY_V8LAhkcRQdsgsOiPN58","plus_code":{"compound_code":"G55G+JV Milan, Metropolitan City of Milan","global_code":"8FQFG55G+JV"},"price_level":1,"rating":4.4,"reference":"ChIJbfY_V8LAhkcRQdsgsOiPN58","types":["restaurant","food","point_of_interest","establishment"],"user_ratings_total":297},{"business_status":"OPERATIONAL","formatted_address":"Via Cesare Correnti, 21, 20123 Milano MI","geometry":{"location":{"lat":45.4592046,"lng":9.1787207},"viewport":{"northeast":{"lat":45.46058227989272,"lng":9.180047779892721},"southwest":{"lat":45.45788262010728,"lng":9.177348120107277}}},"icon":"https://maps.gstatic.com/mapfiles/place_api/icons/v1/png_71/restaurant-71.png","icon_background_color":"#FF9E67","icon_mask_base_uri":"https://maps.gstatic.com/mapfiles/place_api/icons/v2/restaurant_pinlet","name":"Dimsum Ravioleria hui hui","opening_hours":{"open_now":true},"photos":[{"height":3456,"html_attributions":["<a href=\"https://maps.google.com/maps/contrib/100877208825873707611\">Andrea La Mantia</a>"],"photo_reference":"AeJbb3f_4A7Is2ujtDQ2VJdR7xrn9SbDl5wJFfGPMecogPjRJ9GVS0Wwd1sw7NIdJU0v13ZNl1-xFFfoLoftyjew4TGorXbnNwtm86FGLXz2W2GOW7upKGDJtKvgWidJpwQGs3VEkx05AIrsnAttMX4qshUvgMh-zxvwMjwlJverywpB2F2K","width":4608}],"place_id":"ChIJ2eZ_o_vBhkcRfyDN0vgoLx4","plus_code":{"compound_code":"F55H+MF Milan, Metropolitan City of Milan","global_code":"8FQFF55H+MF"},"price_level":2,"rating":4.4,"reference":"ChIJ2eZ_o_vBhkcRfyDN0vgoLx4","types":["restaurant","food","point_of_interest","establishment"],"user_ratings_total":147},{"business_status":"OPERATIONAL","formatted_address":"Via Luca Signorelli, 5, 20154 Milano MI","geometry":{"location":{"lat":45.4816849,"lng":9.1732531},"viewport":{"northeast":{"lat":45.48307637989272,"lng":9.174688729892724},"southwest":{"lat":45.48037672010727,"lng":9.17198907010728}}},"icon":"https://maps.gstatic.com/mapfiles/place_api/icons/v1/png_71/restaurant-71.png","icon_background_color":"#FF9E67","icon_mask_base_uri":"https://maps.gstatic.com/mapfiles/place_api/icons/v2/restaurant_pinlet","name":"Mianmianjudao","opening_hours":{"open_now":true},"photos":[{"height":3024,"html_attributions":["<a href=\"https://maps.google.com/maps/contrib/111378645760262908558\">A Google User</a>"],"photo_reference":"AeJbb3c9uf4X_fMU_w6baP91mTOGDYEMi1HEYapP_ZAv7bvwfsmO2v1XmJMgV5xvFq3gn4yUQWXDiiyujbl5cfFTDpTMCHmZbF5wsHZOKCqAnG376_cf1CtUeBuCGibekNL0wADusDJC8cjMvds0meczJpOLwvhfIs6dW0Bw-SmmtX32xPzs","width":4032}],"place_id":"ChIJ-dIy6ePBhkcRm2vB2Xw01-Q","plus_code":{"compound_code":"F5JF+M8 Milan, Metropolitan City of Milan","global_code":"8FQFF5JF+M8"},"price_level":1,"rating":4.4,"reference":"ChIJ-dIy6ePBhkcRm2vB2Xw01-Q","types":["restaurant","food","point_of_interest","establishment"],"user_ratings_total":102},{"business_status":"OPERATIONAL","formatted_address":"Via Rivoli, 2, 20121 Milano MI","geometry":{"location":{"lat":45.472223,"lng":9.18305},"viewport":{"northeast":{"lat":45.47359407989273,"lng":9.18433102989272},"southwest":{"lat":45.47089442010728,"lng":9.181631370107276}}},"icon":"https://maps.gstatic.com/mapfiles/place_api/icons/v1/png_71/restaurant-71.png","icon_background_color":"#FF9E67","icon_mask_base_uri":"https://maps.gstatic.com/mapfiles/place_api/icons/v2/restaurant_pinlet","name":"Dumpling Mywèi ravioli cinesi","opening_hours":{"open_now":true},"photos":[{"height":1600,"html_attributions":["<a href=\"https://maps.google.com/maps/contrib/108419680322646116494\">A Google User</a>"],"photo_reference":"AeJbb3cO_xIhiOG4S8J0gIb26AT5wDX5J2gYpiYu1NcDVIS087CHgoIuv2zH5gcNSZKOHywl1lsMHBnzCgiDJv2nL0FI96cpgfGiWaH3_WJxE5sMOeO1xm0IMd8WzeZJG5CAPEQzeedLvjZO0qEzSO8W_3FtSa4kPOP84PqIrfi1h2xT5Zc5","width":2400}],"place_id":"ChIJfy7pDPLBhkcRPqlIHqmKlhA","plus_code":{"compound_code":"F5CM+V6 Milan, Metropolitan City of Milan","global_code":"8FQFF5CM+V6"},"price_level":2,"rating":4.4,"reference":"ChIJfy7pDPLBhkcRPqlIHqmKlhA","types":["bar","restaurant","food","point_of_interest","establishment"],"user_ratings_total":70},{"business_status":"OPERATIONAL","formatted_address":"Via Giovanni Battista Sammartini, 19, 20125 Milano MI","geometry":{"location":{"lat":45.4884055,"lng":9.2047219},"viewport":{"northeast":{"lat":45.48969167989272,"lng":9.206196929892723},"southwest":{"lat":45.48699202010728,"lng":9.20349727010728}}},"icon":"https://maps.gstatic.com/mapfiles/place_api/icons/v1/png_71/restaurant-71.png","icon_background_color":"#FF9E67","icon_mask_base_uri":"https://maps.gstatic.com/mapfiles/place_api/icons/v2/restaurant_pinlet","name":"impressione Chongqing","opening_hours":{"open_now":true},"photos":[{"height":4032,"html_attributions":["<a href=\"https://maps.google.com/maps/contrib/101416779726541111041\">vashon m</a>"],"photo_reference":"AeJbb3dnthcR9bGm1REIxPowOsNJolRL--VRwaeP5vd_fK4Gax_O92nGWuWeqdvzQi6kkzIDwtfsnSIqx5ZorIRuqztI41ehV80bpNiGDAypKA4SMAnAwBXP6Bom8YQiMWQ1HS05a57b94CnJOqcI0tvBLPG8a050pUaFwi0pVMFKGAfwMgD","width":3024}],"place_id":"ChIJeXuJrcPGhkcRHvXEnQIO-ho","plus_code":{"compound_code":"F6Q3+9V Milan, Metropolitan City of Milan","global_code":"8FQFF6Q3+9V"},"price_level":1,"rating":4.3,"reference":"ChIJeXuJrcPGhkcRHvXEnQIO-ho","types":["restaurant","food","point_of_interest","establishment"],"user_ratings_total":1033},{"business_status":"OPERATIONAL","formatted_address":"Via Paolo Sarpi, 2, 20154 Milano MI","geometry":{"location":{"lat":45.481884,"lng":9.180850999999999},"viewport":{"northeast":{"lat":45.48319302989272,"lng":9.182464679892721},"southwest":{"lat":45.48049337010728,"lng":9.179765020107277}}},"icon":"https://maps.gstatic.com/mapfiles/place_api/icons/v1/png_71/restaurant-71.png","icon_background_color":"#FF9E67","icon_mask_base_uri":"https://maps.gstatic.com/mapfiles/place_api/icons/v2/restaurant_pinlet","name":"Jin Yong","opening_hours":{"open_now":true},"photos":[{"height":2600,"html_attributions":["<a href=\"https://maps.google.com/maps/contrib/110196232541536552149\">Karen Alarcon</a>"],"photo_reference":"AeJbb3eWtcDe0SCWRimAb8qqxhrRAFC9ZnzrlLAy2QY7Cyy3GTNFUkPSeFWu-aMkWXH8YY4-kMYoRJ-JUVM3KOmgM2s0giy9N72TRIhmq200Zso-hLugXUdCoMgMrVlL4ijFo3snNr_97_o984upJfAGLaKCPBrkOXRNOvYR-nLyZmDWURyg","width":4624}],"place_id":"ChIJw_HDXzfBhkcRioxJa73y83E","plus_code":{"compound_code":"F5JJ+Q8 Milan, Metropolitan City of Milan","global_code":"8FQFF5JJ+Q8"},"price_level":1,"rating":4.3,"reference":"ChIJw_HDXzfBhkcRioxJa73y83E","types":["restaurant","food","point_of_interest","establishment"],"user_ratings_total":827},{"business_status":"OPERATIONAL","formatted_address":"Via Carlo Tenca, 12, 20124 Milano MI","geometry":{"location":{"lat":45.4803734,"lng":9.201680099999999},"viewport":{"northeast":{"lat":45.48174662989272,"lng":9.203004029892721},"southwest":{"lat":45.47904697010728,"lng":9.200304370107277}}},"icon":"https://maps.gstatic.com/mapfiles/place_api/icons/v1/png_71/restaurant-71.png","icon_background_color":"#FF9E67","icon_mask_base_uri":"https://maps.gstatic.com/mapfiles/place_api/icons/v2/restaurant_pinlet","name":"Su Garden","opening_hours":{"open_now":true},"photos":[{"height":2048,"html_attributions":["<a href=\"https://maps.google.com/maps/contrib/110467184727683406399\">Andrea Palazzi</a>"],"photo_reference":"AeJbb3d0ZMSISwJGG5fDswF4HWJ2LziKIo7oe9Qu7ZrK9hyCF4ibTMwoAxqnYm-gD35S1SyKYZKvbr7f2JOlk2dZvS4SC3RFm-LYvDEa81jFsMhdhAHEDKmA3JhEHUIxqoIvBh44j_CdApjT758VZATO2YuLMmlYIx9vumFS2jIPuigC2I7x","width":1536}],"place_id":"ChIJ-xMVDMbGhkcRqlowwSqCKwk","plus_code":{"compound_code":"F6J2+4M Milan, Metropolitan City of Milan","global_code":"8FQFF6J2+4M"},"price_level":2,"rating":4.3,"reference":"ChIJ-xMVDMbGhkcRqlowwSqCKwk","types":["restaurant","food","point_of_interest","establishment"],"user_ratings_total":509},{"business_status":"OPERATIONAL","formatted_address":"Via Adda, 3, 20124 Milano MI","geometry":{"location":{"lat":45.4830542,"lng":9.1984123},"viewport":{"northeast":{"lat":45.48443262989272,"lng":9.199788179892721},"southwest":{"lat":45.48173297010728,"lng":9.197088520107277}}},"icon":"https://maps.gstatic.com/mapfiles/place_api/icons/v1/png_71/restaurant-71.png","icon_background_color":"#FF9E67","icon_mask_base_uri":"https://maps.gstatic.com/mapfiles/place_api/icons/v2/restaurant_pinlet","name":"Leon d'Oro 金狮饭店","opening_hours":{"open_now":false},"photos":[{"height":2736,"html_attributions":["<a href=\"https://maps.google.com/maps/contrib/103730767222773734528\">A Google User</a>"],"photo_reference":"AeJbb3f3-jnoUBiKZnZyF56Wn8eMcXMMbo55eyVyriYO8el-U8xHxVY6vbVab7Q09TQtnPiuW7c1I8ISV6Rtaah_b6TQ5PsPnpq5WXyJi10gWMLdinBg0N6VuEuqmD8EAwVurFupby6iXEcJcoBkgqMWc1SYm_gkeUDkH7QeZVnrDRrRxnl8","width":3648}],"place_id":"ChIJ-xmV-87GhkcRgt-LbMi_8rc","plus_code":{"compound_code":"F5MX+69 Milan, Metropolitan City of Milan","global_code":"8FQFF5MX+69"},"price_level":2,"rating":4.3,"reference":"ChIJ-xmV-87GhkcRgt-LbMi_8rc","types":["restaurant","food","point_of_interest","establishment"],"user_ratings_total":411},{"business_status":"OPERATIONAL","formatted_address":"Via Nino Bixio, 29, 20129 Milano MI","geometry":{"location":{"lat":45.472443,"lng":9.210863},"viewport":{"northeast":{"lat":45.47383442989273,"lng":9.212352579892721},"southwest":{"lat":45.47113477010728,"lng":9.209652920107278}}},"icon":"https://maps.gstatic.com/mapfiles/place_api/icons/v1/png_71/restaurant-71.png","icon_background_color":"#FF9E67","icon_mask_base_uri":"https://maps.gstatic.com/mapfiles/place_api/icons/v2/restaurant_pinlet","name":"Dim Sum","opening_hours":{"open_now":false},"photos":[{"height":3024,"html_attributions":["<a href=\"https://maps.google.com/maps/contrib/114376614175003489502\">Sari Morimoto</a>"],"photo_reference":"AeJbb3dqEoZPSgpsAb1cu9oJ_vWRzTTXpHE5v0iT-9bNx5-MKUweo-8qS42DQkv7NYgT_aq-r-DhABJTElHG8_HDLV8_ZE_pPqKkSv5E9owQugh_4jy36dhHPvaiUnyGw0X_5oJD1lsgNFJt7sV5z6AZuwE69CDl_RHj1x7_QjF1nbB8CAza","width":4032}],"place_id":"ChIJmfGumZXGhkcRptES_3gaz80","plus_code":{"compound_code":"F6C6+X8 Milan, Metropolitan City of Milan","global_code":"8FQFF6C6+X8"},"price_level":3,"rating":4.3,"reference":"ChIJmfGumZXGhkcRptES_3gaz80","types":["restaurant","food","point_of_interest","establishment"],"user_ratings_total":407},{"business_status":"OPERATIONAL","formatted_address":"Viale Tunisia, 12, 20124 Milano MI","geometry":{"location":{"lat":45.4776138,"lng":9.2051465},"viewport":{"northeast":{"lat":45.47890132989272,"lng":9.206438129892721},"southwest":{"lat":45.47620167010728,"lng":9.203738470107277}}},"icon":"https://maps.gstatic.com/mapfiles/place_api/icons/v1/png_71/restaurant-71.png","icon_background_color":"#FF9E67","icon_mask_base_uri":"https://maps.gstatic.com/mapfiles/place_api/icons/v2/restaurant_pinlet","name":"Lanzhou Ramen （樂家)","opening_hours":{"open_now":true},"photos":[{"height":814,"html_attributions":["<a href=\"https://maps.google.com/maps/contrib/116037701478359243889\">A Google User</a>"],"photo_reference":"AeJbb3cYq7dO7OpzpYe6s9FB0DOkTKUadzS9UFChXRt6gfOvBnq3cjbwCbz1zKHCpovW0L9zQPmuCmGz39SuaTBlNjtqLWkwNSwZOA4b_92be9-4E1pNR5wbiq1WMCxnwCLaY6CNdVVbaxrX1R8s899Qxm4OX4C-vPsp0CNzhh06SHnwY4eD","width":1197}],"place_id":"ChIJVVWlLcfGhkcReY4HKhCb6mg","plus_code":{"compound_code":"F6H4+23 Milan, Metropolitan City of Milan","global_code":"8FQFF6H4+23"},"rating":4.3,"reference":"ChIJVVWlLcfGhkcReY4HKhCb6mg","types":["restaurant","food","point_of_interest","establishment"],"user_ratings_total":406},{"business_status":"OPERATIONAL","formatted_address":"Via Andrea Solari, 7, 20144 Milano MI","geometry":{"location":{"lat":45.45653859999999,"lng":9.1675347},"viewport":{"northeast":{"lat":45.45799317989271,"lng":9.16881027989272},"southwest":{"lat":45.45529352010727,"lng":9.166110620107276}}},"icon":"https://maps.gstatic.com/mapfiles/place_api/icons/v1/png_71/restaurant-71.png","icon_background_color":"#FF9E67","icon_mask_base_uri":"https://maps.gstatic.com/mapfiles/place_api/icons/v2/restaurant_pinlet","name":"Asian flavor","opening_hours":{"open_now":true},"photos":[{"height":3096,"html_attributions":["<a href=\"https://maps.google.com/maps/contrib/100187916702184314919\">Alessandro Capra</a>"],"photo_reference":"AeJbb3d01ZYRWpNXLWBxpvv-WvDpWzsWJrDJYM0pEk7aoy6l3hc9AyyV61QWNdUbqbfZsmglXDGh4AEOtTrkgjTekSXRMTg4gcqLfqBSACyJ1wqrAO9pJOjBJjQ3ZkVkDD1tKwiZzjuPYD37x1NrfwvWaHTtf9hX7rsoW5lSDnPDJI9glpEh","width":5504}],"place_id":"ChIJ0c4_DuPDhkcRQ01_F5kvgZU","plus_code":{"compound_code":"F549+J2 Milan, Metropolitan City of Milan","global_code":"8FQFF549+J2"},"price_level":2,"rating":4.3,"reference":"ChIJ0c4_DuPDhkcRQ01_F5kvgZU","types":["restaurant","food","point_of_interest","establishment"],"user_ratings_total":386},{"business_status":"OPERATIONAL","formatted_address":"Via Vigevano, 22, 20144 Milano MI","geometry":{"location":{"lat":45.4532374,"lng":9.1717329},"viewport":{"northeast":{"lat":45.45452532989272,"lng":9.173150029892723},"southwest":{"lat":45.45182567010728,"lng":9.170450370107279}}},"icon":"https://maps.gstatic.com/mapfiles/place_api/icons/v1/png_71/restaurant-71.png","icon_background_color":"#FF9E67","icon_mask_base_uri":"https://maps.gstatic.com/mapfiles/place_api/icons/v2/restaurant_pinlet","name":"Casa del Ramen","opening_hours":{"open_now":true},"photos":[{"height":4000,"html_attributions":["<a href=\"https://maps.google.com/maps/contrib/111356582863712789994\">Achille Riviello</a>"],"photo_reference":"AeJbb3fooj3DeyF4q3E3VIQiYM6dxVbMooptc5ZFFq7sEAY2wK0IQiiGqfDfpxrV5IktvSqazNrUGhJPBe091FvfL9lVk6aokNvhiHYMRflun5P5rtG4aHV2cXWvcpELrgrtNr08AXcByN3-fFWMmr_P1h2wyDhx-vxwPWCRqqPLaZnOHb6C","width":3000}],"place_id":"ChIJZ8zoo_vDhkcR0gG1o4lZhHY","plus_code":{"compound_code":"F53C+7M Milan, Metropolitan City of Milan","global_code":"8FQFF53C+7M"},"rating":4.3,"reference":"ChIJZ8zoo_vDhkcR0gG1o4lZhHY","types":["restaurant","food","point_of_interest","establishment"],"user_ratings_total":384},{"business_status":"OPERATIONAL","formatted_address":"Via Carlo Farini, 70, 20159 Milano MI","geometry":{"location":{"lat":45.4939282,"lng":9.1853261},"viewport":{"northeast":{"lat":45.49524307989272,"lng":9.186516129892723},"southwest":{"lat":45.49254342010728,"lng":9.18381647010728}}},"icon":"https://maps.gstatic.com/mapfiles/place_api/icons/v1/png_71/restaurant-71.png","icon_background_color":"#FF9E67","icon_mask_base_uri":"https://maps.gstatic.com/mapfiles/place_api/icons/v2/restaurant_pinlet","name":"Ristorante Chef J","opening_hours":{"open_now":true},"photos":[{"height":2176,"html_attributions":["<a href=\"https://maps.google.com/maps/contrib/101885196787014841083\">Tania Severini</a>"],"photo_reference":"AeJbb3dsArNAOMjiEErPka7XERqkRnl5djgvAs0HVq27JxaqIV7qscZl0ksWrsUoqk4MNtF1we_qW3U6cvXzjFmRM7JLjK6lVX3XbmCInnO29gONwhviWM4OPHKEvlgmxTyMfX6pIqvYjW_sC_D0Yi2i54sFMsk9oUQnuKvLMtQJaPq91pZy","width":2162}],"place_id":"ChIJLYzrBynBhkcRFCYzvdha-c0","plus_code":{"compound_code":"F5VP+H4 Milan, Metropolitan City of Milan","global_code":"8FQFF5VP+H4"},"price_level":2,"rating":4.3,"reference":"ChIJLYzrBynBhkcRFCYzvdha-c0","types":["restaurant","food","point_of_interest","establishment"],"user_ratings_total":380},{"business_status":"OPERATIONAL","formatted_address":"Via Ponte Seveso, 42, 20125 Milano MI","geometry":{"location":{"lat":45.4902795,"lng":9.205836399999999},"viewport":{"northeast":{"lat":45.49166772989272,"lng":9.207114629892722},"southwest":{"lat":45.48896807010728,"lng":9.204414970107278}}},"icon":"https://maps.gstatic.com/mapfiles/place_api/icons/v1/png_71/restaurant-71.png","icon_background_color":"#FF9E67","icon_mask_base_uri":"https://maps.gstatic.com/mapfiles/place_api/icons/v2/restaurant_pinlet","name":"Phoenix 凤凰湘菜","opening_hours":{"open_now":false},"photos":[{"height":3024,"html_attributions":["<a href=\"https://maps.google.com/maps/contrib/105258798802864145119\">blownawishrockfamily</a>"],"photo_reference":"AeJbb3e4IO3iRoJ3gffxq1vIYRGgWTPZNWzAzMKxrUMgx5pDlJKE2zrw1y0R_oF9xrNEOwC3GR371R4rbcNj_Yveao8MujlMv8fvkV0iJDz8GJ0V_bC-1Z3XdTb7mfvNbwS3FiI_0OqISPbuUTLVawSbrL2n127CtOOCIreJ49MC_hXl-iX4","width":3024}],"place_id":"ChIJ6_2MtrTHhkcRrGlxE8LDJRU","plus_code":{"compound_code":"F6R4+48 Milan, Metropolitan City of Milan","global_code":"8FQFF6R4+48"},"rating":4.3,"reference":"ChIJ6_2MtrTHhkcRrGlxE8LDJRU","types":["restaurant","food","point_of_interest","establishment"],"user_ratings_total":175},{"business_status":"OPERATIONAL","formatted_address":"Via Egadi, 10, 20144 Milano MI","geometry":{"location":{"lat":45.460001,"lng":9.1580049},"viewport":{"northeast":{"lat":45.46125007989272,"lng":9.159347779892721},"southwest":{"lat":45.45855042010727,"lng":9.156648120107278}}},"icon":"https://maps.gstatic.com/mapfiles/place_api/icons/v1/png_71/restaurant-71.png","icon_background_color":"#FF9E67","icon_mask_base_uri":"https://maps.gstatic.com/mapfiles/place_api/icons/v2/restaurant_pinlet","name":"Ya Xiang Lou - Ristorante Cinese","opening_hours":{"open_now":false},"photos":[{"height":4608,"html_attributions":["<a href=\"https://maps.google.com/maps/contrib/116051542144047792120\">WiT B.</a>"],"photo_reference":"AeJbb3eQdFfR-VMpOJdzriRF4ilEkrGzSE16aMk7-dfEtRbeVqh3_3LZgPdVlpghLo0IJHE8Hu46UM4PO03G3nkGDnbUKrW7nzU9Bcj4WtRBKw7C5_NNC1H_ZISrf1RBGVvh2tDFhfTdP9afXzNbXQnkH6HNho7eReV4HqGLpQIHZisfuc8z","width":3456}],"place_id":"ChIJBZ0m7t_DhkcRCc802gZ0cEA","plus_code":{"compound_code":"F555+X6 Milan, Metropolitan City of Milan","global_code":"8FQFF555+X6"},"price_level":2,"rating":4.3,"reference":"ChIJBZ0m7t_DhkcRCc802gZ0cEA","types":["restaurant","food","point_of_interest","establishment"],"user_ratings_total":173},{"business_status":"OPERATIONAL","formatted_address":"Via Paolo Sarpi, 23, 20154 Milano MI","geometry":{"location":{"lat":45.4813223,"lng":9.176528},"viewport":{"northeast":{"lat":45.48272812989272,"lng":9.177837279892724},"southwest":{"lat":45.48002847010728,"lng":9.17513762010728}}},"icon":"https://maps.gstatic.com/mapfiles/place_api/icons/v1/png_71/restaurant-71.png","icon_background_color":"#FF9E67","icon_mask_base_uri":"https://maps.gstatic.com/mapfiles/place_api/icons/v2/restaurant_pinlet","name":"Daisy ramen(ex don street food)","opening_hours":{"open_now":true},"photos":[{"height":4000,"html_attributions":["<a href=\"https://maps.google.com/maps/contrib/107601924837865969435\">Allia Mahajneh</a>"],"photo_reference":"AeJbb3dIZG8JPYNMwSRuhkIr2wnEUhyD3x98iPb5evsnsA9QGygx-GJeWzKlacRvgRHT0cvDqzwODORIR7bXp8P2UI_1xBAyvXGjJyscgppsmmtX9YG4hB_qIddLNy_gL0lZDLMoI0iMHKoYrVkrD1kdWVpb9EiQr2_5duiDQGy_4bnw3DZ3","width":2248}],"place_id":"ChIJ38v7O6LBhkcRQnvEailZZkU","plus_code":{"compound_code":"F5JG+GJ Milan, Metropolitan City of Milan","global_code":"8FQFF5JG+GJ"},"rating":4.3,"reference":"ChIJ38v7O6LBhkcRQnvEailZZkU","types":["restaurant","food","point_of_interest","establishment"],"user_ratings_total":95},{"business_status":"OPERATIONAL","formatted_address":"Via Vincenzo Monti, 26, 20123 Milano MI","geometry":{"location":{"lat":45.4683618,"lng":9.172789},"viewport":{"northeast":{"lat":45.46965977989272,"lng":9.17405427989272},"southwest":{"lat":45.46696012010728,"lng":9.171354620107277}}},"icon":"https://maps.gstatic.com/mapfiles/place_api/icons/v1/png_71/restaurant-71.png","icon_background_color":"#FF9E67","icon_mask_base_uri":"https://maps.gstatic.com/mapfiles/place_api/icons/v2/restaurant_pinlet","name":"Ghe Sem","opening_hours":{"open_now":true},"photos":[{"height":2976,"html_attributions":["<a href=\"https://maps.google.com/maps/contrib/100823569062999864663\">Elisa Nicolai</a>"],"photo_reference":"AeJbb3dv4lW7UjbjAS5YJ7j7jsTXBFyxD8woIi-GJTtX8-ha7j82loq8_UKQ0BgflIyS8v4EJxCf4o883gHdWRUzMuDb88vlCa58D147UzIuoQtjTZC8rf3mouubcQQyGEuEbMOGFZDf-snFxbqAKtYAbczIzA8uYIWbWQYJCAjpD1o8CRc4","width":3968}],"place_id":"ChIJs2klplrBhkcRkIf_sb9gXrA","plus_code":{"compound_code":"F59F+84 Milan, Metropolitan City of Milan","global_code":"8FQFF59F+84"},"price_level":2,"rating":4.2,"reference":"ChIJs2klplrBhkcRkIf_sb9gXrA","types":["restaurant","food","point_of_interest","establishment"],"user_ratings_total":661},{"business_status":"OPERATIONAL","formatted_address":"Via Ulrico Hoepli, 3, 20121 Milano MI","geometry":{"location":{"lat":45.4663833,"lng":9.1922789},"viewport":{"northeast":{"lat":45.46770152989272,"lng":9.193688779892721},"southwest":{"lat":45.46500187010728,"lng":9.190989120107277}}},"icon":"https://maps.gstatic.com/mapfiles/place_api/icons/v1/png_71/restaurant-71.png","icon_background_color":"#FF9E67","icon_mask_base_uri":"https://maps.gstatic.com/mapfiles/place_api/icons/v2/restaurant_pinlet","name":"Pasta B Jinghua","opening_hours":{"open_now":true},"photos":[{"height":3024,"html_attributions":["<a href=\"https://maps.google.com/maps/contrib/109043644494768371472\">Erica Molinari</a>"],"photo_reference":"AeJbb3c5kGgQlk6xJrYUJP0iHg_dI1QkjrOStTP9TVJKqH-KWyeuxVePJR_csUYP8VqzAHCwvSzCk8HHsrP0-w1nOgooY7tP0kD0haVH9W_JwDewS6RKOeNts1vlmngcpiqvb7FoQRLOi4zL87CHjwIrLHPXJfIXJIbPikaS9vqUtjdgxelm","width":4032}],"place_id":"ChIJ-1GAN67GhkcRhu5CmQ_Ez2c","plus_code":{"compound_code":"F58R+HW Milan, Metropolitan City of Milan","global_code":"8FQFF58R+HW"},"price_level":2,"rating":4.2,"reference":"ChIJ-1GAN67GhkcRhu5CmQ_Ez2c","types":["restaurant","food","point_of_interest","establishment"],"user_ratings_total":567},{"business_status":"OPERATIONAL","formatted_address":"Via Lazzaretto, 10, 20124 Milano MI","geometry":{"location":{"lat":45.4781872,"lng":9.2025085},"viewport":{"northeast":{"lat":45.47944307989273,"lng":9.20379952989272},"southwest":{"lat":45.47674342010728,"lng":9.201099870107276}}},"icon":"https://maps.gstatic.com/mapfiles/place_api/icons/v1/png_71/restaurant-71.png","icon_background_color":"#FF9E67","icon_mask_base_uri":"https://maps.gstatic.com/mapfiles/place_api/icons/v2/restaurant_pinlet","name":"Lon Fon","opening_hours":{"open_now":false},"photos":[{"height":2136,"html_attributions":["<a href=\"https://maps.google.com/maps/contrib/103197039115628490415\">Ristorante Cinese Lon Fon</a>"],"photo_reference":"AeJbb3fI11VA04-SEcGHsmgyzHXEGITl7giZkP-yYECAb0Hca9euOBCzDkAzt2ctNTKuhrf8v61ciyH92hJGoqtfGj0Ix2OzAhHKyoaGtjG1kPRbquKLMsZnbKs-k0Mj_B06mv363gA9rHjK4MwNEGdbG-FH-y7AYQZf8WAuT8m3tn4qVAb0","width":3216}],"place_id":"ChIJAQYhq8fGhkcRsU4zPwwh1SA","plus_code":{"compound_code":"F6H3+72 Milan, Metropolitan City of Milan","global_code":"8FQFF6H3+72"},"price_level":2,"rating":4.2,"reference":"ChIJAQYhq8fGhkcRsU4zPwwh1SA","types":["restaurant","food","point_of_interest","establishment"],"user_ratings_total":468},{"business_status":"OPERATIONAL","formatted_address":"Via Mercato, 14, 20121 Milano MI","geometry":{"location":{"lat":45.4709611,"lng":9.1844292},"viewport":{"northeast":{"lat":45.47228442989272,"lng":9.185726429892723},"southwest":{"lat":45.46958477010728,"lng":9.183026770107277}}},"icon":"https://maps.gstatic.com/mapfiles/place_api/icons/v1/png_71/restaurant-71.png","icon_background_color":"#FF9E67","icon_mask_base_uri":"https://maps.gstatic.com/mapfiles/place_api/icons/v2/restaurant_pinlet","name":"Lo's","opening_hours":{"open_now":false},"photos":[{"height":4624,"html_attributions":["<a href=\"https://maps.google.com/maps/contrib/105288633746635458573\">linkinpelle@hotmail.it</a>"],"photo_reference":"AeJbb3czDJCyK0Y8hNkTnXWN46rV7EOslSB09B3tMzG3R4APmC3GNy3zUiUSds2FgGYo69DtfmtiyUUlMDO36BP_MirGnBY4fNMtYwT-JkwCURjx_9gMgUxllvUVNri4ZvFZtBLY6ZPpun9ZK4kXSD1OpimNNKKgIww88renOAGagVHCwb8s","width":3472}],"place_id":"ChIJRdqtwkzBhkcR9KF1ihtCmfw","plus_code":{"compound_code":"F5CM+9Q Milan, Metropolitan City of Milan","global_code":"8FQFF5CM+9Q"},"price_level":1,"rating":4.2,"reference":"ChIJRdqtwkzBhkcR9KF1ihtCmfw","types":["grocery_or_supermarket","store","meal_takeaway","restaurant","food","point_of_interest","establishment"],"user_ratings_total":436},{"business_status":"OPERATIONAL","formatted_address":"Via Vigevano, 33, 20144 Milano MI","geometry":{"location":{"lat":45.4530118,"lng":9.172019599999999},"viewport":{"northeast":{"lat":45.45440552989272,"lng":9.17333052989272},"southwest":{"lat":45.45170587010728,"lng":9.170630870107276}}},"icon":"https://maps.gstatic.com/mapfiles/place_api/icons/v1/png_71/restaurant-71.png","icon_background_color":"#FF9E67","icon_mask_base_uri":"https://maps.gstatic.com/mapfiles/place_api/icons/v2/restaurant_pinlet","name":"DUOMI","opening_hours":{"open_now":true},"photos":[{"height":3024,"html_attributions":["<a href=\"https://maps.google.com/maps/contrib/107823631536972201639\">Matteo Carbonari</a>"],"photo_reference":"AeJbb3eB_NaqEcq5tZcIgQvAkdhR-WZiT58RQ2yeTZ1ALrUS8vc3fpzYnE3nHnyyvuaQ6dBcatT0qScntM0jHV9NoFlSG0CXidijDANpaYT-Ci3qhoKAxDCEpM2Pw8H4-BtubNQes4ogt4Op3_o-X_WA9sweoqx6b3eEiaSKffmKbzU1CvL9","width":4032}],"place_id":"ChIJI2JPuvvDhkcRYWsUKBi3znE","plus_code":{"compound_code":"F53C+6R Milan, Metropolitan City of Milan","global_code":"8FQFF53C+6R"},"rating":4.2,"reference":"ChIJI2JPuvvDhkcRYWsUKBi3znE","types":["restaurant","food","point_of_interest","establishment"],"user_ratings_total":201},{"business_status":"OPERATIONAL","formatted_address":"Viale Certosa, 97, 20151 Milano MI","geometry":{"location":{"lat":45.4940398,"lng":9.1422926},"viewport":{"northeast":{"lat":45.49540927989272,"lng":9.143660479892722},"southwest":{"lat":45.49270962010728,"lng":9.140960820107278}}},"icon":"https://maps.gstatic.com/mapfiles/place_api/icons/v1/png_71/restaurant-71.png","icon_background_color":"#FF9E67","icon_mask_base_uri":"https://maps.gstatic.com/mapfiles/place_api/icons/v2/restaurant_pinlet","name":"Ristorante Cinese Felice","opening_hours":{"open_now":false},"photos":[{"height":5120,"html_attributions":["<a href=\"https://maps.google.com/maps/contrib/114373358600383914846\">Vittorio Rubens Vese</a>"],"photo_reference":"AeJbb3dKdQxC1foGnAhb2-rOSaq0WIF4ZP7E--16TXmvG043O-BKfbkAmDlW1gFQzYc2JKxXh2nZxPreh5q3hNzGnakCd5Ps6mMfSrBWaV_SV0CVlIlv-jiusv_Ut3pltCS0SxUtzlrWD9jSQ7r8Jlx-1YgKbThSzA_J8BSBlUrrzXWMMxc2","width":3840}],"place_id":"ChIJzWmHaqnBhkcR-fSjwVxkdmE","plus_code":{"compound_code":"F4VR+JW Milan, Metropolitan City of Milan","global_code":"8FQFF4VR+JW"},"price_level":1,"rating":4.2,"reference":"ChIJzWmHaqnBhkcR-fSjwVxkdmE","types":["restaurant","food","point_of_interest","establishment"],"user_ratings_total":180},{"business_status":"OPERATIONAL","formatted_address":"Piazzale Baiamonti 1, Via Paolo Sarpi, 2, 20154 Milano MI","geometry":{"location":{"lat":45.4820019,"lng":9.181284000000002},"viewport":{"northeast":{"lat":45.48329822989272,"lng":9.18269742989272},"southwest":{"lat":45.48059857010728,"lng":9.179997770107276}}},"icon":"https://maps.gstatic.com/mapfiles/place_api/icons/v1/png_71/restaurant-71.png","icon_background_color":"#FF9E67","icon_mask_base_uri":"https://maps.gstatic.com/mapfiles/place_api/icons/v2/restaurant_pinlet","name":"Chateau Dufan","opening_hours":{"open_now":true},"photos":[{"height":3000,"html_attributions":["<a href=\"https://maps.google.com/maps/contrib/114713272010347728933\">Alberto Allia</a>"],"photo_reference":"AeJbb3fo5FBoqdj7vrWs_RlEX3fYJ5retDZ3se7c2mtLIfwlxS6FKTBk-cgwuCX2fsLcMoy6S6-UQYxjTMAyEeehbgE5pTxpBMkbqkaTdtmApQ9B6ngNN2AJqJeCTfA9CvJJrNJPro_gZ0UWL6NCa83hmOTJ3mSLhT8lMP9w7J87Gv0q2mIK","width":4000}],"place_id":"ChIJ5yH9zzbBhkcRy_56P4yWuzY","plus_code":{"compound_code":"F5JJ+RG Milan, Metropolitan City of Milan","global_code":"8FQFF5JJ+RG"},"price_level":2,"rating":4.1,"reference":"ChIJ5yH9zzbBhkcRy_56P4yWuzY","types":["restaurant","food","point_of_interest","store","establishment"],"user_ratings_total":1596},{"business_status":"OPERATIONAL","formatted_address":"Via Paolo da Cannobio, 2, 20122 Milano MI","geometry":{"location":{"lat":45.4620959,"lng":9.1910235},"viewport":{"northeast":{"lat":45.46341047989272,"lng":9.192426879892723},"southwest":{"lat":45.46071082010727,"lng":9.18972722010728}}},"icon":"https://maps.gstatic.com/mapfiles/place_api/icons/v1/png_71/restaurant-71.png","icon_background_color":"#FF9E67","icon_mask_base_uri":"https://maps.gstatic.com/mapfiles/place_api/icons/v2/restaurant_pinlet","name":"Yuan Hotpot","opening_hours":{"open_now":true},"photos":[{"height":3648,"html_attributions":["<a href=\"https://maps.google.com/maps/contrib/109732888222848730434\">A Google User</a>"],"photo_reference":"AeJbb3fe3LWu56-1zzIHgzN3rASx2Cu74J_1UkMcl4BFwI9opRMvIoNurZbxi6ea1X7aLLus4LfT_ekRBI8Tm7eWdrCnaClyJBYwCDpxR3gy17_FM2MVT7_S57R4pVbiepj1MLsku9reQCoKMSEkzBW1Krw1HnBgh_3HQzh8uOtonSpCgeKL","width":5472}],"place_id":"ChIJyRYfMKnGhkcRvAqBcsuQAdE","plus_code":{"compound_code":"F56R+RC Milan, Metropolitan City of Milan","global_code":"8FQFF56R+RC"},"price_level":2,"rating":4.1,"reference":"ChIJyRYfMKnGhkcRvAqBcsuQAdE","types":["restaurant","food","point_of_interest","establishment"],"user_ratings_total":387},{"business_status":"OPERATIONAL","formatted_address":"Viale Montello, 5, 20154 Milano MI","geometry":{"location":{"lat":45.4805904,"lng":9.181377099999999},"viewport":{"northeast":{"lat":45.48192137989273,"lng":9.182617829892722},"southwest":{"lat":45.47922172010728,"lng":9.179918170107278}}},"icon":"https://maps.gstatic.com/mapfiles/place_api/icons/v1/png_71/restaurant-71.png","icon_background_color":"#FF9E67","icon_mask_base_uri":"https://maps.gstatic.com/mapfiles/place_api/icons/v2/restaurant_pinlet","name":"CHIFA RESTAURANT","opening_hours":{"open_now":false},"photos":[{"height":3000,"html_attributions":["<a href=\"https://maps.google.com/maps/contrib/108621743762960422774\">Juan David Ocampo</a>"],"photo_reference":"AeJbb3dB7aofIvr8WIl6lWHFVuwSf41F0zcjtNl_9trLAP28ZSmEHAm4ZkQjuXyI3pAFhSJcRtSPf4PBs8qfXYbFddG8V5fsEVcOKWhTgu_8_5DSlgoNgNvbgLGHIrXy3-jDDO0yj9o1LkWd4B4wexaVzagIRlX0WC_wY7lTZjg8GcNtnIcM","width":4000}],"place_id":"ChIJdWDhygTBhkcRL-6eygeW0WY","plus_code":{"compound_code":"F5JJ+6H Milan, Metropolitan City of Milan","global_code":"8FQFF5JJ+6H"},"rating":4.1,"reference":"ChIJdWDhygTBhkcRL-6eygeW0WY","types":["restaurant","food","point_of_interest","establishment"],"user_ratings_total":94},{"business_status":"OPERATIONAL","formatted_address":"Via Paolo Sarpi, 17, 20154 Milano MI","geometry":{"location":{"lat":45.4814236,"lng":9.177546999999999},"viewport":{"northeast":{"lat":45.48281682989272,"lng":9.178739279892723},"southwest":{"lat":45.48011717010728,"lng":9.176039620107279}}},"icon":"https://maps.gstatic.com/mapfiles/place_api/icons/v1/png_71/restaurant-71.png","icon_background_color":"#FF9E67","icon_mask_base_uri":"https://maps.gstatic.com/mapfiles/place_api/icons/v2/restaurant_pinlet","name":"Tang Gourmet Dim Sum Restaurant","opening_hours":{"open_now":false},"photos":[{"height":3024,"html_attributions":["<a href=\"https://maps.google.com/maps/contrib/111813936146580098254\">A Google User</a>"],"photo_reference":"AeJbb3dcSqb2_2-fM17t6qQH5f7NbadrwyQzBqNlVW63L3IK3H7nvhS9-x8sHF3E7sFYV6bBq3UtD5epYyfK65mdmbACNQqZFG7QjBSoxe_zAPQDMXUXJvoxpx5oo07YV7kdmWrcsnOVjJsdU_TNqFeflDDM2sG8YgKws0SQyXzNjquKBaKF","width":4032}],"place_id":"ChIJ2RIEYDfBhkcR95AXm5kjyBc","plus_code":{"compound_code":"F5JH+H2 Milan, Metropolitan City of Milan","global_code":"8FQFF5JH+H2"},"price_level":1,"rating":4,"reference":"ChIJ2RIEYDfBhkcR95AXm5kjyBc","types":["restaurant","food","point_of_interest","establishment"],"user_ratings_total":1658},{"business_status":"OPERATIONAL","formatted_address":"Via Paolo Sarpi, 42, 20154 Milano MI","geometry":{"location":{"lat":45.4813605,"lng":9.174610099999999},"viewport":{"northeast":{"lat":45.48270097989272,"lng":9.17596527989272},"southwest":{"lat":45.48000132010728,"lng":9.173265620107276}}},"icon":"https://maps.gstatic.com/mapfiles/place_api/icons/v1/png_71/restaurant-71.png","icon_background_color":"#FF9E67","icon_mask_base_uri":"https://maps.gstatic.com/mapfiles/place_api/icons/v2/restaurant_pinlet","name":"Long Chang","opening_hours":{"open_now":true},"photos":[{"height":3480,"html_attributions":["<a href=\"https://maps.google.com/maps/contrib/102337350970885551480\">Chun Yin Lai</a>"],"photo_reference":"AeJbb3fX8s9QZ_v31wRHHrnCTiF7hOQa3sc-MnmKuQa7rsatdbRQC5J70pszquq9uZSdC0_zoHxvdNf87waTFGtQ1CWmHjM70Qm031GHEDpzKl2NZoC3hWxAAY-Z1pkq7JNpuT0qco9H-q13mSO9YqTS1VMDYjWOFy89vtdGGprEQRnlVFus","width":4640}],"place_id":"ChIJ6dSpCTnBhkcR-cDUfgyWZjg","plus_code":{"compound_code":"F5JF+GR Milan, Metropolitan City of Milan","global_code":"8FQFF5JF+GR"},"price_level":1,"rating":4,"reference":"ChIJ6dSpCTnBhkcR-cDUfgyWZjg","types":["restaurant","food","point_of_interest","establishment"],"user_ratings_total":1566},{"business_status":"OPERATIONAL","formatted_address":"Via Paolo Sarpi, 26, 20154 Milano MI","geometry":{"location":{"lat":45.4815245,"lng":9.1768584},"viewport":{"northeast":{"lat":45.48283027989272,"lng":9.178048979892722},"southwest":{"lat":45.48013062010728,"lng":9.175349320107278}}},"icon":"https://maps.gstatic.com/mapfiles/place_api/icons/v1/png_71/restaurant-71.png","icon_background_color":"#FF9E67","icon_mask_base_uri":"https://maps.gstatic.com/mapfiles/place_api/icons/v2/restaurant_pinlet","name":"Noodles & Soups","opening_hours":{"open_now":true},"photos":[{"height":5312,"html_attributions":["<a href=\"https://maps.google.com/maps/contrib/117925966674440460661\">Ivan Nguyen</a>"],"photo_reference":"AeJbb3frvLzXr361aqMDn5jkj91MLSozlElS8p-wfTKfif7vMeE8NeAh1aoQxv3poEHQWRjuQ4ij8lYBo2O2qeSpJjXmFppheCgeFAAlvCplJ7hyIFvz212WjxuspAmG6t-fjW9F0kJDOhIQyyoiG33Xw8hYcvLsAhhRbNbBdgebpT5C2X52","width":2992}],"place_id":"ChIJbXRWwjnBhkcRQ7ogIZXZFgE","plus_code":{"compound_code":"F5JG+JP Milan, Metropolitan City of Milan","global_code":"8FQFF5JG+JP"},"price_level":1,"rating":4,"reference":"ChIJbXRWwjnBhkcRQ7ogIZXZFgE","types":["restaurant","food","point_of_interest","establishment"],"user_ratings_total":528},{"business_status":"OPERATIONAL","formatted_address":"Via Privata Giovanni Ventura, 2, 20134 Milano MI","geometry":{"location":{"lat":45.4839794,"lng":9.2425562},"viewport":{"northeast":{"lat":45.48534397989273,"lng":9.243906879892721},"southwest":{"lat":45.48264432010728,"lng":9.241207220107277}}},"icon":"https://maps.gstatic.com/mapfiles/place_api/icons/v1/png_71/restaurant-71.png","icon_background_color":"#FF9E67","icon_mask_base_uri":"https://maps.gstatic.com/mapfiles/place_api/icons/v2/restaurant_pinlet","name":"Koshin","opening_hours":{"open_now":true},"photos":[{"height":4000,"html_attributions":["<a href=\"https://maps.google.com/maps/contrib/103131882086351999436\">Neilx74</a>"],"photo_reference":"AeJbb3eljtFj-FQhbkLgxow2WXHiE4mNxP6P4XyP5s3-5io30FWWKcIHv-3dnAPNwNZXjzg5iZpbYwad3_6QrfgPwWnDynAnUWOctu8wBL_TIdH9jVr_XhuTLciUBaQbY5kciYLL4SPU0Dwdf9cToey07nIcK98UhlUV8JtvnvcUlnd-riy8","width":2250}],"place_id":"ChIJDVk3zVDGhkcRBLu9eAEPmL8","plus_code":{"compound_code":"F6MV+H2 Milan, Metropolitan City of Milan","global_code":"8FQFF6MV+H2"},"price_level":1,"rating":4,"reference":"ChIJDVk3zVDGhkcRBLu9eAEPmL8","types":["restaurant","food","point_of_interest","establishment"],"user_ratings_total":424},{"business_status":"OPERATIONAL","formatted_address":"Via Giuseppe Giusti, 14, 20154 Milano MI","geometry":{"location":{"lat":45.48026360000001,"lng":9.177325},"viewport":{"northeast":{"lat":45.48159997989272,"lng":9.178668379892722},"southwest":{"lat":45.47890032010728,"lng":9.175968720107278}}},"icon":"https://maps.gstatic.com/mapfiles/place_api/icons/v1/png_71/restaurant-71.png","icon_background_color":"#FF9E67","icon_mask_base_uri":"https://maps.gstatic.com/mapfiles/place_api/icons/v2/restaurant_pinlet","name":"Ristorante Cinese Sole","opening_hours":{"open_now":true},"photos":[{"height":4032,"html_attributions":["<a href=\"https://maps.google.com/maps/contrib/108068748739770864748\">Joyce,Yi-Ju Chen</a>"],"photo_reference":"AeJbb3dzdCz4CFEi3Mxqf6BAd4G40UmWqX5vOM-YaoeHW96AArQFNF-K8ys87K7Ac4hNfTBWku1XriPF7chnN0Mhu9Y2R4LEw3kIRX0YYMV7XiIOvdbjQxZ5eYJMtsqlnJ7yD1wV3i01bCMRgImassPoics2HbVTXPrjZ0aAc2afBRqLig-A","width":3024}],"place_id":"ChIJ7WQVgDfBhkcRiEnSsA2egUY","plus_code":{"compound_code":"F5JG+4W Milan, Metropolitan City of Milan","global_code":"8FQFF5JG+4W"},"price_level":1,"rating":4,"reference":"ChIJ7WQVgDfBhkcRiEnSsA2egUY","types":["restaurant","food","point_of_interest","establishment"],"user_ratings_total":89},{"business_status":"OPERATIONAL","formatted_address":"Palazzo dei Cigni, 20090 Segrate MI","geometry":{"location":{"lat":45.5010414,"lng":9.266903200000002},"viewport":{"northeast":{"lat":45.50245662989271,"lng":9.268252929892721},"southwest":{"lat":45.49975697010727,"lng":9.265553270107278}}},"icon":"https://maps.gstatic.com/mapfiles/place_api/icons/v1/png_71/restaurant-71.png","icon_background_color":"#FF9E67","icon_mask_base_uri":"https://maps.gstatic.com/mapfiles/place_api/icons/v2/restaurant_pinlet","name":"China Town","opening_hours":{"open_now":true},"photos":[{"height":1536,"html_attributions":["<a href=\"https://maps.google.com/maps/contrib/105857167298314953899\">francesco cappello</a>"],"photo_reference":"AeJbb3fJl5wAfrsKQtm99IZSrldcMJsauREpU9y384-Yh04UjbM6BkZ03ZCDeqdEeVx2W2Gx852O_i17kfC0P3ghzIg2s86ThX1QsR_3jiczthULhRVRe3_e_GfdF927izU925bl84_uljZ7orGOlodOJmjFCx4ajW-YZgA2x6Jugs_dAL9p","width":2048}],"place_id":"ChIJ7ynjc7jHhkcRizQ17QJZUbo","plus_code":{"compound_code":"G728+CQ Segrate, Metropolitan City of Milan","global_code":"8FQFG728+CQ"},"price_level":2,"rating":3.8,"reference":"ChIJ7ynjc7jHhkcRizQ17QJZUbo","types":["restaurant","food","point_of_interest","establishment"],"user_ratings_total":894}]