[{"business_status":"OPERATIONAL","formatted_address":"Viale Umbria, 126, 20135 Milano MI","geometry":{"location":{"lat":45.4618516,"lng":9.217761099999999},"viewport":{"northeast":{"lat":45.46336092989272,"lng":9.21917537989272},"southwest":{"lat":45.46066127010728,"lng":9.216475720107276}}},"icon":"https://maps.gstatic.com/mapfiles/place_api/icons/v1/png_71/restaurant-71.png","icon_background_color":"#FF9E67","icon_mask_base_uri":"https://maps.gstatic.com/mapfiles/place_api/icons/v2/restaurant_pinlet","name":"Sine by Di Pinto","opening_hours":{"open_now":false},"photos":[{"height":2976,"html_attributions":["<a href=\"https://maps.google.com/maps/contrib/100073996668493158461\">Aldo Boccuni</a>"],"photo_reference":"AeJbb3cW3lBi1NxQJH9Z05DDjHv9XtwLTAaQuzb8QTsMXRdhSAQ30aDqjEpM4ACdxVPB5c3X6s6CFnLdRGglHuacGplF1Rhz9WDL3fgloZLxzNZZtWj56DpRpff9E9ZVVaFNRpqCcYjxhnM0pz1jMVMO4PRv8qqT7DxWbXIsVVb_7ABZJToT","width":3968}],"place_id":"ChIJc5x5tg7HhkcRtmGvx_h4zf8","plus_code":{"compound_code":"F669+P4 Milan, Metropolitan City of Milan","global_code":"8FQFF669+P4"},"rating":4.8,"reference":"ChIJc5x5tg7HhkcRtmGvx_h4zf8","types":["restaurant","food","point_of_interest","establishment"],"user_ratings_total":248},{"business_status":"OPERATIONAL","formatted_address":"Viale Monte Nero, 19, 20135 Milano MI","geometry":{"location":{"lat":45.4552904,"lng":9.2041225},"viewport":{"northeast":{"lat":45.45663847989272,"lng":9.205480679892723},"southwest":{"lat":45.45393882010728,"lng":9.20278102010728}}},"icon":"https://maps.gstatic.com/mapfiles/place_api/icons/v1/png_71/restaurant-71.png","icon_background_color":"#FF9E67","icon_mask_base_uri":"https://maps.gstatic.com/mapfiles/place_api/icons/v2/restaurant_pinlet","name":"Ristorante Ughetto","opening_hours":{"open_now":true},"photos":[{"height":540,"html_attributions":["<a href=\"https://maps.google.com/maps/contrib/115086607421264581068\">A Google User</a>"],"photo_reference":"AeJbb3etkfNF_zAW0gKdjM-L53vrfhH1501UNU2U-k_ZebtLG1gL2eUfRVPD_VxrxRYtTSNm1qAWz3UV5c6phMx_WFWQNbL2vtYA5B-hp_xwu16AkXNH733bJjyk37yP9DrLYmH5XZIpbp7mCHmFKtwEE5xBDaI9iey9k7yt2e2odt0CO0To","width":720}],"place_id":"ChIJeVZ573bFhkcRoqn6Qv8YQ-8","plus_code":{"compound_code":"F643+4J Milan, Metropolitan City of Milan","global_code":"8FQFF643+4J"},"rating":4.8,"reference":"ChIJeVZ573bFhkcRoqn6Qv8YQ-8","types":["restaurant","food","point_of_interest","establishment"],"user_ratings_total":102},{"business_status":"OPERATIONAL","formatted_address":"Via Giorgio Vasari, 1, 20135 Milano MI","geometry":{"location":{"lat":45.4520606,"lng":9.2053683},"viewport":{"northeast":{"lat":45.45340092989272,"lng":9.20673312989272},"southwest":{"lat":45.45070127010727,"lng":9.204033470107277}}},"icon":"https://maps.gstatic.com/mapfiles/place_api/icons/v1/png_71/restaurant-71.png","icon_background_color":"#FF9E67","icon_mask_base_uri":"https://maps.gstatic.com/mapfiles/place_api/icons/v2/restaurant_pinlet","name":"Trattoria Trippa","opening_hours":{"open_now":false},"photos":[{"height":693,"html_attributions":["<a href=\"https://maps.google.com/maps/contrib/114247032184063224295\">Mike Hiwaymann</a>"],"photo_reference":"AeJbb3fX77Z7PNSq_3ekqu28CoAJtW9-K5mlN0KOCqK6Rys5ecr6CDVzxITZEKmdDnNN1zUago5NF_R0wz1EQiPy7TyhhlhDMBkC-1PZt44CjAd5f4lxq-58H2ObCp1XVUKbTH31gNzRgGu8i3vqRjJXHO_vYFpkfwf4e5f7w9TxjbkDICvh","width":916}],"place_id":"ChIJaa0ThCHEhkcRI1IK3ek_ePw","plus_code":{"compound_code":"F624+V5 Milan, Metropolitan City of Milan","global_code":"8FQFF624+V5"},"price_level":2,"rating":4.7,"reference":"ChIJaa0ThCHEhkcRI1IK3ek_ePw","types":["restaurant","point_of_interest","food","establishment"],"user_ratings_total":987},{"business_status":"OPERATIONAL","formatted_address":"Via Andegari, 9, 20121 Milano MI","geometry":{"location":{"lat":45.469427,"lng":9.191110799999999},"viewport":{"northeast":{"lat":45.47076287989272,"lng":9.19250777989272},"southwest":{"lat":45.46806322010728,"lng":9.189808120107276}}},"icon":"https://maps.gstatic.com/mapfiles/place_api/icons/v1/png_71/restaurant-71.png","icon_background_color":"#FF9E67","icon_mask_base_uri":"https://maps.gstatic.com/mapfiles/place_api/icons/v2/restaurant_pinlet","name":"Seta","opening_hours":{"open_now":false},"photos":[{"height":3311,"html_attributions":["<a href=\"https://maps.google.com/maps/contrib/105350022843518308857\">Fine Dining (inside Mandarin Oriental)</a>"],"photo_reference":"AeJbb3ddgO_zYjPvXTh5hjnsdK3H-SsE9wyCAzCaA2W-hIMohm6XA1kfXu-6N6JDrLC3GDd7yuqe_EIbZAzdMOy2lAOt39jN3_qDigvpQs7ThddMOW_mhEtlZYAL9lIaDCSLa1roPgPLjkAqplRAnHZqIkct_M1JjP360S2o8SSfftn8ITus","width":4961}],"place_id":"ChIJ4SpfKbLGhkcRelRO_y0t8ZE","plus_code":{"compound_code":"F59R+QF Milan, Metropolitan City of Milan","global_code":"8FQFF59R+QF"},"price_level":4,"rating":4.7,"reference":"ChIJ4SpfKbLGhkcRelRO_y0t8ZE","types":["restaurant","point_of_interest","food","establishment"],"user_ratings_total":409},{"business_status":"OPERATIONAL","formatted_address":"Via Tortona, 56, 20144 Milano MI","geometry":{"location":{"lat":45.4515503,"lng":9.1616272},"viewport":{"northeast":{"lat":45.45285382989272,"lng":9.163003829892721},"southwest":{"lat":45.45015417010728,"lng":9.160304170107278}}},"icon":"https://maps.gstatic.com/mapfiles/place_api/icons/v1/png_71/restaurant-71.png","icon_background_color":"#FF9E67","icon_mask_base_uri":"https://maps.gstatic.com/mapfiles/place_api/icons/v2/restaurant_pinlet","name":"Enrico Bartolini","opening_hours":{"open_now":false},"photos":[{"height":3036,"html_attributions":["<a href=\"https://maps.google.com/maps/contrib/106519622027905421279\">Elaine Chang</a>"],"photo_reference":"AeJbb3d_24y4GSPC9gi2qS_cW4L0asPRQqSl2LKrqjDdy3Zcdrei0hukwauFTgflwY8WJnmNs0sgcIdoErFqFX2LMoJRlcujvgdkRW1Q7__2u51hoc5xPoMVw8lGvSS6HBUA1JXmQ08gRBjFsqtpjuRCZmlT7di7GteAoGRSvu5KkjIOMrdu","width":4048}],"place_id":"ChIJr54jbebDhkcRlR68yNtO368","plus_code":{"compound_code":"F526+JM Milan, Metropolitan City of Milan","global_code":"8FQFF526+JM"},"price_level":4,"rating":4.7,"reference":"ChIJr54jbebDhkcRlR68yNtO368","types":["restaurant","food","point_of_interest","establishment"],"user_ratings_total":338},{"business_status":"OPERATIONAL","formatted_address":"Via Romagnosi, 4, 20121 Milano MI","geometry":{"location":{"lat":45.4685966,"lng":9.1904551},"viewport":{"northeast":{"lat":45.46992022989271,"lng":9.191841179892721},"southwest":{"lat":45.46722057010727,"lng":9.189141520107277}}},"icon":"https://maps.gstatic.com/mapfiles/place_api/icons/v1/png_71/restaurant-71.png","icon_background_color":"#FF9E67","icon_mask_base_uri":"https://maps.gstatic.com/mapfiles/place_api/icons/v2/restaurant_pinlet","name":"DeRos Restaurant","opening_hours":{"open_now":true},"photos":[{"height":696,"html_attributions":["<a href=\"https://maps.google.com/maps/contrib/102098204451051148074\">A Google User</a>"],"photo_reference":"AeJbb3e_jF4PWV7X6dBaWXls_XmwPgT2YQ9CEsv2TscSWviZ0TYHxvKRF1QEVg-IeDNXU2Cml0WuJFkV9cuJ5IRWediBoep6eE0j6r85x783BVDsogblI-Q00f2jZes7FrOphZLblMFYDtWnlWyBaKGPrTH4wvPdsCIyCD_s5uw051H9MPwR","width":1336}],"place_id":"ChIJK_UzF_u8hkcRK0cz2A_Ro4M","plus_code":{"compound_code":"F59R+C5 Milan, Metropolitan City of Milan","global_code":"8FQFF59R+C5"},"rating":4.7,"reference":"ChIJK_UzF_u8hkcRK0cz2A_Ro4M","types":["restaurant","point_of_interest","food","establishment"],"user_ratings_total":296},{"business_status":"OPERATIONAL","formatted_address":"Via Romagnosi, 3, 20121 Milano MI","geometry":{"location":{"lat":45.4685731,"lng":9.190256399999999},"viewport":{"northeast":{"lat":45.46995002989272,"lng":9.191634979892722},"southwest":{"lat":45.46725037010727,"lng":9.188935320107278}}},"icon":"https://maps.gstatic.com/mapfiles/place_api/icons/v1/png_71/restaurant-71.png","icon_background_color":"#FF9E67","icon_mask_base_uri":"https://maps.gstatic.com/mapfiles/place_api/icons/v2/restaurant_pinlet","name":"Identità Golose","opening_hours":{"open_now":false},"photos":[{"height":1320,"html_attributions":["<a href=\"https://maps.google.com/maps/contrib/106478281530672489385\">A Google User</a>"],"photo_reference":"AeJbb3clF-apUrIQGtfbhDOLhbhOJkWxbYb9OKX2wVsb7Xo5QtnUd7anozUIBozovaUA9ttMBIjYskUJC7XF4127-61kZZnqq6Yue5oo6i93KYf17u_SsYvNVifZf41dkZs87IgEwHPcHxezPYannXLnXJNMKdF1CMJwydTj4T_RqoKe0qtk","width":1980}],"place_id":"ChIJ-9nDQ6LHhkcR5b3SpGXsx80","plus_code":{"compound_code":"F59R+C4 Milan, Metropolitan City of Milan","global_code":"8FQFF59R+C4"},"rating":4.7,"reference":"ChIJ-9nDQ6LHhkcR5b3SpGXsx80","types":["restaurant","food","point_of_interest","establishment"],"user_ratings_total":263},{"business_status":"OPERATIONAL","formatted_address":"Via Savona, 10, 20144 Milano MI","geometry":{"location":{"lat":45.4556502,"lng":9.1685857},"viewport":{"northeast":{"lat":45.45696667989272,"lng":9.169978479892722},"southwest":{"lat":45.45426702010728,"lng":9.167278820107278}}},"icon":"https://maps.gstatic.com/mapfiles/place_api/icons/v1/png_71/restaurant-71.png","icon_background_color":"#FF9E67","icon_mask_base_uri":"https://maps.gstatic.com/mapfiles/place_api/icons/v2/restaurant_pinlet","name":"Langosteria","opening_hours":{"open_now":false},"photos":[{"height":1440,"html_attributions":["<a href=\"https://maps.google.com/maps/contrib/104901061990999085525\">A Google User</a>"],"photo_reference":"AeJbb3cCXAKbFXukRyHJinz2cNV9kGdvGyvIgAThtprNFVqrIXdh2ceBfUpgQCZkFI0Mm4XZrw8EJSLraDntjzBWEaGu_Rh3wcd0AbyD_2_ah5r55AE2W3LeIgCt8jscRKmRr9qTEx0DuDFt7m_9JiDcK5bm8ngfaI2Sb3ZGb-sL3F6eGdSQ","width":1440}],"place_id":"ChIJJ-xSRePDhkcRDJRTjmN-7_o","plus_code":{"compound_code":"F549+7C Milan, Metropolitan City of Milan","global_code":"8FQFF549+7C"},"price_level":4,"rating":4.6,"reference":"ChIJJ-xSRePDhkcRDJRTjmN-7_o","types":["restaurant","point_of_interest","food","establishment"],"user_ratings_total":1438},{"business_status":"OPERATIONAL","formatted_address":"Via Federico Confalonieri, 15, 20124 Milano MI","geometry":{"location":{"lat":45.4866869,"lng":9.191314499999999},"viewport":{"northeast":{"lat":45.48817817989272,"lng":9.192656529892721},"southwest":{"lat":45.48547852010728,"lng":9.189956870107277}}},"icon":"https://maps.gstatic.com/mapfiles/place_api/icons/v1/png_71/restaurant-71.png","icon_background_color":"#FF9E67","icon_mask_base_uri":"https://maps.gstatic.com/mapfiles/place_api/icons/v2/restaurant_pinlet","name":"Bosco Verticale Restaurant","opening_hours":{"open_now":false},"photos":[{"height":3840,"html_attributions":["<a href=\"https://maps.google.com/maps/contrib/106915836470767077680\">Enrico Rosati</a>"],"photo_reference":"AeJbb3eQ-F9RnODSw674zXQWicRLjm1pSJCndcNKRb7OM7cWf_x4Tot1ZwLCi31LLf6TD3DK5w1QhQNfWsTB5u41PTS_8bMT4wEqcgXwHdvXScHAvmimijkqH3giQP2rHudlde1HBXmhuCj1HQCJ0u6ajbYt9UL2u4TP0i4i53_yN0YAXlqq","width":2160}],"place_id":"ChIJhT25ytLGhkcRJQQzQy3d4_g","plus_code":{"compound_code":"F5PR+PG Milan, Metropolitan City of Milan","global_code":"8FQFF5PR+PG"},"price_level":2,"rating":4.6,"reference":"ChIJhT25ytLGhkcRJQQzQy3d4_g","types":["restaurant","food","point_of_interest","establishment"],"user_ratings_total":588},{"business_status":"OPERATIONAL","formatted_address":"Piazza Duca d'Aosta, 9, 20124 Milano MI","geometry":{"location":{"lat":45.4854813,"lng":9.2015995},"viewport":{"northeast":{"lat":45.48679767989272,"lng":9.203034579892723},"southwest":{"lat":45.48409802010728,"lng":9.200334920107277}}},"icon":"https://maps.gstatic.com/mapfiles/place_api/icons/v1/png_71/restaurant-71.png","icon_background_color":"#FF9E67","icon_mask_base_uri":"https://maps.gstatic.com/mapfiles/place_api/icons/v2/restaurant_pinlet","name":"Terrazza Gallia","opening_hours":{"open_now":false},"photos":[{"height":1588,"html_attributions":["<a href=\"https://maps.google.com/maps/contrib/115618340993029784913\">massimiliano</a>"],"photo_reference":"AeJbb3ejDfn7QuoZ-mUmj12ogfpcERuKZ76UNmRTUfPd2oRnTBbZDlJRB0lIArLLnghb53wmy-ayrXQVOFlvfO-6iOey6cQYrbhV_AK82iNB-EYDQLKS30pl2KMvwNEdYBkq9UjBFaYrio7PY2pFnLgW8vgEyYLtRBR5q1NaBkHvANtMugpW","width":3264}],"place_id":"ChIJjzEOBNDGhkcRms4ppXAXGWE","plus_code":{"compound_code":"F6P2+5J Milan, Metropolitan City of Milan","global_code":"8FQFF6P2+5J"},"rating":4.6,"reference":"ChIJjzEOBNDGhkcRms4ppXAXGWE","types":["restaurant","bar","point_of_interest","food","establishment"],"user_ratings_total":434},{"business_status":"OPERATIONAL","formatted_address":"angolo, Via Privata Nino Bonnet, Viale Pasubio, 20154 Milano MI","geometry":{"location":{"lat":45.481654,"lng":9.1844485},"viewport":{"northeast":{"lat":45.48299662989272,"lng":9.185796979892723},"southwest":{"lat":45.48029697010728,"lng":9.18309732010728}}},"icon":"https://maps.gstatic.com/mapfiles/place_api/icons/v1/png_71/restaurant-71.png","icon_background_color":"#FF9E67","icon_mask_base_uri":"https://maps.gstatic.com/mapfiles/place_api/icons/v2/restaurant_pinlet","name":"AleXAmber","opening_hours":{"open_now":false},"photos":[{"height":1200,"html_attributions":["<a href=\"https://maps.google.com/maps/contrib/114338655016077161239\">A Google User</a>"],"photo_reference":"AeJbb3d2JoiDITmNttini8s55aMz6eZwL--4Rikao9A-w3s6MQjolv9D5zSoYlTIQmXvw85S4z5e2Bbqtqmizn749BvLIZ_wtoerJuSQW4doHSpYtEGJTaq3csTyrq0uIArpixWchwFbsqoQLukEWMgJ7lEg-Y6ANQ8OD1mapQQ6bLPPz541","width":1600}],"place_id":"ChIJtZACEjTBhkcRO_8_xOplbSo","plus_code":{"compound_code":"F5JM+MQ Milan, Metropolitan City of Milan","global_code":"8FQFF5JM+MQ"},"rating":4.6,"reference":"ChIJtZACEjTBhkcRO_8_xOplbSo","types":["restaurant","food","point_of_interest","establishment"],"user_ratings_total":238},{"business_status":"OPERATIONAL","formatted_address":"Via Alberico Albricci, 2/4, 20122 Milano MI","geometry":{"location":{"lat":45.4608604,"lng":9.189021499999999},"viewport":{"northeast":{"lat":45.46227557989272,"lng":9.190229079892722},"southwest":{"lat":45.45957592010728,"lng":9.187529420107278}}},"icon":"https://maps.gstatic.com/mapfiles/place_api/icons/v1/png_71/restaurant-71.png","icon_background_color":"#FF9E67","icon_mask_base_uri":"https://maps.gstatic.com/mapfiles/place_api/icons/v2/restaurant_pinlet","name":"Arya","opening_hours":{"open_now":true},"photos":[{"height":2268,"html_attributions":["<a href=\"https://maps.google.com/maps/contrib/115683281180963852098\">Piu Turismo</a>"],"photo_reference":"AeJbb3foQfdPCF02MD058wSt2EnmXXqzXKnbdVDIJhClLaSAJ9DbVVCZfQs6leo5vE6xC8zi4fDgTvVDBDu3yVgnm2nSvMtTcbbeZapm_wQPKLcGF-cJ02I3RxDqhJ9yUDVvt67EDNbyia11kgUPOGZrv98qqOCPRoY7mt_m99aXy396Q22_","width":4032}],"place_id":"ChIJL_dYeqnGhkcRGyTUp-V6VGI","plus_code":{"compound_code":"F56Q+8J Milan, Metropolitan City of Milan","global_code":"8FQFF56Q+8J"},"rating":4.6,"reference":"ChIJL_dYeqnGhkcRGyTUp-V6VGI","types":["restaurant","food","point_of_interest","establishment"],"user_ratings_total":38},{"business_status":"OPERATIONAL","formatted_address":"Via Marco Cremosano, 41, 20148 Milano MI","geometry":{"location":{"lat":45.4832348,"lng":9.1380271},"viewport":{"northeast":{"lat":45.48464037989272,"lng":9.139381029892721},"southwest":{"lat":45.48194072010727,"lng":9.136681370107278}}},"icon":"https://maps.gstatic.com/mapfiles/place_api/icons/v1/png_71/restaurant-71.png","icon_background_color":"#FF9E67","icon_mask_base_uri":"https://maps.gstatic.com/mapfiles/place_api/icons/v2/restaurant_pinlet","name":"Ribot Restaurant, Milano","opening_hours":{"open_now":false},"photos":[{"height":600,"html_attributions":["<a href=\"https://maps.google.com/maps/contrib/100869439969462918550\">Matteo Cattaneo</a>"],"photo_reference":"AeJbb3cSeGsaIQo2kysnMeRofZI1OLTk53yPeTk-1d06uQugFnb5rrDCGypVmz1Z-v3dVyk3nrkHMe4P5fbdv3i70cygvnujjn-KiD5EDtzXjzLc5IDWPhWjqicpzyTkBPBXf-wPKUoG4kxeeYL304XQjbipAoyJVJNh3GC1Tq6dt_-cXZyG","width":800}],"place_id":"ChIJn4mXg6HBhkcRrnzFv2yPXR8","plus_code":{"compound_code":"F4MQ+76 Milan, Metropolitan City of Milan","global_code":"8FQFF4MQ+76"},"price_level":3,"rating":4.5,"reference":"ChIJn4mXg6HBhkcRrnzFv2yPXR8","types":["restaurant","point_of_interest","food","establishment"],"user_ratings_total":3212},{"business_status":"OPERATIONAL","formatted_address":"Via dei Piatti, 4, 20123 Milano MI","geometry":{"location":{"lat":45.4607946,"lng":9.185098499999999},"viewport":{"northeast":{"lat":45.46216382989272,"lng":9.186502179892724},"southwest":{"lat":45.45946417010727,"lng":9.18380252010728}}},"icon":"https://maps.gstatic.com/mapfiles/place_api/icons/v1/png_71/restaurant-71.png","icon_background_color":"#FF9E67","icon_mask_base_uri":"https://maps.gstatic.com/mapfiles/place_api/icons/v2/restaurant_pinlet","name":"Rossini Ristorante Pizzeria","opening_hours":{"open_now":true},"photos":[{"height":960,"html_attributions":["<a href=\"https://maps.google.com/maps/contrib/117622715637687757784\">Rossini - Ristorante Pizzeria</a>"],"photo_reference":"AeJbb3cPg6FPQkm_PYhzQL0GCShJZLipPLfY60-jEc9o5nw37jMXr531-6JsP3jGRDogCDs8CqhVdHja2c00ZP1IwaTFqsLCEK8HtQyMHzyMihI3M4PFcocyteQ6sUaXowy6UMzJzKMABn5whqVizp7sIG5uIMvCqGHDUbWLF-X15zu3Prnq","width":960}],"place_id":"ChIJd3kiltnHhkcRZIjQdebf5js","plus_code":{"compound_code":"F56P+82 Milan, Metropolitan City of Milan","global_code":"8FQFF56P+82"},"rating":4.5,"reference":"ChIJd3kiltnHhkcRZIjQdebf5js","types":["restaurant","food","point_of_interest","establishment"],"user_ratings_total":1185},{"business_status":"OPERATIONAL","formatted_address":"Via Aminto Caretto, 3, 20124 Milano MI","geometry":{"location":{"lat":45.4828066,"lng":9.199688199999999},"viewport":{"northeast":{"lat":45.48419342989272,"lng":9.200866379892723},"southwest":{"lat":45.48149377010728,"lng":9.19816672010728}}},"icon":"https://maps.gstatic.com/mapfiles/place_api/icons/v1/png_71/restaurant-71.png","icon_background_color":"#FF9E67","icon_mask_base_uri":"https://maps.gstatic.com/mapfiles/place_api/icons/v2/restaurant_pinlet","name":"MU dimsum","opening_hours":{"open_now":false},"photos":[{"height":3024,"html_attributions":["<a href=\"https://maps.google.com/maps/contrib/118268292884916810516\">Michelle Cheung</a>"],"photo_reference":"AeJbb3dYzxHMSAENEzvKRNg0mIUuLMMtAO_BrcTtRPpp_n8SJtkKCBYNGxF8HfINZWTUY_LGsWuiuhJlZyA0G_3L7AnTa1gJfkyYsI8y8qCfXgdZlw30SxJottYeq3L-TYcdXzKR2mTeSWmOq7q67l4g-Jewmv_uUU5x0pcsegvc_IeOiqcs","width":4032}],"place_id":"ChIJ83nHDs_GhkcRcYLaKeVd4t0","plus_code":{"compound_code":"F5MX+4V Milan, Metropolitan City of Milan","global_code":"8FQFF5MX+4V"},"price_level":2,"rating":4.5,"reference":"ChIJ83nHDs_GhkcRcYLaKeVd4t0","types":["restaurant","food","point_of_interest","establishment"],"user_ratings_total":1041},{"business_status":"OPERATIONAL","formatted_address":"Via Gastone Pisoni, 1, 20121 Milano MI","geometry":{"location":{"lat":45.4706525,"lng":9.1928698},"viewport":{"northeast":{"lat":45.47212157989271,"lng":9.194406829892722},"southwest":{"lat":45.46942192010727,"lng":9.191707170107279}}},"icon":"https://maps.gstatic.com/mapfiles/place_api/icons/v1/png_71/restaurant-71.png","icon_background_color":"#FF9E67","icon_mask_base_uri":"https://maps.gstatic.com/mapfiles/place_api/icons/v2/restaurant_pinlet","name":"Armani/Nobu","opening_hours":{"open_now":true},"photos":[{"height":3024,"html_attributions":["<a href=\"https://maps.google.com/maps/contrib/114481280944792988245\">Alessandro</a>"],"photo_reference":"AeJbb3frQaCw64OfPQVMx4Vi0jk-dbw5Q7GdcpJLEKMnSvJYg-loz5NAkfBNoXuNqJAwjxn3y9Y6iodnq_wUsUjRKps8Vbex1gedfmWnEZ2Bn-rIb2fiyQtbMpjjtOSs39eJtbqj142wCuCl3l2cpFaWDLT6BanmYajYsddnU-XR9Zxj7E3v","width":4032}],"place_id":"ChIJe6X0QLHGhkcROAAEgnwIuqk","plus_code":{"compound_code":"F5CV+74 Milan, Metropolitan City of Milan","global_code":"8FQFF5CV+74"},"price_level":4,"rating":4.5,"reference":"ChIJe6X0QLHGhkcROAAEgnwIuqk","types":["restaurant","food","point_of_interest","establishment"],"user_ratings_total":838},{"business_status":"OPERATIONAL","formatted_address":"Piazza Venticinque Aprile, 10, 20121 Milano MI","geometry":{"location":{"lat":45.4805887,"lng":9.1878579},"viewport":{"northeast":{"lat":45.48182632989272,"lng":9.189023279892721},"southwest":{"lat":45.47912667010728,"lng":9.186323620107277}}},"icon":"https://maps.gstatic.com/mapfiles/place_api/icons/v1/png_71/restaurant-71.png","icon_background_color":"#FF9E67","icon_mask_base_uri":"https://maps.gstatic.com/mapfiles/place_api/icons/v2/restaurant_pinlet","name":"Viva","opening_hours":{"open_now":true},"photos":[{"height":3472,"html_attributions":["<a href=\"https://maps.google.com/maps/contrib/104719441724644893949\">Nicolò Grando</a>"],"photo_reference":"AeJbb3c4F2jvrJ6pYjZFW26x9eNo1J6r9MdFG6GtNlRleWkCZMPsKsAASHNtWo4739uQ_FLtpTlylfZNGL6Ix57nVUf_M8l6bsH7CbGKCYANY6Hpg4Bmcb4hKhqhV7S8VlZ3PXvbRBEbxjjVDBQSA6M5sZ-dgI-gNjLTQpaI6CpCWFiCAWH2","width":4624}],"place_id":"ChIJF97icTAuVUARcvBxqzOR1bw","plus_code":{"compound_code":"F5JQ+64 Milan, Metropolitan City of Milan","global_code":"8FQFF5JQ+64"},"price_level":4,"rating":4.5,"reference":"ChIJF97icTAuVUARcvBxqzOR1bw","types":["restaurant","point_of_interest","food","establishment"],"user_ratings_total":504},{"business_status":"OPERATIONAL","formatted_address":"Via Privata Raimondo Montecuccoli, 6, 20147 Milano MI","geometry":{"location":{"lat":45.4584894,"lng":9.1312372},"viewport":{"northeast":{"lat":45.45986622989273,"lng":9.132570779892722},"southwest":{"lat":45.45716657010728,"lng":9.129871120107278}}},"icon":"https://maps.gstatic.com/mapfiles/place_api/icons/v1/png_71/restaurant-71.png","icon_background_color":"#FF9E67","icon_mask_base_uri":"https://maps.gstatic.com/mapfiles/place_api/icons/v2/restaurant_pinlet","name":"Il Luogo di Aimo e Nadia","opening_hours":{"open_now":false},"photos":[{"height":3024,"html_attributions":["<a href=\"https://maps.google.com/maps/contrib/104666620756388791038\">A Google User</a>"],"photo_reference":"AeJbb3cIIR-wlBgrihtZaHj4IV6McJVU0T-olE1v5f5zJ9pF7gDVbdI65f1YN7B1YDjLayAn7T69bdSFySh0pPvlaGp_lWBf_TcKqCVSPJGdQ1U-Vgxw03ELzjZAY9GfdUFWPIDuhgxzy5N9QDLOx6LGI1t72K07tJ_pB5by-fA46dEVC0LY","width":4032}],"place_id":"ChIJ9aorjSvChkcRD0Zd5dxZ2s4","plus_code":{"compound_code":"F45J+9F Milan, Metropolitan City of Milan","global_code":"8FQFF45J+9F"},"price_level":4,"rating":4.5,"reference":"ChIJ9aorjSvChkcRD0Zd5dxZ2s4","types":["restaurant","food","point_of_interest","establishment"],"user_ratings_total":437},{"business_status":"OPERATIONAL","formatted_address":"Piazza della Repubblica, 17, 20124 Milano MI","geometry":{"location":{"lat":45.4798307,"lng":9.1966924},"viewport":{"northeast":{"lat":45.48140712989272,"lng":9.19792547989272},"southwest":{"lat":45.47870747010727,"lng":9.195225820107277}}},"icon":"https://maps.gstatic.com/mapfiles/place_api/icons/v1/png_71/restaurant-71.png","icon_background_color":"#FF9E67","icon_mask_base_uri":"https://maps.gstatic.com/mapfiles/place_api/icons/v2/restaurant_pinlet","name":"Ristorante Acanto","opening_hours":{"open_now":false},"photos":[{"height":656,"html_attributions":["<a href=\"https://maps.google.com/maps/contrib/115340149173415822789\">Ange Liu</a>"],"photo_reference":"AeJbb3eiKp9rtCBg3fK18pbyM7sXCAE4SExl_SGKnJeSQVp5vXGtpHhonBWkMrjRvK3F-lifrbqBJ2NEYhYUVI_oWjDSVypu6hDjh3Yd8LyiaB-CsFdPYOwKWPuyap4A-c1YTm8pqVjMQaM0XFzXVqp4wKX2jTyTXN8RrdQ5FtKWrYlobzod","width":935}],"place_id":"ChIJJ2Eh4MjGhkcR_kx-OI2fdiM","plus_code":{"compound_code":"F5HW+WM Milan, Metropolitan City of Milan","global_code":"8FQFF5HW+WM"},"price_level":3,"rating":4.5,"reference":"ChIJJ2Eh4MjGhkcR_kx-OI2fdiM","types":["restaurant","point_of_interest","food","establishment"],"user_ratings_total":279},{"business_status":"OPERATIONAL","formatted_address":"Via Alessandro Manzoni, 5, 20121 Milano MI","geometry":{"location":{"lat":45.4680508,"lng":9.190519799999999},"viewport":{"northeast":{"lat":45.46936457989272,"lng":9.19185397989272},"southwest":{"lat":45.46666492010728,"lng":9.189154320107276}}},"icon":"https://maps.gstatic.com/mapfiles/place_api/icons/v1/png_71/restaurant-71.png","icon_background_color":"#FF9E67","icon_mask_base_uri":"https://maps.gstatic.com/mapfiles/place_api/icons/v2/restaurant_pinlet","name":"The Manzoni","opening_hours":{"open_now":true},"photos":[{"height":4032,"html_attributions":["<a href=\"https://maps.google.com/maps/contrib/114251262855723988404\">riccardo carraro</a>"],"photo_reference":"AeJbb3fpaQSwPQGrXjgUDRXtDHzwQiVw2DRKMAEV4-wgv8X47rgbaK2kr-CmFuQnvA0Xq83mcO_bntZWlcSsfyQBvVUlzE-a9aZmQBRx3kHlwY-8AZMyBmwRny8wbhBPqtqj5AjBVj7-wIlThNHnYk_YlxDCopdFSPWK-wi9Aj4PxjAqRX3W","width":3024}],"place_id":"ChIJS0Gn6v3HhkcRUFMuhOuLADg","plus_code":{"compound_code":"F59R+65 Milan, Metropolitan City of Milan","global_code":"8FQFF59R+65"},"rating":4.5,"reference":"ChIJS0Gn6v3HhkcRUFMuhOuLADg","types":["restaurant","bar","point_of_interest","food","establishment"],"user_ratings_total":277},{"business_status":"OPERATIONAL","formatted_address":"Viale Monte Grappa, 6, 20124 Milano MI","geometry":{"location":{"lat":45.4805741,"lng":9.1914123},"viewport":{"northeast":{"lat":45.48186337989272,"lng":9.192797479892723},"southwest":{"lat":45.47916372010727,"lng":9.19009782010728}}},"icon":"https://maps.gstatic.com/mapfiles/place_api/icons/v1/png_71/restaurant-71.png","icon_background_color":"#FF9E67","icon_mask_base_uri":"https://maps.gstatic.com/mapfiles/place_api/icons/v2/restaurant_pinlet","name":"Il Liberty","opening_hours":{"open_now":false},"photos":[{"height":3024,"html_attributions":["<a href=\"https://maps.google.com/maps/contrib/103513645028841308901\">Francesco Zampa</a>"],"photo_reference":"AeJbb3di1jstQC-RbU3o0kPBuvD1MdoHJLLYtFVdccNzPLt9WTJ3mYqw4wOwKW1IqnP6x_W_VVsW62pZtw_bUnSluc23MoRZ-b6iXdabVYazjCd0zruLckCGB7nbdWZZIaWuRoiq13tR0n2gXUrmSCKBz6d8dLokfrOH7vxOxUmmzoXO8Oun","width":4032}],"place_id":"ChIJpXlWcsvGhkcRe2RdEu9sQGc","plus_code":{"compound_code":"F5JR+6H Milan, Metropolitan City of Milan","global_code":"8FQFF5JR+6H"},"price_level":3,"rating":4.5,"reference":"ChIJpXlWcsvGhkcRe2RdEu9sQGc","types":["restaurant","food","point_of_interest","establishment"],"user_ratings_total":271},{"business_status":"OPERATIONAL","formatted_address":"Via Giorgio Washington, 56, 20146 Milano MI","geometry":{"location":{"lat":45.4622238,"lng":9.1547467},"viewport":{"northeast":{"lat":45.46354867989272,"lng":9.15617482989272},"southwest":{"lat":45.46084902010728,"lng":9.153475170107276}}},"icon":"https://maps.gstatic.com/mapfiles/place_api/icons/v1/png_71/restaurant-71.png","icon_background_color":"#FF9E67","icon_mask_base_uri":"https://maps.gstatic.com/mapfiles/place_api/icons/v2/restaurant_pinlet","name":"Borgia - Milano","opening_hours":{"open_now":true},"photos":[{"height":2988,"html_attributions":["<a href=\"https://maps.google.com/maps/contrib/111576061795108897020\">Paolo Tamburini</a>"],"photo_reference":"AeJbb3elQ7eNTIOnCBtBpL4IueKWCZ38k1ANG4Z7kk6_9Zg-5ai6K2RGXC7RV1WlD_8z1ayysz4pc1CfVFmWQMVtCODWNraOzkZ_gL4IUwQQn3vmpmZs8xyqqArksu-ES57000KmLw9lQhUam4WdvZbjGCrDTtGOsUA5LuRLJOFE3w-ejin3","width":5312}],"place_id":"ChIJCRPwkmHBhkcRmhfIHTD4MoQ","plus_code":{"compound_code":"F563+VW Milan, Metropolitan City of Milan","global_code":"8FQFF563+VW"},"price_level":2,"rating":4.5,"reference":"ChIJCRPwkmHBhkcRmhfIHTD4MoQ","types":["restaurant","food","point_of_interest","establishment"],"user_ratings_total":230},{"business_status":"OPERATIONAL","formatted_address":"Château Monfort, Corso Concordia, 1, 20129 Milano MI","geometry":{"location":{"lat":45.4682088,"lng":9.207415899999999},"viewport":{"northeast":{"lat":45.46954682989272,"lng":9.208707629892722},"southwest":{"lat":45.46684717010728,"lng":9.206007970107278}}},"icon":"https://maps.gstatic.com/mapfiles/place_api/icons/v1/png_71/restaurant-71.png","icon_background_color":"#FF9E67","icon_mask_base_uri":"https://maps.gstatic.com/mapfiles/place_api/icons/v2/restaurant_pinlet","name":"Rubacuori Restaurant","opening_hours":{"open_now":false},"photos":[{"height":2002,"html_attributions":["<a href=\"https://maps.google.com/maps/contrib/108478539650766836671\">Rubacuori</a>"],"photo_reference":"AeJbb3c2zdw0m7ZZ9I0JFBRCWcnFOhoZ6euhph_2lk8oLpeq7IcPT2Yv4UHjsR1MOWVXdjwZaCcUoDdxBJsYTu7wCrne8OInTtRqdoQDFM19le27BEOpjX45TubGnkc2LnaaHSqO8Bykq4Vnteav1mE4fN7P-SI76eKaV5gPIcZC60p9eCCu","width":3000}],"place_id":"ChIJK98kd73GhkcRuNSYPbHlw4o","plus_code":{"compound_code":"F694+8X Milan, Metropolitan City of Milan","global_code":"8FQFF694+8X"},"rating":4.5,"reference":"ChIJK98kd73GhkcRuNSYPbHlw4o","types":["restaurant","point_of_interest","food","establishment"],"user_ratings_total":195},{"business_status":"OPERATIONAL","formatted_address":"angolo Menotti, Via Carlo Goldoni, 36, 20129 Milano MI","geometry":{"location":{"lat":45.4691772,"lng":9.213642},"viewport":{"northeast":{"lat":45.47055597989272,"lng":9.214877229892723},"southwest":{"lat":45.46785632010728,"lng":9.21217757010728}}},"icon":"https://maps.gstatic.com/mapfiles/place_api/icons/v1/png_71/restaurant-71.png","icon_background_color":"#FF9E67","icon_mask_base_uri":"https://maps.gstatic.com/mapfiles/place_api/icons/v2/restaurant_pinlet","name":"Felix Lo Basso Home&Restaurant","opening_hours":{"open_now":false},"photos":[{"height":1960,"html_attributions":["<a href=\"https://maps.google.com/maps/contrib/111625123457929085128\">Alan Dust</a>"],"photo_reference":"AeJbb3cr5RE5z34I_u4Zi9lV_-fi79mFGRZq4IaeFWj-zJz6p6uZg1TBVhoa-1oH38TPmQaIsBTQ2-nKzVgJeG4-3cvwjxNBNTTv63PyGeoJS_60MlQAD3uawtNJS4DFbFPELPz4OoojEvWI2a9IqHFNk9tZlwU-9DcJLLUsWb-qzEeBz5co","width":4032}],"place_id":"ChIJWz2IKazGhkcRf_lCNq3pUnw","plus_code":{"compound_code":"F697+MF Milan, Metropolitan City of Milan","global_code":"8FQFF697+MF"},"price_level":4,"rating":4.5,"reference":"ChIJWz2IKazGhkcRf_lCNq3pUnw","types":["restaurant","point_of_interest","food","establishment"],"user_ratings_total":173},{"business_status":"OPERATIONAL","formatted_address":"Via Andegari, 9, 20121 Milano MI","geometry":{"location":{"lat":45.4694388,"lng":9.1908671},"viewport":{"northeast":{"lat":45.47072237989272,"lng":9.192296479892724},"southwest":{"lat":45.46802272010728,"lng":9.18959682010728}}},"icon":"https://maps.gstatic.com/mapfiles/place_api/icons/v1/png_71/bar-71.png","icon_background_color":"#FF9E67","icon_mask_base_uri":"https://maps.gstatic.com/mapfiles/place_api/icons/v2/bar_pinlet","name":"Mandarin Garden","opening_hours":{"open_now":true},"photos":[{"height":4032,"html_attributions":["<a href=\"https://maps.google.com/maps/contrib/115501408507835795204\">Carlo Martegani</a>"],"photo_reference":"AeJbb3dPMwuJ0lpa-qQP3gXzKlpjJ0S2uNy2kvkKYXVrH7KYK1LgF67LR-L_GCWkPx0rhnWK7oQV9bCwJ--_BTIgXDo24KZyJ4VOJtRoXUscWlcImHlf9ovujx9Em4lIecG5jwgox-ofM4aTCfibT8igjN-mMycYNDTMM7GzSOGPVsY65CaH","width":3024}],"place_id":"ChIJdSxYKbLGhkcR7pkAxvFerxA","plus_code":{"compound_code":"F59R+Q8 Milan, Metropolitan City of Milan","global_code":"8FQFF59R+Q8"},"price_level":4,"rating":4.5,"reference":"ChIJdSxYKbLGhkcR7pkAxvFerxA","types":["bar","night_club","restaurant","food","point_of_interest","establishment"],"user_ratings_total":136},{"business_status":"OPERATIONAL","formatted_address":"Via Eugenio Villoresi, 16, 20143 Milano MI","geometry":{"location":{"lat":45.4476536,"lng":9.1629078},"viewport":{"northeast":{"lat":45.44901457989272,"lng":9.16433052989272},"southwest":{"lat":45.44631492010728,"lng":9.161630870107276}}},"icon":"https://maps.gstatic.com/mapfiles/place_api/icons/v1/png_71/restaurant-71.png","icon_background_color":"#FF9E67","icon_mask_base_uri":"https://maps.gstatic.com/mapfiles/place_api/icons/v2/restaurant_pinlet","name":"Ristorante Acquada","opening_hours":{"open_now":false},"photos":[{"height":800,"html_attributions":["<a href=\"https://maps.google.com/maps/contrib/101309940848807027480\">Ristorante Acquada</a>"],"photo_reference":"AeJbb3dWRf6c7H6JHaiZdYtFgvW8sXSNX4hjk-jFswDApTz_lTyQRh-MCNkIZzyFkvG3hOp64avWJyKEaRB4LEcG7iw8YDDKULJjyOAQCA1IoVPhPNntwmcLO9fJMG5ATDWj4AYAsjR_M4WPfDyxmvR4pNidsNS42oaFmvzuOgkwjZTJU6fQ","width":1200}],"place_id":"ChIJqb3pMPY6hEcRwjXm1muXlcg","plus_code":{"compound_code":"C5X7+35 Milan, Metropolitan City of Milan","global_code":"8FQFC5X7+35"},"rating":4.5,"reference":"ChIJqb3pMPY6hEcRwjXm1muXlcg","types":["restaurant","point_of_interest","food","establishment"],"user_ratings_total":121},{"business_status":"OPERATIONAL","formatted_address":"Piazza Cincinnato, 4, 20124 Milano MI","geometry":{"location":{"lat":45.4798289,"lng":9.204496299999999},"viewport":{"northeast":{"lat":45.48116582989272,"lng":9.205763829892723},"southwest":{"lat":45.47846617010727,"lng":9.203064170107279}}},"icon":"https://maps.gstatic.com/mapfiles/place_api/icons/v1/png_71/restaurant-71.png","icon_background_color":"#FF9E67","icon_mask_base_uri":"https://maps.gstatic.com/mapfiles/place_api/icons/v2/restaurant_pinlet","name":"Osteria Mamma Rosa","opening_hours":{"open_now":true},"photos":[{"height":3024,"html_attributions":["<a href=\"https://maps.google.com/maps/contrib/106243334713642558985\">A Google User</a>"],"photo_reference":"AeJbb3cwiFNB0jkDmPGvf_D60MrJWjmC_EYy3eSf3cfzkh3pKeYgqB04ebOo1mDKy9Sxqole9SKfg0KhC_LYg83D1Hvl-v4Zxh3naASIC8ti2_xUL2KS11hcAtty011jZOC40t_1p8iRREj83uxT2x42R3lsxTs_i16DgcDVQfQGeSzjCQaX","width":4032}],"place_id":"ChIJD2qElsbGhkcRPJ9sSZHm1bc","plus_code":{"compound_code":"F6H3+WQ Milan, Metropolitan City of Milan","global_code":"8FQFF6H3+WQ"},"price_level":3,"rating":4.4,"reference":"ChIJD2qElsbGhkcRPJ9sSZHm1bc","types":["restaurant","food","point_of_interest","establishment"],"user_ratings_total":2681},{"business_status":"OPERATIONAL","formatted_address":"Viale Belisario, 3, 20145 Milano MI","geometry":{"location":{"lat":45.4731496,"lng":9.1587318},"viewport":{"northeast":{"lat":45.47455762989271,"lng":9.160036779892721},"southwest":{"lat":45.47185797010727,"lng":9.157337120107275}}},"icon":"https://maps.gstatic.com/mapfiles/place_api/icons/v1/png_71/restaurant-71.png","icon_background_color":"#FF9E67","icon_mask_base_uri":"https://maps.gstatic.com/mapfiles/place_api/icons/v2/restaurant_pinlet","name":"Alessandro Borghese - Il lusso della semplicità","opening_hours":{"open_now":false},"photos":[{"height":724,"html_attributions":["<a href=\"https://maps.google.com/maps/contrib/115506312132153915472\">Massimo Pastori</a>"],"photo_reference":"AeJbb3f8zLOIcQ4PC06Ok0WYMh-0BGX14QScA_ugXmwxx2W0D5359-hV4p7yPnjoalksdx2SqkeRsvQXQhwKcC-ysr9BbhCrzy2DLG8ei9DkcT5XbhlrDdGw_U2LNiC3rrDuLfZ49gI9KymDSa3wvS0jaMDNa5-qJrV0irbPw6tWUeSSx60b","width":1440}],"place_id":"ChIJAQCwPWnBhkcRxNLWY4X1bnE","plus_code":{"compound_code":"F5F5+7F Milan, Metropolitan City of Milan","global_code":"8FQFF5F5+7F"},"price_level":3,"rating":4.4,"reference":"ChIJAQCwPWnBhkcRxNLWY4X1bnE","types":["restaurant","point_of_interest","food","establishment"],"user_ratings_total":2422},{"business_status":"OPERATIONAL","formatted_address":"Galleria Vittorio Emanuele II, 75, 20121 Milano MI","geometry":{"location":{"lat":45.4659497,"lng":9.1898425},"viewport":{"northeast":{"lat":45.46713787989273,"lng":9.19101522989272},"southwest":{"lat":45.46443822010728,"lng":9.188315570107276}}},"icon":"https://maps.gstatic.com/mapfiles/place_api/icons/v1/png_71/restaurant-71.png","icon_background_color":"#FF9E67","icon_mask_base_uri":"https://maps.gstatic.com/mapfiles/place_api/icons/v2/restaurant_pinlet","name":"Galleria Restaurant","opening_hours":{"open_now":true},"photos":[{"height":4032,"html_attributions":["<a href=\"https://maps.google.com/maps/contrib/104227355760814062627\">김성호</a>"],"photo_reference":"AeJbb3dddEvYXfitYfWcRsxc5sBQXdQ-hlURoCGsFHbdpOIhGlkbO1IY8g2BEXkV1MbdkgQt7PGj1iqoB1ZZSgfYZ_1hIfDdP7lXLAEn1tHLcc0nw7yQqoSNYdCybAg_7fN8at68UmWGLXTf9ndEBfds3BNmgNk7HOem-kvWloB-c80DruhL","width":3024}],"place_id":"ChIJjcBseK7GhkcRHlZ7PBALSOU","plus_code":{"compound_code":"F58Q+9W Milan, Metropolitan City of Milan","global_code":"8FQFF58Q+9W"},"price_level":3,"rating":4.4,"reference":"ChIJjcBseK7GhkcRHlZ7PBALSOU","types":["restaurant","food","point_of_interest","establishment"],"user_ratings_total":2060},{"business_status":"OPERATIONAL","formatted_address":"Via Luciano Morganti, 24/26, 20099 Sesto San Giovanni MI","geometry":{"location":{"lat":45.53126839999999,"lng":9.2278747},"viewport":{"northeast":{"lat":45.53257602989272,"lng":9.229185129892722},"southwest":{"lat":45.52987637010727,"lng":9.226485470107278}}},"icon":"https://maps.gstatic.com/mapfiles/place_api/icons/v1/png_71/restaurant-71.png","icon_background_color":"#FF9E67","icon_mask_base_uri":"https://maps.gstatic.com/mapfiles/place_api/icons/v2/restaurant_pinlet","name":"Morganti Wine & Restaurant","photos":[{"height":3882,"html_attributions":["<a href=\"https://maps.google.com/maps/contrib/109683452827400857644\">A Google User</a>"],"photo_reference":"AeJbb3fgPQLpnLpA1TdkaLS6hBl4asJ-iNljqZkwqMtNbEc_fxc9EAwatUpMDWNleOHwxZFkVnJc-SD3-ghyId4tDLjABcmLWmOZgn5uCOy7c5K-vCwqeKA8DIDVZ_pGr-maqrqi98z0YKGOG6em9E_Ny1m3pv8a0qj2KUWO2WRF2HAniHOs","width":5552}],"place_id":"ChIJb-Lmi1_HhkcRJUUF0DfXyrA","plus_code":{"compound_code":"G6JH+G4 Sesto San Giovanni, Metropolitan City of Milan","global_code":"8FQFG6JH+G4"},"price_level":2,"rating":4.4,"reference":"ChIJb-Lmi1_HhkcRJUUF0DfXyrA","types":["restaurant","food","point_of_interest","establishment"],"user_ratings_total":1509},{"business_status":"OPERATIONAL","formatted_address":"4° Piano de Il Mercato del Duomo, Piazza del Duomo, Galleria Vittorio Emanuele II, 1, 20121 Milano MI","geometry":{"location":{"lat":45.4648413,"lng":9.190235099999999},"viewport":{"northeast":{"lat":45.46619987989273,"lng":9.191111079892721},"southwest":{"lat":45.46350022010729,"lng":9.188411420107277}}},"icon":"https://maps.gstatic.com/mapfiles/place_api/icons/v1/png_71/restaurant-71.png","icon_background_color":"#FF9E67","icon_mask_base_uri":"https://maps.gstatic.com/mapfiles/place_api/icons/v2/restaurant_pinlet","name":"Niko Romito Space Milan","opening_hours":{"open_now":false},"photos":[{"height":459,"html_attributions":["<a href=\"https://maps.google.com/maps/contrib/112686675578284038724\">SPAZIO MILANO di Niko Romito Formazione</a>"],"photo_reference":"AeJbb3fGmVTb4MvLnPD-mvURzzxARwheRDYDwrhNPSHe9YSvA1ApIp3JryTarD0OHFihWNUgLL_JWZ6_UDHl6urM5bybz718WjzzGm-9O0JNci3puj2Wji_2DydzaHLV2HbVYTwSemJQdvGb5wRh8XQwQQKavtdKp-JBLWdICnbB-7x0OpTl","width":870}],"place_id":"ChIJBabPha7GhkcRJqycCE6R_Ac","plus_code":{"compound_code":"F57R+W3 Milan, Metropolitan City of Milan","global_code":"8FQFF57R+W3"},"rating":4.4,"reference":"ChIJBabPha7GhkcRJqycCE6R_Ac","types":["restaurant","point_of_interest","food","establishment"],"user_ratings_total":703},{"business_status":"OPERATIONAL","formatted_address":"Piazza Belgioioso, 2, 20121 Milano MI","geometry":{"location":{"lat":45.4677154,"lng":9.192372299999999},"viewport":{"northeast":{"lat":45.46910997989272,"lng":9.19366687989272},"southwest":{"lat":45.46641032010727,"lng":9.190967220107277}}},"icon":"https://maps.gstatic.com/mapfiles/place_api/icons/v1/png_71/restaurant-71.png","icon_background_color":"#FF9E67","icon_mask_base_uri":"https://maps.gstatic.com/mapfiles/place_api/icons/v2/restaurant_pinlet","name":"Boeucc - Since 1696","opening_hours":{"open_now":false},"photos":[{"height":2002,"html_attributions":["<a href=\"https://maps.google.com/maps/contrib/102698545289852627601\">Antico Ristorante Boeucc Milano</a>"],"photo_reference":"AeJbb3c9SBQ1oC3Ih6CdJLukfT3fjcp3B6jTU94e8VkSd1y38CeJaLMnQVj1jEtRXiComSqyc4ZL4UzxQnHUsjezLi3i7XtxYsFSc0bUTRSmEUs9FYBjk7K4BhhWoD58nSqumCjJxDkC7KsahmWuo4IHML0SfuzTCV-3Mh1thfvYFl8PFtuM","width":3000}],"place_id":"ChIJy2Un3LHGhkcRq7rzrBJ0lXM","plus_code":{"compound_code":"F59R+3W Milan, Metropolitan City of Milan","global_code":"8FQFF59R+3W"},"price_level":4,"rating":4.4,"reference":"ChIJy2Un3LHGhkcRq7rzrBJ0lXM","types":["restaurant","food","point_of_interest","establishment"],"user_ratings_total":681},{"business_status":"OPERATIONAL","formatted_address":"Via Pegaso, 14, 20151 Milano MI","geometry":{"location":{"lat":45.4818431,"lng":9.125859199999999},"viewport":{"northeast":{"lat":45.48290272989272,"lng":9.127101829892721},"southwest":{"lat":45.48020307010728,"lng":9.124402170107277}}},"icon":"https://maps.gstatic.com/mapfiles/place_api/icons/v1/png_71/restaurant-71.png","icon_background_color":"#FF9E67","icon_mask_base_uri":"https://maps.gstatic.com/mapfiles/place_api/icons/v2/restaurant_pinlet","name":"Ristorante Canter","opening_hours":{"open_now":false},"photos":[{"height":2976,"html_attributions":["<a href=\"https://maps.google.com/maps/contrib/103091010861077696596\">Guido De Carlo</a>"],"photo_reference":"AeJbb3f-G_G2bxya9t32IsoeIzIdQW_ZxohnvalU9zzPGJW1asT96y8G-jz2rMr01jumDuk3c_nhxQ_32U5NwA5pEsSzYu1oNqTKiVDYv1fl_QXzGm32Mmlp8qR09diwq-iq2yB_7MRKuxDume0Zlb4pJfZODNfJBj_ggFJnwsd5IjHcvB0m","width":3968}],"place_id":"ChIJLT1a5JXBhkcRkWsTPPV5Rv0","plus_code":{"compound_code":"F4JG+P9 Milan, Metropolitan City of Milan","global_code":"8FQFF4JG+P9"},"price_level":3,"rating":4.4,"reference":"ChIJLT1a5JXBhkcRkWsTPPV5Rv0","types":["restaurant","food","point_of_interest","establishment"],"user_ratings_total":576},{"business_status":"OPERATIONAL","formatted_address":"Viale Premuda, 34, 20129 Milano MI","geometry":{"location":{"lat":45.4657974,"lng":9.2074456},"viewport":{"northeast":{"lat":45.46712637989272,"lng":9.20876767989272},"southwest":{"lat":45.46442672010727,"lng":9.206068020107276}}},"icon":"https://maps.gstatic.com/mapfiles/place_api/icons/v1/png_71/restaurant-71.png","icon_background_color":"#FF9E67","icon_mask_base_uri":"https://maps.gstatic.com/mapfiles/place_api/icons/v2/restaurant_pinlet","name":"L'Alchimia","opening_hours":{"open_now":false},"photos":[{"height":3024,"html_attributions":["<a href=\"https://maps.google.com/maps/contrib/104440192639444334238\">A Google User</a>"],"photo_reference":"AeJbb3evr2d6XoThIwxy5nJpfGPJuX2n_tig8M0dEpRQb8xlYyMA4ryiVX3ZvOfbOGePbdBQ1Fw0YLi3IGXHfLH63krU33BJ3mTmUxCLeYPjn7MwUvPp8AvykAri4CK1d0hQAqb8ojN5n3c7jQ7AFoGCQ6F9fo5KYuqh6AFfeJ9rNjOncNJq","width":4032}],"place_id":"ChIJ00c7akrHhkcRvuzprzvi8Y8","plus_code":{"compound_code":"F684+8X Milan, Metropolitan City of Milan","global_code":"8FQFF684+8X"},"rating":4.4,"reference":"ChIJ00c7akrHhkcRvuzprzvi8Y8","types":["restaurant","night_club","bar","food","point_of_interest","establishment"],"user_ratings_total":481},{"business_status":"OPERATIONAL","formatted_address":"Via Castelfidardo angolo via San Marco, 20121 Milano MI","geometry":{"location":{"lat":45.4787083,"lng":9.189307099999999},"viewport":{"northeast":{"lat":45.48002222989273,"lng":9.190590629892721},"southwest":{"lat":45.47732257010728,"lng":9.187890970107278}}},"icon":"https://maps.gstatic.com/mapfiles/place_api/icons/v1/png_71/restaurant-71.png","icon_background_color":"#FF9E67","icon_mask_base_uri":"https://maps.gstatic.com/mapfiles/place_api/icons/v2/restaurant_pinlet","name":"DanielCanzian Ristorante Milano","opening_hours":{"open_now":false},"photos":[{"height":1667,"html_attributions":["<a href=\"https://maps.google.com/maps/contrib/112455258407799944536\">Quadrifoglio S.R.L.</a>"],"photo_reference":"AeJbb3c8yrzzDgQ1LdIqWaBjiItEvocsB4p1q-PEaudkAxYvtB0QQXJtKqiQnMbxOfJr6W9XS78EfLhEHN8ZHlh6X31G2YxBd40gmyJAMHn3ayGk5n5jWI1Q6bScPQwlqj4Imd1xd4BLi0hYjL8ozFbtwEpeyQtY7sBKujd07tVQ5TIBDpl0","width":2500}],"place_id":"ChIJf8Ylw8rGhkcRFM1Hf71Ro_g","plus_code":{"compound_code":"F5HQ+FP Milan, Metropolitan City of Milan","global_code":"8FQFF5HQ+FP"},"price_level":3,"rating":4.4,"reference":"ChIJf8Ylw8rGhkcRFM1Hf71Ro_g","types":["restaurant","point_of_interest","food","establishment"],"user_ratings_total":357},{"business_status":"OPERATIONAL","formatted_address":"Via Gian Francesco Parravicini, 34, 20900 Monza MB","geometry":{"location":{"lat":45.5837693,"lng":9.270557499999999},"viewport":{"northeast":{"lat":45.58512802989272,"lng":9.271946029892721},"southwest":{"lat":45.58242837010728,"lng":9.269246370107277}}},"icon":"https://maps.gstatic.com/mapfiles/place_api/icons/v1/png_71/restaurant-71.png","icon_background_color":"#FF9E67","icon_mask_base_uri":"https://maps.gstatic.com/mapfiles/place_api/icons/v2/restaurant_pinlet","name":"Ristorante Punto G","opening_hours":{"open_now":false},"photos":[{"height":1200,"html_attributions":["<a href=\"https://maps.google.com/maps/contrib/105726949587357176012\">A Google User</a>"],"photo_reference":"AeJbb3fs5BIIyRDAu3nFeKZssdbBLrRNRTjiyUo7W_YqBXnF5Hq2rKU3euBr9yYT3gQJMYIyOtV48ht7hdHl40hgSyDIEoo-gAjbpQKcbSxqtY8d_J2PSaNmUiSsAY0OhlNCLZt6wY24_vSnReT269bub_1kCxMqn6RZcOz9Yu6GY9SZOkMS","width":1600}],"place_id":"ChIJAQBUFqC5hkcRnvpuRwELhZU","plus_code":{"compound_code":"H7MC+G6 Monza, Province of Monza and Brianza","global_code":"8FQFH7MC+G6"},"price_level":3,"rating":4.4,"reference":"ChIJAQBUFqC5hkcRnvpuRwELhZU","types":["restaurant","food","point_of_interest","establishment"],"user_ratings_total":301},{"business_status":"OPERATIONAL","formatted_address":"Via Enrico da Monza, Via Giovanni Raiberti, 26, 20900 Monza MB","geometry":{"location":{"lat":45.5860746,"lng":9.2849306},"viewport":{"northeast":{"lat":45.58744647989273,"lng":9.286319879892721},"southwest":{"lat":45.58474682010728,"lng":9.283620220107277}}},"icon":"https://maps.gstatic.com/mapfiles/place_api/icons/v1/png_71/restaurant-71.png","icon_background_color":"#FF9E67","icon_mask_base_uri":"https://maps.gstatic.com/mapfiles/place_api/icons/v2/restaurant_pinlet","name":"Da Bacco Osteria Gourmet","opening_hours":{"open_now":false},"photos":[{"height":3024,"html_attributions":["<a href=\"https://maps.google.com/maps/contrib/103174952644942753643\">Jacopo Arcangeli</a>"],"photo_reference":"AeJbb3dEDffiER17dUUlrAhy18A3LSzBxAKufDb4-HvM8GMdklYKhWIIMqT09uxmclhTrcdhwJPE9Fuv1vVkouqn6VoTno3hob1IG2g2p4VXD9s5FHk19iakeNY7vHWcmhx5JqxW3f8InALkgEyqZ8njA1AkYRJiSUWXS_CNwSo9UEe1IY6v","width":4032}],"place_id":"ChIJFST1-5a5hkcROPiaReWnSkY","plus_code":{"compound_code":"H7PM+CX Monza, Province of Monza and Brianza","global_code":"8FQFH7PM+CX"},"price_level":2,"rating":4.4,"reference":"ChIJFST1-5a5hkcROPiaReWnSkY","types":["restaurant","food","point_of_interest","establishment"],"user_ratings_total":301},{"business_status":"OPERATIONAL","formatted_address":"Via Monte Bianco, 8, 20097 San Donato Milanese MI","geometry":{"location":{"lat":45.4193489,"lng":9.2598336},"viewport":{"northeast":{"lat":45.42068557989273,"lng":9.261197229892723},"southwest":{"lat":45.41798592010728,"lng":9.258497570107279}}},"icon":"https://maps.gstatic.com/mapfiles/place_api/icons/v1/png_71/restaurant-71.png","icon_background_color":"#FF9E67","icon_mask_base_uri":"https://maps.gstatic.com/mapfiles/place_api/icons/v2/restaurant_pinlet","name":"Ristorante Eolo","opening_hours":{"open_now":false},"photos":[{"height":1600,"html_attributions":["<a href=\"https://maps.google.com/maps/contrib/107948995267118852641\">A Google User</a>"],"photo_reference":"AeJbb3fAUWAFVfnGSDmj9G30mftk75fEDE9gRsC3SVAXTaA0yn9YweoQtTK-7uiRgIRxu8Es_gL-yfaLU8jR1m7H6MReYAl8r-W6AdDT9nCn_x20dPesLsmyjDZkazHKcroCIhn_p3Tk8Ymx82gMRQt7AgZdy3EPwribaA1HDT1I-WN6YTgV","width":1200}],"place_id":"ChIJ-wRDixvFhkcRS_03ozoSisc","plus_code":{"compound_code":"C795+PW San Donato Milanese, Metropolitan City of Milan","global_code":"8FQFC795+PW"},"rating":4.4,"reference":"ChIJ-wRDixvFhkcRS_03ozoSisc","types":["restaurant","food","point_of_interest","establishment"],"user_ratings_total":149},{"business_status":"OPERATIONAL","formatted_address":"Via Celestino IV, 11, 20123 Milano MI","geometry":{"location":{"lat":45.4591735,"lng":9.1821159},"viewport":{"northeast":{"lat":45.46050832989272,"lng":9.183411579892722},"southwest":{"lat":45.45780867010728,"lng":9.180711920107278}}},"icon":"https://maps.gstatic.com/mapfiles/place_api/icons/v1/png_71/restaurant-71.png","icon_background_color":"#FF9E67","icon_mask_base_uri":"https://maps.gstatic.com/mapfiles/place_api/icons/v2/restaurant_pinlet","name":"Yspanico · Vetra","opening_hours":{"open_now":false},"photos":[{"height":676,"html_attributions":["<a href=\"https://maps.google.com/maps/contrib/112326021716699296419\">A Google User</a>"],"photo_reference":"AeJbb3cvXNROK7cZWRJ4lMiEBZvT2V3Zb6BojEaXyUY9OliehlUIKCzjrEEP2JAVqE-3kx3YnQB2h6xZpvoi1HUngOjII_vg_c2LU9zU40bLYOBygGrPiK-SBvyWTg6Nd1bn81DApD7fqDzocv98EAq97Ve_iCbN0YTY5AHg80UtO-2lxRdq","width":1200}],"place_id":"ChIJE9zYBfTHhkcRq_suK1xY8-8","plus_code":{"compound_code":"F55J+MR Milan, Metropolitan City of Milan","global_code":"8FQFF55J+MR"},"rating":4.4,"reference":"ChIJE9zYBfTHhkcRq_suK1xY8-8","types":["restaurant","food","point_of_interest","establishment"],"user_ratings_total":10},{"business_status":"OPERATIONAL","formatted_address":"Via Gaetano de Castillia, 28, 20124 Milano MI","geometry":{"location":{"lat":45.4854002,"lng":9.192927},"viewport":{"northeast":{"lat":45.48693492989272,"lng":9.194228679892722},"southwest":{"lat":45.48423527010728,"lng":9.191529020107279}}},"icon":"https://maps.gstatic.com/mapfiles/place_api/icons/v1/png_71/restaurant-71.png","icon_background_color":"#FF9E67","icon_mask_base_uri":"https://maps.gstatic.com/mapfiles/place_api/icons/v2/restaurant_pinlet","name":"Ratanà","opening_hours":{"open_now":false},"photos":[{"height":4912,"html_attributions":["<a href=\"https://maps.google.com/maps/contrib/100320186795165721721\">Ratanà</a>"],"photo_reference":"AeJbb3eMB1VzIYj1lQJK9z6tmHABmIT51m1ye7OtlVRpnxFhAg1FwH-k5ME4eKuRCw1IMNfsTdKglBAv2WAj3bll5f9DwJwiwxhHoHnEv6uM7xKB6Bd2JVwdisQ1E4LornLsvMdHsxn_nONEuEcRqFm1SfvBVT3z73nzFmbIW3v9PNRsYk0","width":7360}],"place_id":"ChIJU8MjZc3GhkcRKoLSRnNMr6E","plus_code":{"compound_code":"F5PV+45 Milan, Metropolitan City of Milan","global_code":"8FQFF5PV+45"},"price_level":3,"rating":4.3,"reference":"ChIJU8MjZc3GhkcRKoLSRnNMr6E","types":["bar","restaurant","point_of_interest","food","establishment"],"user_ratings_total":1748},{"business_status":"OPERATIONAL","formatted_address":"Via Pasquale Sottocorno, 6, 20129 Milano MI","geometry":{"location":{"lat":45.4654403,"lng":9.2083175},"viewport":{"northeast":{"lat":45.46681102989272,"lng":9.209704179892721},"southwest":{"lat":45.46411137010728,"lng":9.207004520107278}}},"icon":"https://maps.gstatic.com/mapfiles/place_api/icons/v1/png_71/restaurant-71.png","icon_background_color":"#FF9E67","icon_mask_base_uri":"https://maps.gstatic.com/mapfiles/place_api/icons/v2/restaurant_pinlet","name":"Da Giacomo","opening_hours":{"open_now":true},"photos":[{"height":599,"html_attributions":["<a href=\"https://maps.google.com/maps/contrib/115506312132153915472\">Massimo Pastori</a>"],"photo_reference":"AeJbb3caRJ28tHPCeOpDeyYlPKpUVij0pl3v1xFM0UuoTzuyw45hlmL0CFr5hT1uEz1FOQMS2NLJu8arI1kx6VuVsSe0l1-S3jcj3E2ajBHGSwEMZaOAmvlsO512FHBH2IiFWANujkzHx5KmnvcnKX-fXAMwEGw2Hvdyo4gdh4zZznhkeGcW","width":984}],"place_id":"ChIJt4U_GpjGhkcRyGbbRiyTPnk","plus_code":{"compound_code":"F685+58 Milan, Metropolitan City of Milan","global_code":"8FQFF685+58"},"price_level":3,"rating":4.3,"reference":"ChIJt4U_GpjGhkcRyGbbRiyTPnk","types":["restaurant","food","point_of_interest","establishment"],"user_ratings_total":1085},{"business_status":"OPERATIONAL","formatted_address":"Piazza Gae Aulenti, 4, 20154 Milano MI","geometry":{"location":{"lat":45.483193,"lng":9.188778},"viewport":{"northeast":{"lat":45.48468122989272,"lng":9.19013787989272},"southwest":{"lat":45.48198157010727,"lng":9.187438220107277}}},"icon":"https://maps.gstatic.com/mapfiles/place_api/icons/v1/png_71/restaurant-71.png","icon_background_color":"#FF9E67","icon_mask_base_uri":"https://maps.gstatic.com/mapfiles/place_api/icons/v2/restaurant_pinlet","name":"The Stage Dining","opening_hours":{"open_now":false},"photos":[{"height":3024,"html_attributions":["<a href=\"https://maps.google.com/maps/contrib/101551613716247305902\">Paolo Bernetti</a>"],"photo_reference":"AeJbb3c7E3iKu0tS4XvjBB706ZfoRVuRKyhEqTRv01ez_CCjv93dHz3hFt27uRjYYUm_maxVOvGc8pfG3IG4YE6sF_lTUGuF7QhcjzO9775dAgODRqPrb09cmtltcQCIlxjIqayj4wJW4z3PXEOXbstMWXgh0rR6FiUsPNXXqYAELMO3Xsqq","width":4032}],"place_id":"ChIJTaGHJTPBhkcRPePxFF6D2iY","plus_code":{"compound_code":"F5MQ+7G Milan, Metropolitan City of Milan","global_code":"8FQFF5MQ+7G"},"price_level":3,"rating":4.3,"reference":"ChIJTaGHJTPBhkcRPePxFF6D2iY","types":["restaurant","point_of_interest","food","establishment"],"user_ratings_total":645},{"business_status":"OPERATIONAL","formatted_address":"Via Franchino Gaffurio, Via Errico Petrella, 1, 20124 Milano MI","geometry":{"location":{"lat":45.4839328,"lng":9.209772899999999},"viewport":{"northeast":{"lat":45.48520037989272,"lng":9.211189479892722},"southwest":{"lat":45.48250072010728,"lng":9.208489820107278}}},"icon":"https://maps.gstatic.com/mapfiles/place_api/icons/v1/png_71/restaurant-71.png","icon_background_color":"#FF9E67","icon_mask_base_uri":"https://maps.gstatic.com/mapfiles/place_api/icons/v2/restaurant_pinlet","name":"Noblesse Oblige","opening_hours":{"open_now":false},"photos":[{"height":3120,"html_attributions":["<a href=\"https://maps.google.com/maps/contrib/106030855050252712239\">A Google User</a>"],"photo_reference":"AeJbb3cQasD20FMFZo6PEXBVgbBfvGv5aOQZwW8cUYgbAiAhap8YBDzhvX6Pm1rmNNih6yWHDvuGLhqN291pAs6Z5Xa1Z7GJJWiLyoihPxemtr8BFB6zHOPP3w9pJjMnuHIF3UUNqGaHGfBGw7lwpdm8DzyrXmVnLKrI9h91dqfC01TKBWHa","width":4160}],"place_id":"ChIJzRuFJcPGhkcRuXp1bDV80Bs","plus_code":{"compound_code":"F6M5+HW Milan, Metropolitan City of Milan","global_code":"8FQFF6M5+HW"},"price_level":2,"rating":4.3,"reference":"ChIJzRuFJcPGhkcRuXp1bDV80Bs","types":["restaurant","food","store","point_of_interest","establishment"],"user_ratings_total":518},{"business_status":"OPERATIONAL","formatted_address":"Via Alessandro Manzoni, 29, 20121 Milano MI","geometry":{"location":{"lat":45.46988710000001,"lng":9.1924646},"viewport":{"northeast":{"lat":45.47134712989272,"lng":9.193963779892721},"southwest":{"lat":45.46864747010728,"lng":9.191264120107277}}},"icon":"https://maps.gstatic.com/mapfiles/place_api/icons/v1/png_71/restaurant-71.png","icon_background_color":"#FF9E67","icon_mask_base_uri":"https://maps.gstatic.com/mapfiles/place_api/icons/v2/restaurant_pinlet","name":"Ristorante Don Carlos","photos":[{"height":2799,"html_attributions":["<a href=\"https://maps.google.com/maps/contrib/112419125331942462590\">Gloria Franco</a>"],"photo_reference":"AeJbb3dJO8cUlebDigFTv9ptKwtQFNsl78bJ7JPQNyKIZ0FuLg8Qdw6RZBQkxzZDs2fBq6B9eUHWBXDZIdPsESsP7_6BRxiw0CXx5dBmLlPSQDD-2EiyRJZ4Xfq3ALKw5m1u4utQR65vwCltz0UYm-C0AYBp8EbfhZVN0MwYbijlza-Om8pc","width":4032}],"place_id":"ChIJxwZ2c7HGhkcRAaulgxXEtAc","plus_code":{"compound_code":"F59R+XX Milan, Metropolitan City of Milan","global_code":"8FQFF59R+XX"},"price_level":3,"rating":4.3,"reference":"ChIJxwZ2c7HGhkcRAaulgxXEtAc","types":["restaurant","point_of_interest","food","establishment"],"user_ratings_total":108},{"business_status":"OPERATIONAL","formatted_address":"Via Guglielmo Marconi, 1, 20123 Milano MI","geometry":{"location":{"lat":45.4635012,"lng":9.1902048},"viewport":{"northeast":{"lat":45.46474037989272,"lng":9.191417429892722},"southwest":{"lat":45.46204072010728,"lng":9.188717770107278}}},"icon":"https://maps.gstatic.com/mapfiles/place_api/icons/v1/png_71/restaurant-71.png","icon_background_color":"#FF9E67","icon_mask_base_uri":"https://maps.gstatic.com/mapfiles/place_api/icons/v2/restaurant_pinlet","name":"Giacomo Arengario","opening_hours":{"open_now":true},"photos":[{"height":1080,"html_attributions":["<a href=\"https://maps.google.com/maps/contrib/115506312132153915472\">Massimo Pastori</a>"],"photo_reference":"AeJbb3dZb5Np2K8CjOm9tsY4k9TmGqjrg2wm_jUbcHBboGDR81-zZWpTs-6f6dRbwNqW7Fgag2lJSkz_ylqo3BcOHPvLoBkasrEf9GHHWTkXMKKi6lDl1eCOC7Rz0wEhGmH4jDf6cWSgi6frxKwSKMiPxqKEiBICtlcUxfD7BYNG9DAnEIN1","width":1440}],"place_id":"ChIJwZnUpK7GhkcRoya_ZbIQ_nQ","plus_code":{"compound_code":"F57R+C3 Milan, Metropolitan City of Milan","global_code":"8FQFF57R+C3"},"price_level":3,"rating":4.2,"reference":"ChIJwZnUpK7GhkcRoya_ZbIQ_nQ","types":["restaurant","food","point_of_interest","establishment"],"user_ratings_total":895},{"business_status":"OPERATIONAL","formatted_address":"Via Salasco, 17, 20136 Milano MI","geometry":{"location":{"lat":45.4503878,"lng":9.194790300000001},"viewport":{"northeast":{"lat":45.45171167989272,"lng":9.19615167989272},"southwest":{"lat":45.44901202010728,"lng":9.193452020107276}}},"icon":"https://maps.gstatic.com/mapfiles/place_api/icons/v1/png_71/restaurant-71.png","icon_background_color":"#FF9E67","icon_mask_base_uri":"https://maps.gstatic.com/mapfiles/place_api/icons/v2/restaurant_pinlet","name":"Potafiori","opening_hours":{"open_now":true},"photos":[{"height":2670,"html_attributions":["<a href=\"https://maps.google.com/maps/contrib/115506312132153915472\">Massimo Pastori</a>"],"photo_reference":"AeJbb3dInFebzT9iUul8KrTVCXhsgkWWKP09Cnijmvf9RZqcWZJe_f5Qr5KcYI6geWQkAFhc6MvfyclRgamb_tWbDN6o-LS0Iw03wtMYeuhSyWwtuiOyoMtMkZxQQnq10jMZ9f0533Bskqf4XDmVZ889ell2ZwCKldwgHuEMIxr4nUSXTqlM","width":4000}],"place_id":"ChIJHbA6UhrEhkcRyP8yNQAxb4k","plus_code":{"compound_code":"F52V+5W Milan, Metropolitan City of Milan","global_code":"8FQFF52V+5W"},"price_level":3,"rating":4.2,"reference":"ChIJHbA6UhrEhkcRyP8yNQAxb4k","types":["florist","bar","restaurant","food","store","point_of_interest","establishment"],"user_ratings_total":657},{"business_status":"OPERATIONAL","formatted_address":"Via Castelfidardo, 2, 20121 Milano MI","geometry":{"location":{"lat":45.4780569,"lng":9.1883286},"viewport":{"northeast":{"lat":45.47944477989272,"lng":9.189597979892723},"southwest":{"lat":45.47674512010728,"lng":9.186898320107279}}},"icon":"https://maps.gstatic.com/mapfiles/place_api/icons/v1/png_71/restaurant-71.png","icon_background_color":"#FF9E67","icon_mask_base_uri":"https://maps.gstatic.com/mapfiles/place_api/icons/v2/restaurant_pinlet","name":"Solferino","opening_hours":{"open_now":false},"photos":[{"height":3453,"html_attributions":["<a href=\"https://maps.google.com/maps/contrib/108463207068965268620\">A Google User</a>"],"photo_reference":"AeJbb3erOkb0Hr1ORAY-VvMWLI-nobYGiQVkE6xBZwUdSbq15dN_PMRSK8llDsA-sLAwBLMkMrO9pqihLfABOmh9-XRNvYOxWBZ_EB6e7CIw3gTw1Cr8j1iqWAp6X4LAr8qSZDqwYlhzHBNdzAbVd8GktppIDyapzUAR5aUuSyBE9yK38pH0","width":2268}],"place_id":"ChIJV4j8tcrGhkcRQx-KpTMSvfM","plus_code":{"compound_code":"F5HQ+68 Milan, Metropolitan City of Milan","global_code":"8FQFF5HQ+68"},"price_level":3,"rating":4.2,"reference":"ChIJV4j8tcrGhkcRQx-KpTMSvfM","types":["restaurant","food","point_of_interest","establishment"],"user_ratings_total":650},{"business_status":"OPERATIONAL","formatted_address":"Via Melzo, angolo, Via Lambro, 20129 Milano MI","geometry":{"location":{"lat":45.4741997,"lng":9.208816500000001},"viewport":{"northeast":{"lat":45.47553677989271,"lng":9.21021177989272},"southwest":{"lat":45.47283712010727,"lng":9.207512120107276}}},"icon":"https://maps.gstatic.com/mapfiles/place_api/icons/v1/png_71/restaurant-71.png","icon_background_color":"#FF9E67","icon_mask_base_uri":"https://maps.gstatic.com/mapfiles/place_api/icons/v2/restaurant_pinlet","name":"ToscaNino Milano","opening_hours":{"open_now":false},"photos":[{"height":2362,"html_attributions":["<a href=\"https://maps.google.com/maps/contrib/102186645085454454281\">A Google User</a>"],"photo_reference":"AeJbb3dpHb95De1yCoB7JiLFv_ifbnuvDezFTRYpP1mO0ESFMrSYpAUkr_gtT9alHtiRwXqPZsB6GGXTgcjfqFWM7bksTJLtBSUlGhca8OI9wbe_-OxkykpUVknfJJnT6x3-jSGNv54tHK_-3_fBvkRbc3sFAXxQc6C1n5GjK3m6H1gjTPF3","width":3544}],"place_id":"ChIJT5pZlb_GhkcRhQqaE918J1k","plus_code":{"compound_code":"F6F5+MG Milan, Metropolitan City of Milan","global_code":"8FQFF6F5+MG"},"price_level":2,"rating":4.2,"reference":"ChIJT5pZlb_GhkcRhQqaE918J1k","types":["bar","store","restaurant","food","point_of_interest","establishment"],"user_ratings_total":602},{"business_status":"OPERATIONAL","formatted_address":"Via Lazzaro Palazzi, 19, 20124 Milano MI","geometry":{"location":{"lat":45.477548,"lng":9.203261},"viewport":{"northeast":{"lat":45.47888672989273,"lng":9.204648479892722},"southwest":{"lat":45.47618707010728,"lng":9.201948820107278}}},"icon":"https://maps.gstatic.com/mapfiles/place_api/icons/v1/png_71/restaurant-71.png","icon_background_color":"#FF9E67","icon_mask_base_uri":"https://maps.gstatic.com/mapfiles/place_api/icons/v2/restaurant_pinlet","name":"Il Carpaccio Milano","opening_hours":{"open_now":false},"photos":[{"height":4032,"html_attributions":["<a href=\"https://maps.google.com/maps/contrib/115703960817083294383\">Yan He</a>"],"photo_reference":"AeJbb3ekeBrvRMRE02UuHOD2Yq5B3Ijh_JcQFDQJgVxutarH6QpvY0s_ubxfL3JvTYQOLgF8zkIiyJKNIQjqyefAIxCoPRLHkr6EI_O2VKUeTjC5muPp56Y8l8-5-TC1YjC4uLePQUBK59wkHeGcyPD6l9GAMZvZE4zENJrfwCbnD7l_eFg","width":3024}],"place_id":"ChIJlfyhD8fGhkcRx1WB6ho-F3U","plus_code":{"compound_code":"F6H3+28 Milan, Metropolitan City of Milan","global_code":"8FQFF6H3+28"},"price_level":2,"rating":4.2,"reference":"ChIJlfyhD8fGhkcRx1WB6ho-F3U","types":["restaurant","food","point_of_interest","establishment"],"user_ratings_total":424},{"business_status":"OPERATIONAL","formatted_address":"Via Cesare da Sesto, 1, 20123 Milano MI","geometry":{"location":{"lat":45.4568296,"lng":9.17384},"viewport":{"northeast":{"lat":45.45820182989272,"lng":9.175217479892723},"southwest":{"lat":45.45550217010727,"lng":9.172517820107279}}},"icon":"https://maps.gstatic.com/mapfiles/place_api/icons/v1/png_71/restaurant-71.png","icon_background_color":"#FF9E67","icon_mask_base_uri":"https://maps.gstatic.com/mapfiles/place_api/icons/v2/restaurant_pinlet","name":"Dry Aged","opening_hours":{"open_now":false},"photos":[{"height":2268,"html_attributions":["<a href=\"https://maps.google.com/maps/contrib/109517135820583527810\">A Google User</a>"],"photo_reference":"AeJbb3cl-Z0RWmzoJzakpHhB6LGlelnaWEZ6tD3LiGoCLG3WFjL6l0QqQ0-EzJ0DpCnbowDAj4GOIwcRVWxdQI_urHc61WSGTvN85W3XLjRjb0zHIRel60Q443X2BzI0TQIAbXKfoqY214MkxDcH-ngQTAkQMwBDkOvtio20dS5hDzJqWtTx","width":4032}],"place_id":"ChIJV59CMfzDhkcR-gvigEZCg_k","plus_code":{"compound_code":"F54F+PG Milan, Metropolitan City of Milan","global_code":"8FQFF54F+PG"},"price_level":2,"rating":4.2,"reference":"ChIJV59CMfzDhkcR-gvigEZCg_k","types":["restaurant","bar","food","point_of_interest","establishment"],"user_ratings_total":418},{"business_status":"OPERATIONAL","formatted_address":"Piazza della Scala, 5, 20121 Milano MI","geometry":{"location":{"lat":45.4670081,"lng":9.1892151},"viewport":{"northeast":{"lat":45.46834502989272,"lng":9.190548379892721},"southwest":{"lat":45.46564537010727,"lng":9.187848720107278}}},"icon":"https://maps.gstatic.com/mapfiles/place_api/icons/v1/png_71/restaurant-71.png","icon_background_color":"#FF9E67","icon_mask_base_uri":"https://maps.gstatic.com/mapfiles/place_api/icons/v2/restaurant_pinlet","name":"Il Ristorante Trussardi alla Scala","opening_hours":{"open_now":false},"photos":[{"height":1224,"html_attributions":["<a href=\"https://maps.google.com/maps/contrib/116493080061905684117\">Becky Chu</a>"],"photo_reference":"AeJbb3db8YDN-cInlmLnC9oLXwaj0CRfIzW8nMwV9Y6G8n-DFTskkxR3BgatrlATeE437bfkFEA0KWE1f0y12vCDEtLLWK3UeTne3yItEQkMAQeDCGRbbUebDclo40gqyLm_kERBQzTpTeLgchsenZrTsj1se4BwJrLkjK9To7vKYM-sBiF8","width":1842}],"place_id":"ChIJhUgF8q3GhkcRIo5fP6nzfic","plus_code":{"compound_code":"F58Q+QM Milan, Metropolitan City of Milan","global_code":"8FQFF58Q+QM"},"price_level":3,"rating":4.2,"reference":"ChIJhUgF8q3GhkcRIo5fP6nzfic","types":["restaurant","food","point_of_interest","establishment"],"user_ratings_total":271},{"business_status":"OPERATIONAL","formatted_address":"Viale Bianca Maria, 8, 20129 Milano MI","geometry":{"location":{"lat":45.4640531,"lng":9.2066585},"viewport":{"northeast":{"lat":45.46539832989273,"lng":9.207951029892723},"southwest":{"lat":45.46269867010729,"lng":9.205251370107279}}},"icon":"https://maps.gstatic.com/mapfiles/place_api/icons/v1/png_71/restaurant-71.png","icon_background_color":"#FF9E67","icon_mask_base_uri":"https://maps.gstatic.com/mapfiles/place_api/icons/v2/restaurant_pinlet","name":"The Fisher","opening_hours":{"open_now":false},"photos":[{"height":3024,"html_attributions":["<a href=\"https://maps.google.com/maps/contrib/103505560153772713613\">Kevin Chernez</a>"],"photo_reference":"AeJbb3d1BNX0k7caVgE394kg4NrfY1ieNKHyiGJMhV6s5wMoMb5Q6WSf2m9zY3i5NTTNQmwYAcXCbmDuP1eEyRB6Z10Eec68nrpRfE54gL5-FG9h6AxGkaJmRy7GMAvNHebbXnJWerpO4OF36NtDW27CkTZKxq-r22lrsK4F8LKqozWly1Bf","width":4032}],"place_id":"ChIJn2AAHw7HhkcRLH_F3DK7QA8","plus_code":{"compound_code":"F674+JM Milan, Metropolitan City of Milan","global_code":"8FQFF674+JM"},"price_level":4,"rating":4.2,"reference":"ChIJn2AAHw7HhkcRLH_F3DK7QA8","types":["restaurant","food","point_of_interest","establishment"],"user_ratings_total":228},{"business_status":"OPERATIONAL","formatted_address":"Via Gesù, 6/8, 20121 Milano MI","geometry":{"location":{"lat":45.469448,"lng":9.195243999999999},"viewport":{"northeast":{"lat":45.47084237989272,"lng":9.196609679892722},"southwest":{"lat":45.46814272010727,"lng":9.193910020107278}}},"icon":"https://maps.gstatic.com/mapfiles/place_api/icons/v1/png_71/restaurant-71.png","icon_background_color":"#FF9E67","icon_mask_base_uri":"https://maps.gstatic.com/mapfiles/place_api/icons/v2/restaurant_pinlet","name":"ZELO","opening_hours":{"open_now":true},"photos":[{"height":854,"html_attributions":["<a href=\"https://maps.google.com/maps/contrib/102124439699060922147\">A Google User</a>"],"photo_reference":"AeJbb3fi8jOP5fdsVI0hALScGSVegeTCMkc_bklidsJhYr0Ta6fAuxK8Q9xLRdQO6mxO60PButv42eo_5qW8SEK7Dpl3LUz2wrF7U5ULn9pS1jlohjOZ5ddv5o7Boypnw36o08_2b39ANmtPB2xWc7hbLbErW7HS1pPYWBsJdNz3fVfnPB7G","width":1280}],"place_id":"ChIJ-2w1v1DHhkcR5wCLjwjxAf4","plus_code":{"compound_code":"F59W+Q3 Milan, Metropolitan City of Milan","global_code":"8FQFF59W+Q3"},"rating":4.2,"reference":"ChIJ-2w1v1DHhkcR5wCLjwjxAf4","types":["restaurant","point_of_interest","food","establishment"],"user_ratings_total":27},{"business_status":"OPERATIONAL","formatted_address":"Via Savona, 50, 20144 Milano MI","geometry":{"location":{"lat":45.4540076,"lng":9.1631512},"viewport":{"northeast":{"lat":45.45534062989272,"lng":9.164477629892723},"southwest":{"lat":45.45264097010728,"lng":9.161777970107279}}},"icon":"https://maps.gstatic.com/mapfiles/place_api/icons/v1/png_71/restaurant-71.png","icon_background_color":"#FF9E67","icon_mask_base_uri":"https://maps.gstatic.com/mapfiles/place_api/icons/v2/restaurant_pinlet","name":"Al Fresco","opening_hours":{"open_now":true},"photos":[{"height":3589,"html_attributions":["<a href=\"https://maps.google.com/maps/contrib/118424346604366451701\">Al Fresco</a>"],"photo_reference":"AeJbb3d1HDCm8ZAkh-aoHLS1lGVUXGiIXoqgVBK-sfxyrVZgYqirN1Sh9w3X3Pcmc8OJLceU91B2kls4POaKQD9QC8VtCs3wSzwgIpLneQvZ14JZyCunBFtyyabzvI7tXblGjJ2bqkGo6vxYLIk-oeyyyAeVjhiEs0w7qACOE70l426Grbk2","width":5383}],"place_id":"ChIJ48UjIeTDhkcRhiacktfuL7U","plus_code":{"compound_code":"F537+J6 Milan, Metropolitan City of Milan","global_code":"8FQFF537+J6"},"price_level":3,"rating":4.1,"reference":"ChIJ48UjIeTDhkcRhiacktfuL7U","types":["restaurant","food","point_of_interest","establishment"],"user_ratings_total":1307},{"business_status":"OPERATIONAL","formatted_address":"Via Alessandro Manzoni, 12/A, 20121 Milano MI","geometry":{"location":{"lat":45.4688889,"lng":9.191666699999999},"viewport":{"northeast":{"lat":45.47027907989271,"lng":9.192972829892721},"southwest":{"lat":45.46757942010727,"lng":9.190273170107277}}},"icon":"https://maps.gstatic.com/mapfiles/place_api/icons/v1/png_71/restaurant-71.png","icon_background_color":"#FF9E67","icon_mask_base_uri":"https://maps.gstatic.com/mapfiles/place_api/icons/v2/restaurant_pinlet","name":"Don Lisander","opening_hours":{"open_now":false},"photos":[{"height":4032,"html_attributions":["<a href=\"https://maps.google.com/maps/contrib/100066511797404199163\">A Google User</a>"],"photo_reference":"AeJbb3fF8Xqj2ug7eN8nkkWtXUiQ6iw1IRTtfkxxIPI0J-csixfOBOmDgVGGovJoq9IF0mGEaYOgRrF5WdRMv6YmcqrX2qKkD7oSTnnI61SQbaO2hNXhqnKlMeujRIMldwTu2gj-Ohqd_10heZFiJfmRGlqcKsfrLgfcU7xVbhUFQENtp6X9","width":3024}],"place_id":"ChIJwSZsjLHGhkcRvGtBxu6Qm3M","plus_code":{"compound_code":"F59R+HM Milan, Metropolitan City of Milan","global_code":"8FQFF59R+HM"},"price_level":3,"rating":4.1,"reference":"ChIJwSZsjLHGhkcRvGtBxu6Qm3M","types":["restaurant","food","point_of_interest","establishment"],"user_ratings_total":473},{"business_status":"OPERATIONAL","formatted_address":"Via Ugo Foscolo, 5, 20121 Milano MI","geometry":{"location":{"lat":45.465728,"lng":9.1905653},"viewport":{"northeast":{"lat":45.46716872989272,"lng":9.192119329892721},"southwest":{"lat":45.46446907010728,"lng":9.189419670107277}}},"icon":"https://maps.gstatic.com/mapfiles/place_api/icons/v1/png_71/restaurant-71.png","icon_background_color":"#FF9E67","icon_mask_base_uri":"https://maps.gstatic.com/mapfiles/place_api/icons/v2/restaurant_pinlet","name":"Ristorante Savini","opening_hours":{"open_now":true},"photos":[{"height":4480,"html_attributions":["<a href=\"https://maps.google.com/maps/contrib/114455977021741401547\">A Google User</a>"],"photo_reference":"AeJbb3egnSia2jHiBJgwnX2_2_OCpQVfBYmRAkBublzLOoFFUa_sPVKfT131crRBKfxZI3TUDS2nNkV6im3vq_J0wVBbDvrbX9M-zZJ_DmAj1j1tgEUKVZvG4Mgj_bmOyQPmMXmnWmycwYTHHuigjkdMPhJDadjfmLE3LQnJUyw-h2xrEIJ6","width":6720}],"place_id":"ChIJjcBseK7GhkcRQ-PznMmWVUA","plus_code":{"compound_code":"F58R+76 Milan, Metropolitan City of Milan","global_code":"8FQFF58R+76"},"price_level":4,"rating":3.9,"reference":"ChIJjcBseK7GhkcRQ-PznMmWVUA","types":["cafe","store","restaurant","point_of_interest","food","establishment"],"user_ratings_total":1902},{"business_status":"OPERATIONAL","formatted_address":"Via Santa Maria Segreta, 5, 20123 Milano MI","geometry":{"location":{"lat":45.4654336,"lng":9.1849916},"viewport":{"northeast":{"lat":45.46679712989272,"lng":9.186398129892723},"southwest":{"lat":45.46409747010728,"lng":9.183698470107277}}},"icon":"https://maps.gstatic.com/mapfiles/place_api/icons/v1/png_71/restaurant-71.png","icon_background_color":"#FF9E67","icon_mask_base_uri":"https://maps.gstatic.com/mapfiles/place_api/icons/v2/restaurant_pinlet","name":"OTIVM","opening_hours":{"open_now":true},"photos":[{"height":4000,"html_attributions":["<a href=\"https://maps.google.com/maps/contrib/117308674589461197966\">A Google User</a>"],"photo_reference":"AeJbb3ceiX3jxS98jP3EqinxpfYi9gry27pxvJwxoEOJNNyeYxAl4OAG16YO4xfs4l7-qrxOh1JsHCBpsgAsKAui_BFNGovbjPmj5T3Fwepwuoo7dk-20LNvTKpd_SDKrofQ9h5k2PuiiZUah_jHljg6jX_2Wlg-irrUxKfDly9UcFCVfw5s","width":6000}],"place_id":"ChIJK_KpBY7HhkcRxdDfR6-fQaM","plus_code":{"compound_code":"F58M+5X Milan, Metropolitan City of Milan","global_code":"8FQFF58M+5X"},"rating":3.9,"reference":"ChIJK_KpBY7HhkcRxdDfR6-fQaM","types":["restaurant","food","point_of_interest","establishment"],"user_ratings_total":298},{"business_status":"OPERATIONAL","formatted_address":"Starhotels, Piazza Fontana, 3, 20122 Milano MI","geometry":{"location":{"lat":45.4640003,"lng":9.1938465},"viewport":{"northeast":{"lat":45.46522907989273,"lng":9.195296029892722},"southwest":{"lat":45.46252942010728,"lng":9.192596370107278}}},"icon":"https://maps.gstatic.com/mapfiles/place_api/icons/v1/png_71/restaurant-71.png","icon_background_color":"#FF9E67","icon_mask_base_uri":"https://maps.gstatic.com/mapfiles/place_api/icons/v2/restaurant_pinlet","name":"Sfizio by Eataly","opening_hours":{"open_now":true},"photos":[{"height":4608,"html_attributions":["<a href=\"https://maps.google.com/maps/contrib/114688122087033224501\">Beatrice Masci</a>"],"photo_reference":"AeJbb3efSAK3z9HCMLX9hk6Od5YqLahZSgX8tbsyqhnl50IVxozAkQokunAVG_oUct9QqpM6QBtQo_Sul9KCoJURZXFj7IhaNWeBff7n3W0iwXmUOs0qpkcMK3RUIVN-m1FInYdZB2XAlZcZvXK82S0pFTNnWZzS48jxwRgBoki_d6XqULv3","width":3456}],"place_id":"ChIJZbR5bK_GhkcRm2E6TNU2ceE","plus_code":{"compound_code":"F57V+JG Milan, Metropolitan City of Milan","global_code":"8FQFF57V+JG"},"rating":3.8,"reference":"ChIJZbR5bK_GhkcRm2E6TNU2ceE","types":["restaurant","food","point_of_interest","establishment"],"user_ratings_total":86},{"business_status":"OPERATIONAL","formatted_address":"P.za Borromeo, 20030 Senago MI","geometry":{"location":{"lat":45.577321,"lng":9.1185691},"viewport":{"northeast":{"lat":45.57877677989272,"lng":9.119927279892723},"southwest":{"lat":45.57607712010728,"lng":9.117227620107279}}},"icon":"https://maps.gstatic.com/mapfiles/place_api/icons/v1/png_71/restaurant-71.png","icon_background_color":"#FF9E67","icon_mask_base_uri":"https://maps.gstatic.com/mapfiles/place_api/icons/v2/restaurant_pinlet","name":"CHEF NAHINDA","opening_hours":{"open_now":false},"photos":[{"height":533,"html_attributions":["<a href=\"https://maps.google.com/maps/contrib/100162718546432764758\">A Google User</a>"],"photo_reference":"AeJbb3eBW1I5YvsBM74m1J7mWpvh8Fl7J2Vz2XjkEyWwsXSM4FUWbD1Gn7rmK2_n6mT1Ul2n22ADmtUfraGdPXPq8OwWs0CX6WqwU0ys0RaWvuV8uPIjh_eFNTAmZZElzMRdfyrHl54Xnm7DFwfT0KsyXKXqgDOF4oI0RhzIJeuSzfS8Pvg","width":800}],"place_id":"ChIJUXR6oE-VhkcRMK9UUprxH9s","plus_code":{"compound_code":"H4G9+WC Senago, Metropolitan City of Milan","global_code":"8FQFH4G9+WC"},"rating":0,"reference":"ChIJUXR6oE-VhkcRMK9UUprxH9s","types":["restaurant","food","point_of_interest","establishment"],"user_ratings_total":0}]