[{"business_status":"OPERATIONAL","formatted_address":"Mellinghofer Str. 232, 46047 Oberhausen","geometry":{"location":{"lat":51.470291,"lng":6.886698},"viewport":{"northeast":{"lat":51.47171767989271,"lng":6.888033329892722},"southwest":{"lat":51.46901802010727,"lng":6.885333670107278}}},"icon":"https://maps.gstatic.com/mapfiles/place_api/icons/v1/png_71/restaurant-71.png","icon_background_color":"#FF9E67","icon_mask_base_uri":"https://maps.gstatic.com/mapfiles/place_api/icons/v2/restaurant_pinlet","name":"KHAN JI Restaurant, Indisch & Pakistanisch (Halal)","opening_hours":{"open_now":true},"photos":[{"height":1920,"html_attributions":["<a href=\"https://maps.google.com/maps/contrib/110855564147264029992\">Ruchi Jadhav</a>"],"photo_reference":"AeJbb3c2xKcaZ01v6PXz9KdBq-e7Coh0zZqJusEUgId1N01DJJGE1DZT8mXDdTSYnFZLiFzwE-ZTO6jtHbfMxHBGHD84mX8AHuM00kJUZq6hAYkPEqfoFlKrg32rU4LM3eTFc7GAAknA2-fobqlHNNCWW7bmSh1zsu_WtIQthE6lVwP0IRke","width":1080}],"place_id":"ChIJ9V6ThSbAuEcRcjTUdJoUChI","plus_code":{"compound_code":"FVCP+4M Oberhausen","global_code":"9F38FVCP+4M"},"price_level":2,"rating":4.6,"reference":"ChIJ9V6ThSbAuEcRcjTUdJoUChI","types":["restaurant","food","point_of_interest","establishment"],"user_ratings_total":948},{"business_status":"OPERATIONAL","formatted_address":"Friedrich-Ebert-Straße 84, 45127 Essen","geometry":{"location":{"lat":51.4610452,"lng":7.0109372},"viewport":{"northeast":{"lat":51.46242797989272,"lng":7.012253079892722},"southwest":{"lat":51.45972832010727,"lng":7.009553420107278}}},"icon":"https://maps.gstatic.com/mapfiles/place_api/icons/v1/png_71/restaurant-71.png","icon_background_color":"#FF9E67","icon_mask_base_uri":"https://maps.gstatic.com/mapfiles/place_api/icons/v2/restaurant_pinlet","name":"Tandori Haus","opening_hours":{"open_now":true},"photos":[{"height":1440,"html_attributions":["<a href=\"https://maps.google.com/maps/contrib/102193984537964657646\">Julia Weinstock</a>"],"photo_reference":"AeJbb3cdAKExM-u75xBBwNr5RO7C6udjoS6CtMy-ZDZ0qwI8Xc_l9jQfkKYyXOUXxUtk7AiEFrXJHKLBMFrSDaVDVgopRt0gnMUYvSxS8aMZOF8dhiGDKawPU_9iGk34lLLvVKNri1h4TqH3CNDpipoRaEbx-HtXVUweA5H1tHSbGL9hpi24","width":2560}],"place_id":"ChIJKQHEWbDCuEcRJEtm5vQwQrQ","plus_code":{"compound_code":"F266+C9 Essen","global_code":"9F39F266+C9"},"price_level":1,"rating":4.5,"reference":"ChIJKQHEWbDCuEcRJEtm5vQwQrQ","types":["restaurant","food","point_of_interest","establishment"],"user_ratings_total":271},{"business_status":"OPERATIONAL","formatted_address":"Querstraße 23, 44866 Bochum","geometry":{"location":{"lat":51.480778,"lng":7.147739},"viewport":{"northeast":{"lat":51.48207942989271,"lng":7.149013029892721},"southwest":{"lat":51.47937977010727,"lng":7.146313370107277}}},"icon":"https://maps.gstatic.com/mapfiles/place_api/icons/v1/png_71/restaurant-71.png","icon_background_color":"#FF9E67","icon_mask_base_uri":"https://maps.gstatic.com/mapfiles/place_api/icons/v2/restaurant_pinlet","name":"Lakshmi Mahal Indisches Restaurant","opening_hours":{"open_now":true},"photos":[{"height":3648,"html_attributions":["<a href=\"https://maps.google.com/maps/contrib/117359242667189110195\">A Google User</a>"],"photo_reference":"AeJbb3cNRes1iCg_eXHgJEing57Xv3t5j_-j4rbdDc_0HPUV5Muf6pGcuFeCF6WbAOUXSOmGuXkZvASUqxTK-Lc8ykW2nWV18w6qZCZC-xrIwCLP6Lwut5SL9Jd3oGmsZNTosUHgRHr5YRe5dHshf2xnrlUGHJ46wHXiw1wnAsXkiQ6v7ouE","width":5472}],"place_id":"ChIJQzW1CbrguEcRDd4QOrXfHis","plus_code":{"compound_code":"F4JX+83 Bochum","global_code":"9F39F4JX+83"},"price_level":2,"rating":4.4,"reference":"ChIJQzW1CbrguEcRDd4QOrXfHis","types":["meal_takeaway","restaurant","food","point_of_interest","establishment"],"user_ratings_total":314},{"business_status":"OPERATIONAL","formatted_address":"Lotharstraße 144, 47057 Duisburg","geometry":{"location":{"lat":51.42313,"lng":6.7948287},"viewport":{"northeast":{"lat":51.42447972989272,"lng":6.796325379892722},"southwest":{"lat":51.42178007010728,"lng":6.793625720107278}}},"icon":"https://maps.gstatic.com/mapfiles/place_api/icons/v1/png_71/restaurant-71.png","icon_background_color":"#FF9E67","icon_mask_base_uri":"https://maps.gstatic.com/mapfiles/place_api/icons/v2/restaurant_pinlet","name":"Mayuri Indisches Restaurant","opening_hours":{"open_now":false},"photos":[{"height":3648,"html_attributions":["<a href=\"https://maps.google.com/maps/contrib/113453491974463200518\">Marcus</a>"],"photo_reference":"AeJbb3dvv_n5m6_WEDkFQnVP6VTPTqRx2qmDIvX95cUvmFWy3vNHr8dCvnZXs50Uii0Qd6OMCqt3CJXeBdjibtJU5cbgp0b8BjqRAADeno8pfzJ43wr4e7dLnsvhHPx9OICB-su7h8w3RiO5ymnuSAK7_EsJSFtc0xNAaVBaOo1gzgG0lTng","width":2736}],"place_id":"ChIJI6zXKl6_uEcR638gaCDMcOA","plus_code":{"compound_code":"CQFV+7W Duisburg","global_code":"9F38CQFV+7W"},"price_level":2,"rating":4.4,"reference":"ChIJI6zXKl6_uEcR638gaCDMcOA","types":["restaurant","food","point_of_interest","establishment"],"user_ratings_total":243},{"business_status":"OPERATIONAL","formatted_address":"Roonstraße 79, 46049 Oberhausen","geometry":{"location":{"lat":51.4681565,"lng":6.8379768},"viewport":{"northeast":{"lat":51.46942582989272,"lng":6.839313379892721},"southwest":{"lat":51.46672617010728,"lng":6.836613720107277}}},"icon":"https://maps.gstatic.com/mapfiles/place_api/icons/v1/png_71/restaurant-71.png","icon_background_color":"#FF9E67","icon_mask_base_uri":"https://maps.gstatic.com/mapfiles/place_api/icons/v2/restaurant_pinlet","name":"Eat Guru Lieferdienst (Indische Küche)","opening_hours":{"open_now":false},"photos":[{"height":2480,"html_attributions":["<a href=\"https://maps.google.com/maps/contrib/116337283464922797175\">A Google User</a>"],"photo_reference":"AeJbb3dvj53ps3FL9nIuVYFKYu_zl8BrBwtOp2ET6x9JPcLuwwB-mesNfBlBjDc9qVycondftsmur2IfnK3lSPbJGcRD9lmyPHKfSmi9m88FHCMJMqBhDj_iajg4fTNT9Wn6ehsQhICAB5Ce_yAnhzAC1N8HkNvmcVAuuQwsA7kE1naGfZ4r","width":1233}],"place_id":"ChIJsUbV75PBuEcR1kmnYBRc_VM","plus_code":{"compound_code":"FR9Q+75 Oberhausen","global_code":"9F38FR9Q+75"},"rating":4.4,"reference":"ChIJsUbV75PBuEcR1kmnYBRc_VM","types":["meal_takeaway","restaurant","food","point_of_interest","establishment"],"user_ratings_total":9},{"business_status":"OPERATIONAL","formatted_address":"Altendorfer Str. 318, 45143 Essen","geometry":{"location":{"lat":51.4615056,"lng":6.976361199999999},"viewport":{"northeast":{"lat":51.46283327989271,"lng":6.977625679892721},"southwest":{"lat":51.46013362010726,"lng":6.974926020107277}}},"icon":"https://maps.gstatic.com/mapfiles/place_api/icons/v1/png_71/restaurant-71.png","icon_background_color":"#FF9E67","icon_mask_base_uri":"https://maps.gstatic.com/mapfiles/place_api/icons/v2/restaurant_pinlet","name":"Bamyan Kabab Restaurant","opening_hours":{"open_now":true},"photos":[{"height":1494,"html_attributions":["<a href=\"https://maps.google.com/maps/contrib/100024084410619578645\">Bamyan Kabab</a>"],"photo_reference":"AeJbb3cKOA-igUuo6rqxX2KIJ7W8CbO2buM0nhieXQAKxv46x7l6-d3OoYhCa2dXOHG4zjGHlsQphJYw4i-HK_Yq3SMJt2AvrFhRxrmpwV_cfG8Hsc0RzCkQtEnQaxIwz5VpXuxp97TJSTLLwKVJqD_ou8B7JyQUyhFbp0cY7ih2olOz98Ac","width":2656}],"place_id":"ChIJuyHJuI7CuEcRESM2jMzBuL8","plus_code":{"compound_code":"FX6G+JG Essen","global_code":"9F38FX6G+JG"},"price_level":2,"rating":4.3,"reference":"ChIJuyHJuI7CuEcRESM2jMzBuL8","types":["restaurant","food","point_of_interest","establishment"],"user_ratings_total":662},{"business_status":"OPERATIONAL","formatted_address":"Mellinghofer Str. 80, 45473 Mülheim an der Ruhr","geometry":{"location":{"lat":51.4438667,"lng":6.885493100000001},"viewport":{"northeast":{"lat":51.44526847989273,"lng":6.886841579892723},"southwest":{"lat":51.44256882010728,"lng":6.884141920107279}}},"icon":"https://maps.gstatic.com/mapfiles/place_api/icons/v1/png_71/restaurant-71.png","icon_background_color":"#FF9E67","icon_mask_base_uri":"https://maps.gstatic.com/mapfiles/place_api/icons/v2/restaurant_pinlet","name":"Indian Curry House","opening_hours":{"open_now":true},"photos":[{"height":4032,"html_attributions":["<a href=\"https://maps.google.com/maps/contrib/114021862411577428624\">Fam. Abidi</a>"],"photo_reference":"AeJbb3flDfU05pGzztwli6Ro9nQioNfblxfN1Gu7qCehdDeh87nFmBEhjPvinfUiw_MzWfOTd59uwqUumrYlwb9HjKTdmLyE7nrcKvu4xjhp1YaGR4dIDZtGHzRBstwOkggjQDxCqOUBT_Qg5C9Y5WmKJCBjj56iC2DXbxWdmXaraGzuo9sO","width":3024}],"place_id":"ChIJL5QGOHfBuEcRojLm75q0Zoo","plus_code":{"compound_code":"CVVP+G5 Mülheim","global_code":"9F38CVVP+G5"},"rating":4.3,"reference":"ChIJL5QGOHfBuEcRojLm75q0Zoo","types":["restaurant","food","point_of_interest","establishment"],"user_ratings_total":113},{"business_status":"OPERATIONAL","formatted_address":"Oststraße 137, 47057 Duisburg","geometry":{"location":{"lat":51.4274273,"lng":6.787471900000001},"viewport":{"northeast":{"lat":51.42845322989272,"lng":6.789275329892721},"southwest":{"lat":51.42575357010727,"lng":6.786575670107277}}},"icon":"https://maps.gstatic.com/mapfiles/place_api/icons/v1/png_71/restaurant-71.png","icon_background_color":"#FF9E67","icon_mask_base_uri":"https://maps.gstatic.com/mapfiles/place_api/icons/v2/restaurant_pinlet","name":"Punjabi Pfanne","opening_hours":{"open_now":true},"photos":[{"height":4032,"html_attributions":["<a href=\"https://maps.google.com/maps/contrib/101205992476860259656\">Rajeev Mishra</a>"],"photo_reference":"AeJbb3chf6w8DMBTu2zZycJOKm9t2wc3jfJKm-7Osx-osRBu6Xl8XsF2CFPPwpvSWqKKNZkUSSgiV34Ff4JDP7TjZdC6ZS4SJP2WMrriiPjKSUy1taehvQXsAYg01HiiOLAWYoci-Dbvua1GMmpPs4G9FOLF7jvQ2Q8Dlx_HM3X1EZoouRuk","width":3024}],"place_id":"ChIJi0J7OWa_uEcRYjJGl0TYIQg","plus_code":{"compound_code":"CQGP+XX Duisburg","global_code":"9F38CQGP+XX"},"price_level":1,"rating":4,"reference":"ChIJi0J7OWa_uEcRYjJGl0TYIQg","types":["restaurant","food","point_of_interest","establishment"],"user_ratings_total":271},{"business_status":"OPERATIONAL","formatted_address":"Steinstraße 12, 45128 Essen","geometry":{"location":{"lat":51.4461561,"lng":7.015775499999999},"viewport":{"northeast":{"lat":51.44756187989272,"lng":7.017103529892721},"southwest":{"lat":51.44486222010728,"lng":7.014403870107278}}},"icon":"https://maps.gstatic.com/mapfiles/place_api/icons/v1/png_71/restaurant-71.png","icon_background_color":"#FF9E67","icon_mask_base_uri":"https://maps.gstatic.com/mapfiles/place_api/icons/v2/restaurant_pinlet","name":"Dhaba@49 - The taste of India (Akki's)","opening_hours":{"open_now":true},"photos":[{"height":4032,"html_attributions":["<a href=\"https://maps.google.com/maps/contrib/102777551882299480817\">tarun</a>"],"photo_reference":"AeJbb3cmGgMXPHhV-OrPNpfTraL59_NIJfE70dSMI7Jy9C_wcGOlANolrVWPu9kT7a5zF34PtJbbMxdxJ0Dht58O8LYH-O_ZPA2EeJGO-u5ruLKUv1IEOr2YuLHiUSljXcKpGvuHfuxqJZKBMz39MVPRVEPnhS-yTpqREbCPGuXGkG7Xx5kM","width":2268}],"place_id":"ChIJvReZ_7XCuEcRC-CSyF4Aih0","plus_code":{"compound_code":"C2W8+F8 Essen","global_code":"9F39C2W8+F8"},"rating":4,"reference":"ChIJvReZ_7XCuEcRC-CSyF4Aih0","types":["meal_delivery","meal_takeaway","restaurant","food","point_of_interest","establishment"],"user_ratings_total":134},{"business_status":"OPERATIONAL","formatted_address":"Kirchstraße 14, 45879 Gelsenkirchen","geometry":{"location":{"lat":51.50971639999999,"lng":7.0981945},"viewport":{"northeast":{"lat":51.51104992989272,"lng":7.099543379892722},"southwest":{"lat":51.50835027010727,"lng":7.096843720107278}}},"icon":"https://maps.gstatic.com/mapfiles/place_api/icons/v1/png_71/restaurant-71.png","icon_background_color":"#FF9E67","icon_mask_base_uri":"https://maps.gstatic.com/mapfiles/place_api/icons/v2/restaurant_pinlet","name":"Kashmir Garden","opening_hours":{"open_now":false},"photos":[{"height":6000,"html_attributions":["<a href=\"https://maps.google.com/maps/contrib/110320471344981309950\">A Google User</a>"],"photo_reference":"AeJbb3dGE6GrXgk9EPNA-FkYpVdBdIZ7s02OcKkM0geu_JcGmHb8dXuWFhfG-2PU2ZDozs4S8UhPlz31baggkABn9zNDAzchHLN4GvQ46PBaPwg8y7y2p2voteKR5RvXJyaT9sB4yeHW8u69xkqwvNz7pD1q1K369ue3zkmyJuxvjTkV5bPr","width":8000}],"place_id":"ChIJ7a6V9ALnuEcRaByuWtYcqIM","plus_code":{"compound_code":"G35X+V7 Gelsenkirchen","global_code":"9F39G35X+V7"},"rating":4,"reference":"ChIJ7a6V9ALnuEcRaByuWtYcqIM","types":["restaurant","food","point_of_interest","establishment"],"user_ratings_total":65},{"business_status":"OPERATIONAL","formatted_address":"Gutenbergstraße 26, 45128 Essen","geometry":{"location":{"lat":51.4461446,"lng":7.0159179},"viewport":{"northeast":{"lat":51.44753187989272,"lng":7.017352529892721},"southwest":{"lat":51.44483222010728,"lng":7.014652870107277}}},"icon":"https://maps.gstatic.com/mapfiles/place_api/icons/v1/png_71/restaurant-71.png","icon_background_color":"#FF9E67","icon_mask_base_uri":"https://maps.gstatic.com/mapfiles/place_api/icons/v2/restaurant_pinlet","name":"Dhaba@49 the taste of India","opening_hours":{"open_now":true},"place_id":"ChIJUUjSyunDuEcRIU0nZAId3o0","plus_code":{"compound_code":"C2W8+F9 Essen","global_code":"9F39C2W8+F9"},"rating":3.7,"reference":"ChIJUUjSyunDuEcRIU0nZAId3o0","types":["restaurant","food","point_of_interest","establishment"],"user_ratings_total":3}]