[{"business_status":"OPERATIONAL","formatted_address":"Zweigertstraße 12, 45130 Essen","geometry":{"location":{"lat":51.4376377,"lng":7.004401700000001},"viewport":{"northeast":{"lat":51.43890082989272,"lng":7.005737229892721},"southwest":{"lat":51.43620117010727,"lng":7.003037570107277}}},"icon":"https://maps.gstatic.com/mapfiles/place_api/icons/v1/png_71/restaurant-71.png","icon_background_color":"#FF9E67","icon_mask_base_uri":"https://maps.gstatic.com/mapfiles/place_api/icons/v2/restaurant_pinlet","name":"Pizzeria Farnia Rü","opening_hours":{"open_now":true},"photos":[{"height":640,"html_attributions":["<a href=\"https://maps.google.com/maps/contrib/101223467209438578448\">A Google User</a>"],"photo_reference":"AeJbb3dVv5IItIbZpfPCxx4EEaoUfPItHh4JxtASk-EX5X6PFn9yGAYpdf0Tl2NMwNG0ep8VejajjjwerGSMFBKoOnKzZBDS6QStypFK2D5dptN8z22r-2HxBGroXyIn_5k_SQ4JdCjVUPmRfL1marRXljUFjXCuCOwgC_MIjwi4ATNFkip2","width":640}],"place_id":"ChIJhea8qBrDuEcRExolkyAmUhI","plus_code":{"compound_code":"C2Q3+3Q Essen","global_code":"9F39C2Q3+3Q"},"rating":4.8,"reference":"ChIJhea8qBrDuEcRExolkyAmUhI","types":["restaurant","food","point_of_interest","establishment"],"user_ratings_total":41},{"business_status":"OPERATIONAL","formatted_address":"Gladbecker Str. 251, 46240 Bottrop","geometry":{"location":{"lat":51.5441592,"lng":6.9354931},"viewport":{"northeast":{"lat":51.54547817989272,"lng":6.936915829892722},"southwest":{"lat":51.54277852010728,"lng":6.934216170107278}}},"icon":"https://maps.gstatic.com/mapfiles/place_api/icons/v1/png_71/restaurant-71.png","icon_background_color":"#FF9E67","icon_mask_base_uri":"https://maps.gstatic.com/mapfiles/place_api/icons/v2/restaurant_pinlet","name":"Pizza und Pasta","opening_hours":{"open_now":true},"photos":[{"height":4618,"html_attributions":["<a href=\"https://maps.google.com/maps/contrib/104093433990506686227\">KE Playlist 2017</a>"],"photo_reference":"AeJbb3fExgkiHMdpCrjJPGNeJl-Xcoud4WOEH4kfIqoetLyccbAT4FCvBHBohnWqJLkhiu07HjtWbpwM-dPajWrUWNJuRdznQlnNKMlhwrG0CH06ScrYE6pQo2pwao648DQQnvP56-y6WRupIRVz8tO1PYlQF2ELPqMBf8eAqbEvM_JIqhyH","width":3464}],"place_id":"ChIJN31oh1_puEcRa9TlKHDkYc0","plus_code":{"compound_code":"GWVP+M5 Bottrop","global_code":"9F38GWVP+M5"},"price_level":1,"rating":4.7,"reference":"ChIJN31oh1_puEcRa9TlKHDkYc0","types":["restaurant","food","point_of_interest","establishment"],"user_ratings_total":517},{"business_status":"OPERATIONAL","formatted_address":"Meybuschhof 48A, 45327 Essen","geometry":{"location":{"lat":51.4952774,"lng":7.0487796},"viewport":{"northeast":{"lat":51.49658857989272,"lng":7.050033379892722},"southwest":{"lat":51.49388892010727,"lng":7.047333720107278}}},"icon":"https://maps.gstatic.com/mapfiles/place_api/icons/v1/png_71/restaurant-71.png","icon_background_color":"#FF9E67","icon_mask_base_uri":"https://maps.gstatic.com/mapfiles/place_api/icons/v2/restaurant_pinlet","name":"Holzofen Pizzeria Essen","opening_hours":{"open_now":true},"photos":[{"height":5312,"html_attributions":["<a href=\"https://maps.google.com/maps/contrib/106468485064742333182\">Erdal Karasoy</a>"],"photo_reference":"AeJbb3eLCLYOMxg48r0ThE7W6piZOnMp6J3L5rYWnWMyrNMAJKmvzbIKcsTSjb5270T2vVz2reRdJVOVKXm2krRs_ZPtY7tlijahTDXa68E8c0RgaPDemDq51C_IypHY2087n6doP6pTwb2uFB_fy6Tz1hR420SlnsS2_AVP_ONgmtKPf1ca","width":2988}],"place_id":"ChIJw47MS8LnuEcR0Ry1WvdqTNQ","plus_code":{"compound_code":"F2WX+4G Essen","global_code":"9F39F2WX+4G"},"price_level":1,"rating":4.7,"reference":"ChIJw47MS8LnuEcR0Ry1WvdqTNQ","types":["meal_takeaway","restaurant","food","point_of_interest","establishment"],"user_ratings_total":199},{"business_status":"OPERATIONAL","formatted_address":"5, 45276 Essen","geometry":{"location":{"lat":51.44883489999999,"lng":7.075886},"viewport":{"northeast":{"lat":51.45020322989272,"lng":7.077541479892722},"southwest":{"lat":51.44750357010727,"lng":7.074841820107278}}},"icon":"https://maps.gstatic.com/mapfiles/place_api/icons/v1/png_71/restaurant-71.png","icon_background_color":"#FF9E67","icon_mask_base_uri":"https://maps.gstatic.com/mapfiles/place_api/icons/v2/restaurant_pinlet","name":"Pizza bei Mario","opening_hours":{"open_now":true},"photos":[{"height":1080,"html_attributions":["<a href=\"https://maps.google.com/maps/contrib/107628013865706108625\">Profil Engelhardt</a>"],"photo_reference":"AeJbb3d6P22LdVZqOZLWXA_f0PpZQMUz2BMvc5lKvjFpQsJH2EdBMC2Uuv9l6nejBSqnl225gx2NgrXHULjw8eL0Lhcv5CBUrztTk2HcbfVjRzay-CCwAsW2-NmB461S7ej5hBIrTqzNqmSwS2lsXjOyb4v1MRk1AOehYKMCV4kYeHo4Nj32","width":1920}],"place_id":"ChIJ5apauavduEcRZ51ov3mMiG0","plus_code":{"compound_code":"C3XG+G9 Essen","global_code":"9F39C3XG+G9"},"rating":4.7,"reference":"ChIJ5apauavduEcRZ51ov3mMiG0","types":["restaurant","food","point_of_interest","establishment"],"user_ratings_total":23},{"business_status":"OPERATIONAL","formatted_address":"30, Klöcknerstraße 30, 47057 Duisburg","geometry":{"location":{"lat":51.4303971,"lng":6.7803746},"viewport":{"northeast":{"lat":51.43174202989272,"lng":6.781839579892722},"southwest":{"lat":51.42904237010728,"lng":6.779139920107278}}},"icon":"https://maps.gstatic.com/mapfiles/place_api/icons/v1/png_71/restaurant-71.png","icon_background_color":"#FF9E67","icon_mask_base_uri":"https://maps.gstatic.com/mapfiles/place_api/icons/v2/restaurant_pinlet","name":"Pizzawagen La Barca","opening_hours":{"open_now":true},"photos":[{"height":1960,"html_attributions":["<a href=\"https://maps.google.com/maps/contrib/108601300816282599187\">Martin Postma</a>"],"photo_reference":"AeJbb3cMzjh23SSKOWXrhlWJEkDnXUq2jERoslHTtKGpV59qWLgZf9e5mtgiRvWXPs5reqUaFuc7YvK1X12UPPn7E3WVOgCElfbrRZEMpwDGWSnVFf_pGlmd0p1XwUYakRacZ9ykSy2LEBTvNMufGhhcXp7TmLlRtj3uk9wTuEWQGzoat-oI","width":4032}],"place_id":"ChIJJbm5p26_uEcRoH5_sOdnBm0","plus_code":{"compound_code":"CQJJ+54 Duisburg","global_code":"9F38CQJJ+54"},"price_level":1,"rating":4.6,"reference":"ChIJJbm5p26_uEcRoH5_sOdnBm0","types":["meal_takeaway","restaurant","food","point_of_interest","establishment"],"user_ratings_total":992},{"business_status":"OPERATIONAL","formatted_address":"Castroper Str. 238, 44791 Bochum","geometry":{"location":{"lat":51.492269,"lng":7.2471677},"viewport":{"northeast":{"lat":51.49368762989273,"lng":7.248514679892723},"southwest":{"lat":51.49098797010728,"lng":7.245815020107279}}},"icon":"https://maps.gstatic.com/mapfiles/place_api/icons/v1/png_71/restaurant-71.png","icon_background_color":"#FF9E67","icon_mask_base_uri":"https://maps.gstatic.com/mapfiles/place_api/icons/v2/restaurant_pinlet","name":"Pizzeria Trulli","opening_hours":{"open_now":true},"photos":[{"height":750,"html_attributions":["<a href=\"https://maps.google.com/maps/contrib/106533163000291557582\">Sangue di Torro</a>"],"photo_reference":"AeJbb3dvQ78W1Br4inYRt5lcbrPwPgDkUaF8RMt4vEzmCFuNQvTEf8IQgW4178bKzCEwRxjzLafVb6uZx_embk5K6t1PdAPX2NVujS3H2SyztNazLBMPYNGiLj6iRdt7AOtRJnmjq_d3izg0IS5iG5Khho8LXw-c2IdVTPVfqqKmToNRH_5b","width":1334}],"place_id":"ChIJ09ZJ4CfguEcR_5ME4uWcIhI","plus_code":{"compound_code":"F6RW+WV Bochum","global_code":"9F39F6RW+WV"},"price_level":1,"rating":4.6,"reference":"ChIJ09ZJ4CfguEcR_5ME4uWcIhI","types":["restaurant","food","point_of_interest","establishment"],"user_ratings_total":786},{"business_status":"OPERATIONAL","formatted_address":"Vogelheimer Str. 152, 45329 Essen","geometry":{"location":{"lat":51.49207999999999,"lng":6.99433},"viewport":{"northeast":{"lat":51.49333992989272,"lng":6.995768479892722},"southwest":{"lat":51.49064027010728,"lng":6.993068820107278}}},"icon":"https://maps.gstatic.com/mapfiles/place_api/icons/v1/png_71/restaurant-71.png","icon_background_color":"#FF9E67","icon_mask_base_uri":"https://maps.gstatic.com/mapfiles/place_api/icons/v2/restaurant_pinlet","name":"Pizzeria bei Dani","opening_hours":{"open_now":true},"photos":[{"height":3000,"html_attributions":["<a href=\"https://maps.google.com/maps/contrib/105316223699157771431\">Peter Scharnau</a>"],"photo_reference":"AeJbb3eXmlxVjMltjfgn3mcqfWEKl9IZgaqy2hYCu295wU9LECrTj-IIowJzCGoySeYKynydUOV7OlkcmXeMgq9UgvGy78EtDTztIZkU-V3KTWXDj8kcDyTzhLLQN0wHp-bBtDpR-LZLli8eWTYSNVlSBGUo_CzVRsav8TMK-BRusXKHMHct","width":5333}],"place_id":"ChIJy-MMbznouEcRL4-RexgDQuU","plus_code":{"compound_code":"FXRV+RP Essen","global_code":"9F38FXRV+RP"},"price_level":1,"rating":4.6,"reference":"ChIJy-MMbznouEcRL4-RexgDQuU","types":["meal_takeaway","restaurant","food","point_of_interest","establishment"],"user_ratings_total":436},{"business_status":"OPERATIONAL","formatted_address":"Bochumer Str. 85, 44623 Herne","geometry":{"location":{"lat":51.5307363,"lng":7.2221922},"viewport":{"northeast":{"lat":51.53209902989272,"lng":7.223522229892723},"southwest":{"lat":51.52939937010728,"lng":7.220822570107279}}},"icon":"https://maps.gstatic.com/mapfiles/place_api/icons/v1/png_71/restaurant-71.png","icon_background_color":"#FF9E67","icon_mask_base_uri":"https://maps.gstatic.com/mapfiles/place_api/icons/v2/restaurant_pinlet","name":"Pizzeria bei Albino","opening_hours":{"open_now":true},"photos":[{"height":2304,"html_attributions":["<a href=\"https://maps.google.com/maps/contrib/114466560280921092575\">Jürgen Sommer</a>"],"photo_reference":"AeJbb3eE3NbUdDZAQ8b9yKNmSKvCT1AkO8o5nNr7-OliVLsLu07OIzkGvgq4Z0IjV_p7qggwtWmOfeUhVpiwqRCNfUKURbigMpEPDfSLNZBLlvReLpENaYrDfVCprKvAao9lAUrvz0rT8sWBpXpdOa5UEGZ-8YeYjNVXzCKAq6Y30C229-fU","width":4608}],"place_id":"ChIJ6SgG75PhuEcRQ2OmBfcGnig","plus_code":{"compound_code":"G6JC+7W Herne","global_code":"9F39G6JC+7W"},"price_level":1,"rating":4.6,"reference":"ChIJ6SgG75PhuEcRQ2OmBfcGnig","types":["restaurant","food","point_of_interest","establishment"],"user_ratings_total":373},{"business_status":"OPERATIONAL","formatted_address":"Johannesstraße 14, 46240 Bottrop","geometry":{"location":{"lat":51.53582429999999,"lng":6.9720201},"viewport":{"northeast":{"lat":51.53721497989272,"lng":6.973419679892723},"southwest":{"lat":51.53451532010727,"lng":6.970720020107279}}},"icon":"https://maps.gstatic.com/mapfiles/place_api/icons/v1/png_71/restaurant-71.png","icon_background_color":"#FF9E67","icon_mask_base_uri":"https://maps.gstatic.com/mapfiles/place_api/icons/v2/restaurant_pinlet","name":"Trattoria Pizzeria doppiO zerO","opening_hours":{"open_now":true},"photos":[{"height":1600,"html_attributions":["<a href=\"https://maps.google.com/maps/contrib/116325825373219794198\">A Google User</a>"],"photo_reference":"AeJbb3clFWK5T52oPTUKfNYoaGujPN2SMCeu4si1KmbTeGzKhD7ImVwug1szvfv2lvYg9BLJrKHPIzrWRvhFzPmv7h6uXBagY7z7no-BSjKngvb7Xg6AsyxLUrdad-J3_piQ6EXp3V0nCtfKAusQRMozEofdnkW99wu_Yi1DMrhuuR9ooSp2","width":1200}],"place_id":"ChIJ0a1g28bpuEcRQmmqAKIRhl4","plus_code":{"compound_code":"GXPC+8R Bottrop","global_code":"9F38GXPC+8R"},"price_level":2,"rating":4.6,"reference":"ChIJ0a1g28bpuEcRQmmqAKIRhl4","types":["cafe","meal_delivery","restaurant","food","store","point_of_interest","establishment"],"user_ratings_total":128},{"business_status":"OPERATIONAL","formatted_address":"Herner Str. 378, 44807 Bochum","geometry":{"location":{"lat":51.51107409999999,"lng":7.2107935},"viewport":{"northeast":{"lat":51.51241507989272,"lng":7.212077479892724},"southwest":{"lat":51.50971542010728,"lng":7.209377820107279}}},"icon":"https://maps.gstatic.com/mapfiles/place_api/icons/v1/png_71/restaurant-71.png","icon_background_color":"#FF9E67","icon_mask_base_uri":"https://maps.gstatic.com/mapfiles/place_api/icons/v2/restaurant_pinlet","name":"Pizzeria Il Pastaro","opening_hours":{"open_now":true},"photos":[{"height":4032,"html_attributions":["<a href=\"https://maps.google.com/maps/contrib/104033302706379943850\">A Google User</a>"],"photo_reference":"AeJbb3dum-hzpKlz-muMTxEuJaIK2jYxnJnfYJzBt-x3Ic7I7anmUjy9y8sqdzdx8t-z7SdFKzdztNKUGi_2UC0U1_RqTmvhnBhN_4_V4sOUx-0AIKnz_iFSzESjSkgrNSDmBHRG3LWnlXVKS5nIwRvcMQnY1WFDWftFg4JKAEqBtYj2NQYn","width":3024}],"place_id":"ChIJoSnww7HhuEcRFN208LVR2Ms","plus_code":{"compound_code":"G666+C8 Bochum","global_code":"9F39G666+C8"},"price_level":1,"rating":4.6,"reference":"ChIJoSnww7HhuEcRFN208LVR2Ms","types":["meal_delivery","restaurant","food","point_of_interest","establishment"],"user_ratings_total":101},{"business_status":"OPERATIONAL","formatted_address":"Voßstraße 193, 45966 Gladbeck","geometry":{"location":{"lat":51.5897539,"lng":7.000169199999999},"viewport":{"northeast":{"lat":51.59106487989273,"lng":7.001598879892722},"southwest":{"lat":51.58836522010728,"lng":6.998899220107278}}},"icon":"https://maps.gstatic.com/mapfiles/place_api/icons/v1/png_71/restaurant-71.png","icon_background_color":"#FF9E67","icon_mask_base_uri":"https://maps.gstatic.com/mapfiles/place_api/icons/v2/restaurant_pinlet","name":"Pizzeria Sicilia","opening_hours":{"open_now":true},"photos":[{"height":3024,"html_attributions":["<a href=\"https://maps.google.com/maps/contrib/114676656421194660043\">A Google User</a>"],"photo_reference":"AeJbb3eAOv5o507K3H5yAPWZOxp9IvOmb253eROvzBXPHYJ1bsJSaRQSyYgN1n0WzVVVHQP9OrU661h3vlmLaRL--0iyRL9YTILhYlT0GgVvsh80p3WOS4bRTZhO7D_Ht83pngYs2YRbViCjya79hH5bjkpuXEby40Kl7WFSaPjO5TcO8pLk","width":4032}],"place_id":"ChIJUygwouLuuEcRkkkTdGRyMH8","plus_code":{"compound_code":"H2Q2+W3 Gladbeck","global_code":"9F39H2Q2+W3"},"price_level":1,"rating":4.6,"reference":"ChIJUygwouLuuEcRkkkTdGRyMH8","types":["meal_takeaway","restaurant","food","point_of_interest","establishment"],"user_ratings_total":57},{"business_status":"OPERATIONAL","formatted_address":"Hauptstraße 235, 44649 Herne","geometry":{"location":{"lat":51.5301366,"lng":7.1591928},"viewport":{"northeast":{"lat":51.53155292989272,"lng":7.160546779892721},"southwest":{"lat":51.52885327010727,"lng":7.157847120107277}}},"icon":"https://maps.gstatic.com/mapfiles/place_api/icons/v1/png_71/restaurant-71.png","icon_background_color":"#FF9E67","icon_mask_base_uri":"https://maps.gstatic.com/mapfiles/place_api/icons/v2/restaurant_pinlet","name":"Pizzeria Portofino","opening_hours":{"open_now":true},"photos":[{"height":4608,"html_attributions":["<a href=\"https://maps.google.com/maps/contrib/105153918973315229848\">zizo milano</a>"],"photo_reference":"AeJbb3eKj752c3odhWFdnFf2UVlI5SBbiRKYJ8g0EWSJ6wErfu1A4Cbz6YQpT3dsn7_gvttFFGKobYs4Hrg-r3_tUgYAZGQp5vpvUoH5SnFZp7A1T-uLijfKjKLWrSv5WudiONe-kz26BFMmsowumZzjPEN-Mbd2TCCh1if-rSRUsdL_KDcl","width":3456}],"place_id":"ChIJO0S2bR3huEcRo0sCmlNKYfc","plus_code":{"compound_code":"G5J5+3M Herne","global_code":"9F39G5J5+3M"},"rating":4.6,"reference":"ChIJO0S2bR3huEcRo0sCmlNKYfc","types":["restaurant","food","point_of_interest","establishment"],"user_ratings_total":45},{"business_status":"OPERATIONAL","formatted_address":"Hattinger Str. 61, 44789 Bochum","geometry":{"location":{"lat":51.4711692,"lng":7.2127604},"viewport":{"northeast":{"lat":51.47256362989272,"lng":7.214088379892721},"southwest":{"lat":51.46986397010728,"lng":7.211388720107276}}},"icon":"https://maps.gstatic.com/mapfiles/place_api/icons/v1/png_71/restaurant-71.png","icon_background_color":"#FF9E67","icon_mask_base_uri":"https://maps.gstatic.com/mapfiles/place_api/icons/v2/restaurant_pinlet","name":"Pizzeria Pronto","opening_hours":{"open_now":true},"photos":[{"height":4608,"html_attributions":["<a href=\"https://maps.google.com/maps/contrib/108471422795327890950\">A Google User</a>"],"photo_reference":"AeJbb3dxBUlkE6nFGs-uhoN46RgrgDmskoZu4ebSGMN1k-sxdicULiekmk0885xfQuTadfdPt6ndUk1A2m5LL1YQOY_oN4HQXao5YgdH49r_4KjOL4AqkOcOA6_rBCdeJKb1GRh2Wc0WPbzw_RQbXRY8zn8es44PFVh6OeUoHPcSEZLXqFEi","width":2592}],"place_id":"ChIJE91XRQ3guEcReapKbI7D1kk","plus_code":{"compound_code":"F6C7+F4 Bochum","global_code":"9F39F6C7+F4"},"rating":4.6,"reference":"ChIJE91XRQ3guEcReapKbI7D1kk","types":["meal_takeaway","restaurant","food","point_of_interest","establishment"],"user_ratings_total":41},{"business_status":"OPERATIONAL","formatted_address":"Helmholtzstraße 21, 46045 Oberhausen","geometry":{"location":{"lat":51.47025,"lng":6.850098099999999},"viewport":{"northeast":{"lat":51.47162927989273,"lng":6.851483029892723},"southwest":{"lat":51.46892962010729,"lng":6.848783370107279}}},"icon":"https://maps.gstatic.com/mapfiles/place_api/icons/v1/png_71/restaurant-71.png","icon_background_color":"#FF9E67","icon_mask_base_uri":"https://maps.gstatic.com/mapfiles/place_api/icons/v2/restaurant_pinlet","name":"Ristorante Pizzeria Salvatore","opening_hours":{"open_now":true},"photos":[{"height":2250,"html_attributions":["<a href=\"https://maps.google.com/maps/contrib/110543624310353230941\">Art van Steenbergen</a>"],"photo_reference":"AeJbb3fA2ONogwM5UZrMo2hY0jbY79tIQcxzAUD0fbftXRzqJUx06aUUp6LtuiQTPIBw9sIVw0TgmvWOdUg6GG6hi_Ek9EMR5a1ksX_9DzMwv6Uu1mOhOCNSXeEyTl97XC2V5U6WLrx6Hl9Sj0uVYTFZoaumONTR4J4pe52QbGC2j778aqiU","width":4000}],"place_id":"ChIJXzfFgTDAuEcRZBnegtswtDg","plus_code":{"compound_code":"FVC2+32 Oberhausen","global_code":"9F38FVC2+32"},"price_level":2,"rating":4.5,"reference":"ChIJXzfFgTDAuEcRZBnegtswtDg","types":["restaurant","food","point_of_interest","establishment"],"user_ratings_total":752},{"business_status":"OPERATIONAL","formatted_address":"Hamburger Str. 65, 46145 Oberhausen","geometry":{"location":{"lat":51.5252783,"lng":6.8563988},"viewport":{"northeast":{"lat":51.52665637989272,"lng":6.857815129892722},"southwest":{"lat":51.52395672010727,"lng":6.855115470107278}}},"icon":"https://maps.gstatic.com/mapfiles/place_api/icons/v1/png_71/restaurant-71.png","icon_background_color":"#FF9E67","icon_mask_base_uri":"https://maps.gstatic.com/mapfiles/place_api/icons/v2/restaurant_pinlet","name":"Pizzeria Mamma Maria","opening_hours":{"open_now":true},"photos":[{"height":2988,"html_attributions":["<a href=\"https://maps.google.com/maps/contrib/109396006617240842003\">Manuel F</a>"],"photo_reference":"AeJbb3cGZ0paN9CSbpXndfl6cuBIZ3xgT8RtHeq1jup90G8AzLoJW2pli1GG2D9yrFMOdmPm4Iu0l5jWqV4QUJxFvQUydWbEe4fHJKORhE2cU0e0b9PeBwQ1L84cshqX-URIwc-vTeuRAVKjoNelAF1fWk8sU8iporFmUQ09PPYOlehdMao-","width":5312}],"place_id":"ChIJV8k-_OHquEcRzv_13352P6o","plus_code":{"compound_code":"GVG4+4H Oberhausen","global_code":"9F38GVG4+4H"},"price_level":1,"rating":4.5,"reference":"ChIJV8k-_OHquEcRzv_13352P6o","types":["restaurant","food","point_of_interest","establishment"],"user_ratings_total":559},{"business_status":"OPERATIONAL","formatted_address":"Gelsenkirchener Str. 48, 45141 Essen","geometry":{"location":{"lat":51.4787256,"lng":7.0389667},"viewport":{"northeast":{"lat":51.48012797989273,"lng":7.040323279892722},"southwest":{"lat":51.47742832010728,"lng":7.037623620107278}}},"icon":"https://maps.gstatic.com/mapfiles/place_api/icons/v1/png_71/restaurant-71.png","icon_background_color":"#FF9E67","icon_mask_base_uri":"https://maps.gstatic.com/mapfiles/place_api/icons/v2/restaurant_pinlet","name":"Pizza Paolo","opening_hours":{"open_now":true},"photos":[{"height":5472,"html_attributions":["<a href=\"https://maps.google.com/maps/contrib/110609882354667198720\">A Google User</a>"],"photo_reference":"AeJbb3fQCKpSwV-hswh5816i-GsUPdfmz9trNF9-ep3dOX1ncy_0uAuxZiw9fY6xtuCk7Th8Pw95INg4KVlPSx5qxPJ_j0PjIfnO0fHP54792oG8SCWT19-BZpWURtPmxr3ds1bUVbu6M78yR4_zqkHlWACYjaP1sXWfPjqzpF0U6SxlDlEV","width":7296}],"place_id":"ChIJRYFTIPrnuEcRr4Zac8nI6dY","plus_code":{"compound_code":"F2HQ+FH Essen","global_code":"9F39F2HQ+FH"},"price_level":2,"rating":4.5,"reference":"ChIJRYFTIPrnuEcRr4Zac8nI6dY","types":["restaurant","food","point_of_interest","establishment"],"user_ratings_total":511},{"business_status":"OPERATIONAL","formatted_address":"Cranger Str. 188, 45891 Gelsenkirchen","geometry":{"location":{"lat":51.5669964,"lng":7.081481200000001},"viewport":{"northeast":{"lat":51.56835852989273,"lng":7.082877979892722},"southwest":{"lat":51.56565887010728,"lng":7.080178320107279}}},"icon":"https://maps.gstatic.com/mapfiles/place_api/icons/v1/png_71/restaurant-71.png","icon_background_color":"#FF9E67","icon_mask_base_uri":"https://maps.gstatic.com/mapfiles/place_api/icons/v2/restaurant_pinlet","name":"Restaurant Farina","opening_hours":{"open_now":true},"photos":[{"height":1520,"html_attributions":["<a href=\"https://maps.google.com/maps/contrib/104189161990910099211\">Michael K.</a>"],"photo_reference":"AeJbb3fQOoyv_56QT_z0-e4n5BKeJBi23PmjGuCZaIQvJ-SWr5Z2zM5bJvfY4b6iuuI6LMENmYAfxhTKe66FjroSWnaNntLoUX0Ln_gzY6NdOX1NfkfdA5Vp59nlXYAAmM-zPzfuTIewQk6C_huFHFYcTkKAuaMdszrthYhexFStObwCVJxK","width":2688}],"place_id":"ChIJ-ed5cMPluEcRY8jVQp8aHog","plus_code":{"compound_code":"H38J+QH Gelsenkirchen","global_code":"9F39H38J+QH"},"price_level":2,"rating":4.5,"reference":"ChIJ-ed5cMPluEcRY8jVQp8aHog","types":["restaurant","food","point_of_interest","establishment"],"user_ratings_total":496},{"business_status":"OPERATIONAL","formatted_address":"Goldbergpl. 10, 45894 Gelsenkirchen","geometry":{"location":{"lat":51.5774993,"lng":7.056133},"viewport":{"northeast":{"lat":51.57902367989272,"lng":7.057520179892721},"southwest":{"lat":51.57632402010728,"lng":7.054820520107278}}},"icon":"https://maps.gstatic.com/mapfiles/place_api/icons/v1/png_71/restaurant-71.png","icon_background_color":"#FF9E67","icon_mask_base_uri":"https://maps.gstatic.com/mapfiles/place_api/icons/v2/restaurant_pinlet","name":"Pizzeria Holzofen Holzofenpizzeria","opening_hours":{"open_now":true},"photos":[{"height":3024,"html_attributions":["<a href=\"https://maps.google.com/maps/contrib/116215344973499767245\">Marcus Gruber</a>"],"photo_reference":"AeJbb3eFMSX6R9rcENTXGTO1mLlKA8fq1x4jrQsiplpomv2zLYgN12zqcsmMXmfXa5OuPe9IQc2o1Wp_3MoSjJii1jy5RDlQbBeJh5VhlSJpcpTHZsiISq8CA4u81YYzbeAD5J4bCpCyLHn87J5Hy581spZgHkmVUINXBVhmAEGwZu4vS_cL","width":4032}],"place_id":"ChIJWWUjN4vluEcRcvN3_XDol5c","plus_code":{"compound_code":"H3G4+XF Gelsenkirchen","global_code":"9F39H3G4+XF"},"price_level":1,"rating":4.5,"reference":"ChIJWWUjN4vluEcRcvN3_XDol5c","types":["meal_delivery","restaurant","food","point_of_interest","establishment"],"user_ratings_total":382},{"business_status":"OPERATIONAL","formatted_address":"Saarlandstraße 5, 44866 Bochum","geometry":{"location":{"lat":51.4804775,"lng":7.1347729},"viewport":{"northeast":{"lat":51.48166177989272,"lng":7.136189779892723},"southwest":{"lat":51.47896212010728,"lng":7.133490120107279}}},"icon":"https://maps.gstatic.com/mapfiles/place_api/icons/v1/png_71/restaurant-71.png","icon_background_color":"#FF9E67","icon_mask_base_uri":"https://maps.gstatic.com/mapfiles/place_api/icons/v2/restaurant_pinlet","name":"Arte Italiana | Restaurant & Pizzeria","opening_hours":{"open_now":true},"photos":[{"height":2541,"html_attributions":["<a href=\"https://maps.google.com/maps/contrib/108062086779922716703\">Lazar Ristic</a>"],"photo_reference":"AeJbb3fo-9OQKvUMdqDIpsXp0Nj6UWimfvmgqOoKscKxYC-wuTcTJU7e3Gb2N8uEKfyGIZcxBiAZAvr-LzFjqE16wyO8Ax9MxD4_VWNJom7P17UvoX2WBaqSfUVl29qSWDjTO-zuJ5PD-Hq1ehwoGnXrRBusGBL8zGoXJXrQ8JXJJql0z5uQ","width":4032}],"place_id":"ChIJXWL5MbPguEcRugSU2HFK1GQ","plus_code":{"compound_code":"F4JM+5W Bochum","global_code":"9F39F4JM+5W"},"price_level":2,"rating":4.5,"reference":"ChIJXWL5MbPguEcRugSU2HFK1GQ","types":["meal_delivery","meal_takeaway","restaurant","food","point_of_interest","establishment"],"user_ratings_total":345},{"business_status":"OPERATIONAL","formatted_address":"Cranger Str. 369, 45891 Gelsenkirchen","geometry":{"location":{"lat":51.555046,"lng":7.098179},"viewport":{"northeast":{"lat":51.55634692989273,"lng":7.099425679892722},"southwest":{"lat":51.55364727010728,"lng":7.096726020107278}}},"icon":"https://maps.gstatic.com/mapfiles/place_api/icons/v1/png_71/restaurant-71.png","icon_background_color":"#FF9E67","icon_mask_base_uri":"https://maps.gstatic.com/mapfiles/place_api/icons/v2/restaurant_pinlet","name":"Da Sebastiano Pizzeria","opening_hours":{"open_now":true},"photos":[{"height":1521,"html_attributions":["<a href=\"https://maps.google.com/maps/contrib/102789800912577586574\">Beate Schulte</a>"],"photo_reference":"AeJbb3c9_RfYK3pK4U8RHQPMxpc6hwdKUs9pshGyKbB0m_XjYkrxgKZ4eYthRhsxu3mZvOwTugVR3pntEzk4-sQq6pIWlnP0SmbgJ6fmWl4iSVRFpARTp9O4skdqqh5OwWuPlLlz76aYx56SzIZjjITsQWtWAi8AdPMaLj0UkQZI7IlPXnY4","width":2048}],"place_id":"ChIJCbz_O9XluEcRPXVwNpcYUXg","plus_code":{"compound_code":"H34X+27 Gelsenkirchen","global_code":"9F39H34X+27"},"price_level":2,"rating":4.5,"reference":"ChIJCbz_O9XluEcRPXVwNpcYUXg","types":["restaurant","food","point_of_interest","establishment"],"user_ratings_total":332},{"business_status":"OPERATIONAL","formatted_address":"Bungertstraße 35, 45239 Essen","geometry":{"location":{"lat":51.3870775,"lng":7.002714},"viewport":{"northeast":{"lat":51.38836602989272,"lng":7.004112879892722},"southwest":{"lat":51.38566637010727,"lng":7.001413220107279}}},"icon":"https://maps.gstatic.com/mapfiles/place_api/icons/v1/png_71/restaurant-71.png","icon_background_color":"#FF9E67","icon_mask_base_uri":"https://maps.gstatic.com/mapfiles/place_api/icons/v2/restaurant_pinlet","name":"Pizzeria Amalfi","opening_hours":{"open_now":true},"photos":[{"height":3024,"html_attributions":["<a href=\"https://maps.google.com/maps/contrib/103783763292548418974\">Tihomir Mastelic-Ivic</a>"],"photo_reference":"AeJbb3cjBwyZPZTbH79qDaMlGbHPBsMG3BACgdWAtUU6Rj9lbpS1netFjE6CIX09bT82BsDT5Lj-uy6tqh77xklYNbrN5ypYRn2EOc2SlBefc36rsCNcZguGCSR2Cspg68-YeyIl3CX9GrS5vTEbRq6HZaM01UjeoCkcrctfG0LNfpvw2jdv","width":4032}],"place_id":"ChIJJeCHLqvEuEcRtPx0a7ZkbPw","plus_code":{"compound_code":"92P3+R3 Essen","global_code":"9F3992P3+R3"},"price_level":2,"rating":4.5,"reference":"ChIJJeCHLqvEuEcRtPx0a7ZkbPw","types":["restaurant","food","point_of_interest","establishment"],"user_ratings_total":288},{"business_status":"OPERATIONAL","formatted_address":"Hatzper Str. 181, 45149 Essen","geometry":{"location":{"lat":51.4195888,"lng":6.959489199999999},"viewport":{"northeast":{"lat":51.42101607989272,"lng":6.960898479892721},"southwest":{"lat":51.41831642010727,"lng":6.958198820107278}}},"icon":"https://maps.gstatic.com/mapfiles/place_api/icons/v1/png_71/restaurant-71.png","icon_background_color":"#FF9E67","icon_mask_base_uri":"https://maps.gstatic.com/mapfiles/place_api/icons/v2/restaurant_pinlet","name":"Pizzeria LaPlanet","opening_hours":{"open_now":true},"photos":[{"height":5472,"html_attributions":["<a href=\"https://maps.google.com/maps/contrib/114835617445862187105\">dominik.fenners</a>"],"photo_reference":"AeJbb3er0KQPZXrkWSCApkBIov84tEpD1vvyscN9a2pNB575HjC2JW-5IfVrFFf-2F5WuiDltZE_aRzAqZVJkGwl8VyRHqnGbsZcJGRtUoEH_raUCr8iQBSzOesb1iE2ZbxtAIS3XtnGTS_2IiaRQvFBDUU89IpD1BVPmn_33KPFB48_X4Rh","width":5962}],"place_id":"ChIJd-3H8gnDuEcR89fcALECCFM","plus_code":{"compound_code":"CX95+RQ Essen","global_code":"9F38CX95+RQ"},"price_level":2,"rating":4.5,"reference":"ChIJd-3H8gnDuEcR89fcALECCFM","types":["meal_takeaway","restaurant","food","point_of_interest","establishment"],"user_ratings_total":269},{"business_status":"OPERATIONAL","formatted_address":"Alter Markt 8, 45879 Gelsenkirchen","geometry":{"location":{"lat":51.5113782,"lng":7.094440400000001},"viewport":{"northeast":{"lat":51.51268637989272,"lng":7.095760229892723},"southwest":{"lat":51.50998672010728,"lng":7.093060570107279}}},"icon":"https://maps.gstatic.com/mapfiles/place_api/icons/v1/png_71/restaurant-71.png","icon_background_color":"#FF9E67","icon_mask_base_uri":"https://maps.gstatic.com/mapfiles/place_api/icons/v2/restaurant_pinlet","name":"Pizzeria Regina","opening_hours":{"open_now":true},"photos":[{"height":954,"html_attributions":["<a href=\"https://maps.google.com/maps/contrib/113326366514855575945\">A Google User</a>"],"photo_reference":"AeJbb3dDNkmzEsBOaiKbr2WtcewdK87Xi3LOOAkV_YIQXRG3h6z_JJ9xKFCldI6cF8MN3tuNro0VPcGp126rDhl-yat6ln0y4spTifCYy3IpFiqY263HMqakzPG2_rG5MMS8VDnV5ApABczBR98wkC5h07GdNMvlDo_Bs_nkniM0OtMVsu36","width":1724}],"place_id":"ChIJqUnzAv7muEcR0nex8lGR3Xg","plus_code":{"compound_code":"G36V+HQ Gelsenkirchen","global_code":"9F39G36V+HQ"},"price_level":1,"rating":4.5,"reference":"ChIJqUnzAv7muEcR0nex8lGR3Xg","types":["restaurant","food","point_of_interest","establishment"],"user_ratings_total":264},{"business_status":"OPERATIONAL","formatted_address":"Altendorfer Str. 327, 45143 Essen","geometry":{"location":{"lat":51.4613174,"lng":6.9764116},"viewport":{"northeast":{"lat":51.46266237989271,"lng":6.977768479892721},"southwest":{"lat":51.45996272010727,"lng":6.975068820107277}}},"icon":"https://maps.gstatic.com/mapfiles/place_api/icons/v1/png_71/restaurant-71.png","icon_background_color":"#FF9E67","icon_mask_base_uri":"https://maps.gstatic.com/mapfiles/place_api/icons/v2/restaurant_pinlet","name":"La Pizza","opening_hours":{"open_now":true},"photos":[{"height":2268,"html_attributions":["<a href=\"https://maps.google.com/maps/contrib/102306178000068912055\">Thorsten Boenigk</a>"],"photo_reference":"AeJbb3dwpT4Cnm1zO1SwPz5w0D__l5VIDvDp66kRsl-mtbyd5ltiKiHL4cV8GLx1Ksu13GroATZZTyK_cn4Mhq8xkhw_sakn3mlas1y2x9jq5NM8-ZWTUNUdui1QhizjgeHA2eMj768Kif5GK9_v3OY1L1m-9OqpaBYYwX2-0gBCcFD79SHx","width":4032}],"place_id":"ChIJxer2u47CuEcRBGGH-fwk8kM","plus_code":{"compound_code":"FX6G+GH Essen","global_code":"9F38FX6G+GH"},"price_level":1,"rating":4.5,"reference":"ChIJxer2u47CuEcRBGGH-fwk8kM","types":["meal_takeaway","restaurant","food","point_of_interest","establishment"],"user_ratings_total":189},{"business_status":"OPERATIONAL","formatted_address":"Hattinger Str. 853, 44879 Bochum","geometry":{"location":{"lat":51.425023,"lng":7.160921399999999},"viewport":{"northeast":{"lat":51.42635492989272,"lng":7.162215279892723},"southwest":{"lat":51.42365527010728,"lng":7.159515620107278}}},"icon":"https://maps.gstatic.com/mapfiles/place_api/icons/v1/png_71/restaurant-71.png","icon_background_color":"#FF9E67","icon_mask_base_uri":"https://maps.gstatic.com/mapfiles/place_api/icons/v2/restaurant_pinlet","name":"Pizzeria Enzo","opening_hours":{"open_now":true},"photos":[{"height":854,"html_attributions":["<a href=\"https://maps.google.com/maps/contrib/112862040644073234494\">A Google User</a>"],"photo_reference":"AeJbb3eq_Zu6UzaBEPXgamMGtAkM1GYzdT125kPBcTT7Pgx0Xz0_l5cJcjWAP1GwYxyGTJpLjz5-w4TIB6ArqLqlejMIGyl3eQb2A9Y6WaGXQp8o5rDODCv0ByRt8musoPd4N6ysO2edebrUkjg9OGYyAV6KmgAQEhYUu6Hz-QPWZM5Vj1Sw","width":640}],"place_id":"ChIJZ74bhVfeuEcRRIxq9EEw3xw","plus_code":{"compound_code":"C5G6+29 Bochum","global_code":"9F39C5G6+29"},"price_level":1,"rating":4.5,"reference":"ChIJZ74bhVfeuEcRRIxq9EEw3xw","types":["meal_takeaway","restaurant","food","point_of_interest","establishment"],"user_ratings_total":159},{"business_status":"OPERATIONAL","formatted_address":"Rellinghauser Str. 256, 45136 Essen","geometry":{"location":{"lat":51.4370109,"lng":7.0308873},"viewport":{"northeast":{"lat":51.43840097989273,"lng":7.032259429892721},"southwest":{"lat":51.43570132010728,"lng":7.029559770107277}}},"icon":"https://maps.gstatic.com/mapfiles/place_api/icons/v1/png_71/restaurant-71.png","icon_background_color":"#FF9E67","icon_mask_base_uri":"https://maps.gstatic.com/mapfiles/place_api/icons/v2/restaurant_pinlet","name":"Pizzeria Don Remmo","opening_hours":{"open_now":true},"photos":[{"height":3024,"html_attributions":["<a href=\"https://maps.google.com/maps/contrib/110351549656425027569\">Jürgen Wohlfahrt</a>"],"photo_reference":"AeJbb3fIa5ObdHJDGyZhvesC5sjM_qNsfEXLneCalR1WlJSaFq5CK62pX7ovMgXIKpLxqA0t_PQOS1WIc4-NlOIHzvjIQ2A9F99CrFyoJuLyJBGl_ZA9Hwnv8UdFM5se19cxLfsVK86e1iswXfEwzsGdGVOMWlCU9F0rSN3OFXQhzL4P8bvm","width":4032}],"place_id":"ChIJLfxKwCXduEcR5HP4zgxD5w8","plus_code":{"compound_code":"C2PJ+R9 Essen","global_code":"9F39C2PJ+R9"},"price_level":1,"rating":4.5,"reference":"ChIJLfxKwCXduEcR5HP4zgxD5w8","types":["meal_delivery","restaurant","food","point_of_interest","establishment"],"user_ratings_total":129},{"business_status":"OPERATIONAL","formatted_address":"Königstraße 63, 47051 Duisburg","geometry":{"location":{"lat":51.4325293,"lng":6.773060999999999},"viewport":{"northeast":{"lat":51.43409927989273,"lng":6.774271929892721},"southwest":{"lat":51.43139962010729,"lng":6.771572270107277}}},"icon":"https://maps.gstatic.com/mapfiles/place_api/icons/v1/png_71/restaurant-71.png","icon_background_color":"#FF9E67","icon_mask_base_uri":"https://maps.gstatic.com/mapfiles/place_api/icons/v2/restaurant_pinlet","name":"Pizzeria Alcara","opening_hours":{"open_now":true},"photos":[{"height":3024,"html_attributions":["<a href=\"https://maps.google.com/maps/contrib/100748145834018192398\">Waiyee Lai</a>"],"photo_reference":"AeJbb3dflOoMhxOj-8MwGJDmccz1X_LKD5x9h_O2rgC6HbB5BCsJczIrPg14d7sLOSVFTkgy95wqOp8YLo8dcmOvWNSoIWGziJ6GFyw98IsXfk1rsUoBZpMLt_8snkB5t4OzWd6rNxrPHv3vpfqOQKW_kGBqaPp8PmwXXBDCOavsC_uDAfH-","width":4032}],"place_id":"ChIJQW0dxRK_uEcR5DSt0_uiR0g","plus_code":{"compound_code":"CQMF+26 Duisburg","global_code":"9F38CQMF+26"},"rating":4.5,"reference":"ChIJQW0dxRK_uEcR5DSt0_uiR0g","types":["restaurant","food","point_of_interest","establishment"],"user_ratings_total":73},{"business_status":"OPERATIONAL","formatted_address":"Kolkmannskamp 1, 44879 Bochum","geometry":{"location":{"lat":51.4223686,"lng":7.164980399999999},"viewport":{"northeast":{"lat":51.42374922989272,"lng":7.166405679892722},"southwest":{"lat":51.42104957010728,"lng":7.163706020107278}}},"icon":"https://maps.gstatic.com/mapfiles/place_api/icons/v1/png_71/restaurant-71.png","icon_background_color":"#FF9E67","icon_mask_base_uri":"https://maps.gstatic.com/mapfiles/place_api/icons/v2/restaurant_pinlet","name":"PIZZA 61","opening_hours":{"open_now":true},"photos":[{"height":4032,"html_attributions":["<a href=\"https://maps.google.com/maps/contrib/111319821582807173641\">A Google User</a>"],"photo_reference":"AeJbb3chlikugdXyHg-2EdjdKnwc0MPJTDS0_xLT0pwsSUrPiC0A2y1u831heiotJIYslLKxBW0KZucXkUnCsHTg20z3FG5tjvjVMycDqJ6vmt-PGnpES8fPr3TD1WSZDmmbNax9XmwTv73mKhn0LpX0s1ogTRUqHGHEdb5fPjJOoO-Rapq3","width":3024}],"place_id":"ChIJnwWnneXfuEcRNoOxWeK0Uwk","plus_code":{"compound_code":"C5C7+WX Bochum","global_code":"9F39C5C7+WX"},"rating":4.5,"reference":"ChIJnwWnneXfuEcRNoOxWeK0Uwk","types":["restaurant","food","point_of_interest","establishment"],"user_ratings_total":30},{"business_status":"OPERATIONAL","formatted_address":"Limbecker Pl. 12, 45127 Essen","geometry":{"location":{"lat":51.4563557,"lng":7.006703300000001},"viewport":{"northeast":{"lat":51.45770187989272,"lng":7.008012779892722},"southwest":{"lat":51.45500222010727,"lng":7.005313120107278}}},"icon":"https://maps.gstatic.com/mapfiles/place_api/icons/v1/png_71/restaurant-71.png","icon_background_color":"#FF9E67","icon_mask_base_uri":"https://maps.gstatic.com/mapfiles/place_api/icons/v2/restaurant_pinlet","name":"Restaurant Milano","opening_hours":{"open_now":true},"place_id":"ChIJz7_d0LnCuEcRNhtBAogbjtM","plus_code":{"compound_code":"F244+GP Essen","global_code":"9F39F244+GP"},"rating":4.5,"reference":"ChIJz7_d0LnCuEcRNhtBAogbjtM","types":["restaurant","food","point_of_interest","establishment"],"user_ratings_total":2},{"business_status":"OPERATIONAL","formatted_address":"Rüttenscheider Str. 52, 45130 Essen","geometry":{"location":{"lat":51.439356,"lng":7.0058776},"viewport":{"northeast":{"lat":51.44070427989271,"lng":7.007240579892723},"southwest":{"lat":51.43800462010727,"lng":7.004540920107279}}},"icon":"https://maps.gstatic.com/mapfiles/place_api/icons/v1/png_71/restaurant-71.png","icon_background_color":"#FF9E67","icon_mask_base_uri":"https://maps.gstatic.com/mapfiles/place_api/icons/v2/restaurant_pinlet","name":"Pizzeria Venezia Rü","opening_hours":{"open_now":true},"photos":[{"height":2988,"html_attributions":["<a href=\"https://maps.google.com/maps/contrib/114737969241763317660\">Hans Chung</a>"],"photo_reference":"AeJbb3dDVMm3vedO_MpT_OZSwmbi0KSeWUHAKaSm0E0KaW-Hd_FdW8eGmMJ1QC9-2x4l-DFAgOGM69xDK1ozDdJCJb3dW3m1TIxznKV4mYiVGakKjT7EWeh-cCCH96niqHcHLHnF_-78kkEAZVImND35NuxHZ1QVgDnlzPMAOC__fJ2Fw5yn","width":5312}],"place_id":"ChIJsY7Y5NDCuEcR1g_Te4ZGzcs","plus_code":{"compound_code":"C2Q4+P8 Essen","global_code":"9F39C2Q4+P8"},"price_level":2,"rating":4.4,"reference":"ChIJsY7Y5NDCuEcR1g_Te4ZGzcs","types":["meal_delivery","restaurant","food","point_of_interest","establishment"],"user_ratings_total":1003},{"business_status":"OPERATIONAL","formatted_address":"Rathenaustraße 2, 45127 Essen","geometry":{"location":{"lat":51.4536118,"lng":7.011821400000001},"viewport":{"northeast":{"lat":51.45507247989272,"lng":7.0130578},"southwest":{"lat":51.45237282010727,"lng":7.0098482}}},"icon":"https://maps.gstatic.com/mapfiles/place_api/icons/v1/png_71/restaurant-71.png","icon_background_color":"#FF9E67","icon_mask_base_uri":"https://maps.gstatic.com/mapfiles/place_api/icons/v2/restaurant_pinlet","name":"Restaurant Il Mulino","opening_hours":{"open_now":true},"photos":[{"height":3024,"html_attributions":["<a href=\"https://maps.google.com/maps/contrib/117501735064997605377\">Albert M.</a>"],"photo_reference":"AeJbb3dIALjgQvzcXynNSU0w2ufa7ejrFT6i60Vmo9n8cEV6xVD3-GN1almUz_g96mwvvdzEM1kBQR4CQ5KJfeXTuxMOO6gwODTwqBPYrDmuRwY3xvFVQsCzvzZC6iLSYZqKZCdzgaRab54ZRhuenkgZ2cOqbJAeVIHdl5xsns11EKRygOrf","width":4032}],"place_id":"ChIJx5MQFLbCuEcRl8SDMiE9IM0","plus_code":{"compound_code":"F236+CP Essen","global_code":"9F39F236+CP"},"price_level":2,"rating":4.4,"reference":"ChIJx5MQFLbCuEcRl8SDMiE9IM0","types":["restaurant","food","point_of_interest","establishment"],"user_ratings_total":593},{"business_status":"OPERATIONAL","formatted_address":"Hans-Ehrenberg-Platz 5, 44789 Bochum","geometry":{"location":{"lat":51.4723868,"lng":7.214246999999999},"viewport":{"northeast":{"lat":51.47366087989272,"lng":7.215703229892721},"southwest":{"lat":51.47096122010728,"lng":7.213003570107277}}},"icon":"https://maps.gstatic.com/mapfiles/place_api/icons/v1/png_71/restaurant-71.png","icon_background_color":"#FF9E67","icon_mask_base_uri":"https://maps.gstatic.com/mapfiles/place_api/icons/v2/restaurant_pinlet","name":"Pizza","opening_hours":{"open_now":true},"photos":[{"height":3024,"html_attributions":["<a href=\"https://maps.google.com/maps/contrib/106574384784799959036\">bjtanja</a>"],"photo_reference":"AeJbb3f7-RV_FsAHfe-0V4E3uH10rR8FXkMhSh_VRqQDpMo4MHSRraBkwY3Xw8fhjfr5gDm9f5UEToHTRgZPG4Zv82ulH4nyMgmmw4ZqDpfx6WUPz1drCjrdoJ9fjfeH4VgC1p4MtW1qQpoYT5rFqMskBY8N9-U13hwpWplPNm2oFIWsiRp6","width":4032}],"place_id":"ChIJAWlFXw3guEcR39vSAI2JUmg","plus_code":{"compound_code":"F6C7+XM Bochum","global_code":"9F39F6C7+XM"},"price_level":2,"rating":4.4,"reference":"ChIJAWlFXw3guEcR39vSAI2JUmg","types":["meal_takeaway","restaurant","food","point_of_interest","establishment"],"user_ratings_total":274},{"business_status":"OPERATIONAL","formatted_address":"Mont-Cenis-Straße 11, 44623 Herne","geometry":{"location":{"lat":51.5380148,"lng":7.2270832},"viewport":{"northeast":{"lat":51.53935822989272,"lng":7.228431179892722},"southwest":{"lat":51.53665857010728,"lng":7.225731520107278}}},"icon":"https://maps.gstatic.com/mapfiles/place_api/icons/v1/png_71/restaurant-71.png","icon_background_color":"#FF9E67","icon_mask_base_uri":"https://maps.gstatic.com/mapfiles/place_api/icons/v2/restaurant_pinlet","name":"Pizzeria bei Enzo","opening_hours":{"open_now":true},"photos":[{"height":4032,"html_attributions":["<a href=\"https://maps.google.com/maps/contrib/103134646385268419986\">A Google User</a>"],"photo_reference":"AeJbb3c5O5Gam5g7MsG0EK2Oz4QAjS0lkjck7MrW03KJqYsKaw5-NuKkAkChi-XFmCe1FYbPpaizadj05KrkkNQ7r4n6ktcJhaDVNuSaQL5ozyyyML76zQkrJbvb2zviXRnvbbkr8M4B4A3-aAYbye6ftcw_AB8Kq6fGus9BAFCbopFTCLpZ","width":3024}],"place_id":"ChIJVVVH-ozhuEcRI5sx_FF5iw0","plus_code":{"compound_code":"G6QG+6R Herne","global_code":"9F39G6QG+6R"},"price_level":1,"rating":4.4,"reference":"ChIJVVVH-ozhuEcRI5sx_FF5iw0","types":["restaurant","food","point_of_interest","establishment"],"user_ratings_total":222},{"business_status":"OPERATIONAL","formatted_address":"Hauptstraße 60, 45549 Sprockhövel","geometry":{"location":{"lat":51.3657431,"lng":7.2468817},"viewport":{"northeast":{"lat":51.36708377989272,"lng":7.24826907989272},"southwest":{"lat":51.36438412010727,"lng":7.245569420107276}}},"icon":"https://maps.gstatic.com/mapfiles/place_api/icons/v1/png_71/restaurant-71.png","icon_background_color":"#FF9E67","icon_mask_base_uri":"https://maps.gstatic.com/mapfiles/place_api/icons/v2/restaurant_pinlet","name":"Pizzeria Nostalgie Restaurant","opening_hours":{"open_now":true},"photos":[{"height":4032,"html_attributions":["<a href=\"https://maps.google.com/maps/contrib/114862155722849133441\">Dan Feller</a>"],"photo_reference":"AeJbb3cHGjZm_G7CovZXltlGkPofE8gXWeo-sXBYGFpODhm3UmKDlNCCRQvQp85enHwmMc2Pzvh-ab2xVBdRCH2BVEqybX0Eu5LTrYwp3TBaFkd46eSoONLHF9GahBU9QJYaah9Iq_pafJCbctObSRtf-3294hzhDc1uZGxkbWI-EKtjc7aQ","width":3024}],"place_id":"ChIJV1pFuTAnuUcRegWjGXt70_0","plus_code":{"compound_code":"968W+8P Sprockhövel","global_code":"9F39968W+8P"},"price_level":1,"rating":4.4,"reference":"ChIJV1pFuTAnuUcRegWjGXt70_0","types":["restaurant","food","point_of_interest","establishment"],"user_ratings_total":199},{"business_status":"OPERATIONAL","formatted_address":"Bismarckstraße 98, 45888 Gelsenkirchen","geometry":{"location":{"lat":51.5181379,"lng":7.103521799999999},"viewport":{"northeast":{"lat":51.51948527989273,"lng":7.104789329892721},"southwest":{"lat":51.51678562010728,"lng":7.102089670107278}}},"icon":"https://maps.gstatic.com/mapfiles/place_api/icons/v1/png_71/restaurant-71.png","icon_background_color":"#FF9E67","icon_mask_base_uri":"https://maps.gstatic.com/mapfiles/place_api/icons/v2/restaurant_pinlet","name":"Pizzeria Piccola Italia","opening_hours":{"open_now":true},"photos":[{"height":2996,"html_attributions":["<a href=\"https://maps.google.com/maps/contrib/103378449858610485998\">A Google User</a>"],"photo_reference":"AeJbb3ehOuyFEnkqAo3FJJM9yksZxJ0VkM1FYAQF7HGSy3hkDMUPqMOAELsOqzH_0BMxSeuHHl13spFZxx-wZITyzc3fS8oJmv5EurpRNk8MsgbEr2OOrvOsAemUOK8QWsmXbDys81qnVXXVl1iu3uumbcVjkq8dAzfHxr3mDonSthcq78gB","width":3264}],"place_id":"ChIJfcWLLPvmuEcR9V6PqIBaFZs","plus_code":{"compound_code":"G493+79 Gelsenkirchen","global_code":"9F39G493+79"},"rating":4.4,"reference":"ChIJfcWLLPvmuEcR9V6PqIBaFZs","types":["restaurant","food","point_of_interest","establishment"],"user_ratings_total":165},{"business_status":"OPERATIONAL","formatted_address":"Rüttenscheider Str. 166, 45131 Essen","geometry":{"location":{"lat":51.4293941,"lng":7.0028884},"viewport":{"northeast":{"lat":51.43072927989271,"lng":7.004377529892722},"southwest":{"lat":51.42802962010727,"lng":7.001677870107278}}},"icon":"https://maps.gstatic.com/mapfiles/place_api/icons/v1/png_71/restaurant-71.png","icon_background_color":"#FF9E67","icon_mask_base_uri":"https://maps.gstatic.com/mapfiles/place_api/icons/v2/restaurant_pinlet","name":"Pizzeria Palladio","opening_hours":{"open_now":true},"photos":[{"height":2160,"html_attributions":["<a href=\"https://maps.google.com/maps/contrib/112497359954239998438\">Christoph Kurtz</a>"],"photo_reference":"AeJbb3eMHNER_wq9Bco9tRQOPnNIXWvOp6d-hl8-dyLfgnvDP6sAMUGn6Ez0-IQzBCcMS01qenJOFRTtelPm3UMXSKolN0kzkd6OeVKYxdybZvpQhyPoTZqfE3f8FNyNihLA7e3mL0ya8ifra4_pLl5g9Z776XuMD0_6zKUwAkuAIgRMF3aC","width":3840}],"place_id":"ChIJaSLK-SjDuEcRnEWG1YPD49I","plus_code":{"compound_code":"C2H3+Q5 Essen","global_code":"9F39C2H3+Q5"},"price_level":2,"rating":4.4,"reference":"ChIJaSLK-SjDuEcRnEWG1YPD49I","types":["restaurant","food","point_of_interest","establishment"],"user_ratings_total":153},{"business_status":"OPERATIONAL","formatted_address":"Haus-Berge-Straße 111, 45356 Essen","geometry":{"location":{"lat":51.47319710000001,"lng":6.976941},"viewport":{"northeast":{"lat":51.47455497989272,"lng":6.978517829892722},"southwest":{"lat":51.47185532010727,"lng":6.975818170107278}}},"icon":"https://maps.gstatic.com/mapfiles/place_api/icons/v1/png_71/restaurant-71.png","icon_background_color":"#FF9E67","icon_mask_base_uri":"https://maps.gstatic.com/mapfiles/place_api/icons/v2/restaurant_pinlet","name":"Love Pizza","opening_hours":{"open_now":true},"place_id":"ChIJ0bfRSPHDuEcR7ET0EstEz6c","plus_code":{"compound_code":"FXFG+7Q Essen","global_code":"9F38FXFG+7Q"},"rating":4.4,"reference":"ChIJ0bfRSPHDuEcR7ET0EstEz6c","types":["store","restaurant","food","point_of_interest","establishment"],"user_ratings_total":17},{"business_status":"OPERATIONAL","formatted_address":"Karl-Jarres-Straße 131, 47053 Duisburg","geometry":{"location":{"lat":51.41964549999999,"lng":6.762262},"viewport":{"northeast":{"lat":51.42097322989272,"lng":6.763624279892721},"southwest":{"lat":51.41827357010728,"lng":6.760924620107277}}},"icon":"https://maps.gstatic.com/mapfiles/place_api/icons/v1/png_71/restaurant-71.png","icon_background_color":"#FF9E67","icon_mask_base_uri":"https://maps.gstatic.com/mapfiles/place_api/icons/v2/restaurant_pinlet","name":"Pizzeria Portofino","opening_hours":{"open_now":true},"photos":[{"height":3000,"html_attributions":["<a href=\"https://maps.google.com/maps/contrib/107654946957089370798\">Kumar Sundara</a>"],"photo_reference":"AeJbb3e0UP5KuFKUaWVDwVRpkRuVdwVi_nsss5iFhT-6-VS6ln1DW7eIPL6pYPAg2m5KnKije3MllFYpnK25lvGYnSVTSEwtbB7Ig66bKRQ4Gl69xncevZPGKiMbAPU7vXY_DoXLE8t0l5S_m3kexLrkqQ4ye4tlcGgLaHaKjSECJ87hk2h9","width":3000}],"place_id":"ChIJ01Vq9zu_uEcRg9YjxYtqXQc","plus_code":{"compound_code":"CQ96+VV Duisburg","global_code":"9F38CQ96+VV"},"price_level":1,"rating":4.3,"reference":"ChIJ01Vq9zu_uEcRg9YjxYtqXQc","types":["meal_delivery","restaurant","food","point_of_interest","establishment"],"user_ratings_total":779},{"business_status":"OPERATIONAL","formatted_address":"Ruhrtalstraße 470, 45219 Essen","geometry":{"location":{"lat":51.3623196,"lng":6.9470363},"viewport":{"northeast":{"lat":51.36362442989272,"lng":6.948448979892722},"southwest":{"lat":51.36092477010728,"lng":6.945749320107278}}},"icon":"https://maps.gstatic.com/mapfiles/place_api/icons/v1/png_71/restaurant-71.png","icon_background_color":"#FF9E67","icon_mask_base_uri":"https://maps.gstatic.com/mapfiles/place_api/icons/v2/restaurant_pinlet","name":"Pizza Pasta","opening_hours":{"open_now":true},"photos":[{"height":3480,"html_attributions":["<a href=\"https://maps.google.com/maps/contrib/110197102795131307176\">Michael Wiegel</a>"],"photo_reference":"AeJbb3fd4hiexOBFzYMgG4z261wC_hmo5FVFfEzIJ0v18rOkbnQ8nyEaLsc51Tr5I5fCtfE-kHiYzaGdKhVXIGq9W1nkHpBbkkZHONJObrqyJcQ2gPE1xHhVgeSCMp4JskVPGPmmVH8M_NMWSlRrt0Sq6xGYoI_sf_p1eQwwiD38M2PpESi1","width":4640}],"place_id":"ChIJVcwngvfEuEcRcl_4i2wEgjg","plus_code":{"compound_code":"9W6W+WR Essen","global_code":"9F389W6W+WR"},"price_level":2,"rating":4.3,"reference":"ChIJVcwngvfEuEcRcl_4i2wEgjg","types":["restaurant","food","point_of_interest","establishment"],"user_ratings_total":352},{"business_status":"OPERATIONAL","formatted_address":"Gemarkenstraße 58, 45147 Essen","geometry":{"location":{"lat":51.4417889,"lng":6.9949778},"viewport":{"northeast":{"lat":51.44307282989273,"lng":6.996379229892721},"southwest":{"lat":51.44037317010729,"lng":6.993679570107277}}},"icon":"https://maps.gstatic.com/mapfiles/place_api/icons/v1/png_71/restaurant-71.png","icon_background_color":"#FF9E67","icon_mask_base_uri":"https://maps.gstatic.com/mapfiles/place_api/icons/v2/restaurant_pinlet","name":"Italienisches Restaurant Da Gina","opening_hours":{"open_now":true},"photos":[{"height":1080,"html_attributions":["<a href=\"https://maps.google.com/maps/contrib/107624687953965927125\">miran bagi</a>"],"photo_reference":"AeJbb3evw3kvYRDDk7HmQbIxhnk3swyKFI4n_PKx0Qj5CCBwFkeygK_dWSnra4-xmw_dZmyBCkiMz61eJHE2BL5f6X43c5V3jS-UL15yF74tkrbrNkbv91S82ccyC16bQfK9uvchWX6ueOaZZO1lWN5xnbAN0bFP5p7uod6PYj-vTBpIdno8","width":1080}],"place_id":"ChIJRbOo69zCuEcRDwelRwTRtkI","plus_code":{"compound_code":"CXRV+PX Essen","global_code":"9F38CXRV+PX"},"price_level":1,"rating":4.3,"reference":"ChIJRbOo69zCuEcRDwelRwTRtkI","types":["restaurant","food","point_of_interest","establishment"],"user_ratings_total":141},{"business_status":"OPERATIONAL","formatted_address":"Wittenerstraße 126, 44789 Bochum","geometry":{"location":{"lat":51.475201,"lng":7.2357639},"viewport":{"northeast":{"lat":51.47659022989272,"lng":7.237145079892721},"southwest":{"lat":51.47389057010727,"lng":7.234445420107277}}},"icon":"https://maps.gstatic.com/mapfiles/place_api/icons/v1/png_71/restaurant-71.png","icon_background_color":"#FF9E67","icon_mask_base_uri":"https://maps.gstatic.com/mapfiles/place_api/icons/v2/restaurant_pinlet","name":"Hashtag Pizza Bochum","opening_hours":{"open_now":true},"photos":[{"height":2268,"html_attributions":["<a href=\"https://maps.google.com/maps/contrib/110423228279348909866\">Serhat Kaya</a>"],"photo_reference":"AeJbb3eKGIWMN36CdPj_PImiQgZVz7h0GOPlfQQq7NO0uXfLzrW5wfDAcYCtisgJ_Y6AiX8k52aso_aJli88LIUL9U9NT1aCHbseKhjLJs6vVJddMTRUBbd5hwBtx-bIoJeE7quqpZmxzBxoTU3ta2tOXaFWEw5rzvqpcly5wI_vq4wtbNBP","width":4032}],"place_id":"ChIJb7QxbLzhuEcRnnDTcId-ZZM","plus_code":{"compound_code":"F6GP+38 Bochum","global_code":"9F39F6GP+38"},"rating":4.3,"reference":"ChIJb7QxbLzhuEcRnnDTcId-ZZM","types":["meal_takeaway","restaurant","food","point_of_interest","establishment"],"user_ratings_total":81},{"business_status":"OPERATIONAL","formatted_address":"Hans-Böckler-Straße 24, 44787 Bochum","geometry":{"location":{"lat":51.4839815,"lng":7.215973699999999},"viewport":{"northeast":{"lat":51.48540077989272,"lng":7.217244729892721},"southwest":{"lat":51.48270112010728,"lng":7.214545070107278}}},"icon":"https://maps.gstatic.com/mapfiles/place_api/icons/v1/png_71/restaurant-71.png","icon_background_color":"#FF9E67","icon_mask_base_uri":"https://maps.gstatic.com/mapfiles/place_api/icons/v2/restaurant_pinlet","name":"Pizzeria Bacco","opening_hours":{"open_now":true},"photos":[{"height":3024,"html_attributions":["<a href=\"https://maps.google.com/maps/contrib/110122898307424819760\">Marc Debus</a>"],"photo_reference":"AeJbb3fRRezIQHUaWF0sgbXRoe9E7-ZJVkkob1nr6ziDjTI1BTuHFfXDxYiuuWHt8qXpIvqfHHTEbQg5M0J2xtbTk4zblIgDiY199bvJ8yUtjARv2LZTgS0_DpUbgUJFYE3-3BbNphTl8Eab7d0dtkobiFmFJzzy36HBg-8LbTgMpYb9H-vj","width":4032}],"place_id":"ChIJVW9YdUDguEcRku7zbXoA2z4","plus_code":{"compound_code":"F6M8+H9 Bochum","global_code":"9F39F6M8+H9"},"price_level":2,"rating":4.2,"reference":"ChIJVW9YdUDguEcRku7zbXoA2z4","types":["cafe","bar","restaurant","food","point_of_interest","establishment"],"user_ratings_total":187},{"business_status":"OPERATIONAL","formatted_address":"Von-der-Recke-Straße 1, 45879 Gelsenkirchen","geometry":{"location":{"lat":51.5077766,"lng":7.0953971},"viewport":{"northeast":{"lat":51.50906642989272,"lng":7.096672779892721},"southwest":{"lat":51.50636677010728,"lng":7.093973120107277}}},"icon":"https://maps.gstatic.com/mapfiles/place_api/icons/v1/png_71/restaurant-71.png","icon_background_color":"#FF9E67","icon_mask_base_uri":"https://maps.gstatic.com/mapfiles/place_api/icons/v2/restaurant_pinlet","name":"Pizzeria Roma","opening_hours":{"open_now":true},"photos":[{"height":896,"html_attributions":["<a href=\"https://maps.google.com/maps/contrib/118424522625380815898\">A Google User</a>"],"photo_reference":"AeJbb3cX24qVI94astjEJt2E83YUznyxqTAYtki2YDbCj1FrezzjpPW36ZrZPcFhKtf_vOfEQfv5XPfYH4o78brsbjkXVmd6EqPgWmU6UZwC-YkkiNx1r47Eb5tf0dcxc16kToZbHoOvBaD_aheJlpGGQTO065FcCVQzmFtLnTdW-SMxfczS","width":1200}],"place_id":"ChIJz2nwxQPnuEcR0CzDwkteZZg","plus_code":{"compound_code":"G35W+45 Gelsenkirchen","global_code":"9F39G35W+45"},"rating":4.2,"reference":"ChIJz2nwxQPnuEcR0CzDwkteZZg","types":["meal_takeaway","restaurant","food","point_of_interest","establishment"],"user_ratings_total":117},{"business_status":"OPERATIONAL","formatted_address":"Horster Str. 10, 45897 Gelsenkirchen","geometry":{"location":{"lat":51.5773484,"lng":7.0529018},"viewport":{"northeast":{"lat":51.57868417989272,"lng":7.054181529892722},"southwest":{"lat":51.57598452010728,"lng":7.051481870107278}}},"icon":"https://maps.gstatic.com/mapfiles/place_api/icons/v1/png_71/restaurant-71.png","icon_background_color":"#FF9E67","icon_mask_base_uri":"https://maps.gstatic.com/mapfiles/place_api/icons/v2/restaurant_pinlet","name":"Pizza Pasta 1","opening_hours":{"open_now":true},"photos":[{"height":3024,"html_attributions":["<a href=\"https://maps.google.com/maps/contrib/102429152322039070460\">A Google User</a>"],"photo_reference":"AeJbb3fTKOfisvakRLMrf42o6BH-NFZSKV-Gwis3upemXBGtqS5T9ctkXrA9wtTM3D7vBiV3Kc15PsPpahGsVNyRlvn6VVWapPqRwstdZF6j0-PrhqOd-o_4HLEBsBWDpYrfTkhC-yOlYtoNknNGhNBmGCXBuluNs_HY9h7uwufBCnyisFqL","width":4032}],"place_id":"ChIJ48yxW3TluEcRYeHdW1ilHyM","plus_code":{"compound_code":"H3G3+W5 Gelsenkirchen","global_code":"9F39H3G3+W5"},"rating":4.2,"reference":"ChIJ48yxW3TluEcRYeHdW1ilHyM","types":["restaurant","food","point_of_interest","establishment"],"user_ratings_total":117},{"business_status":"OPERATIONAL","formatted_address":"Brammenring 117, 46047 Oberhausen","geometry":{"location":{"lat":51.4894254,"lng":6.8873827},"viewport":{"northeast":{"lat":51.49076057989271,"lng":6.88899672989272},"southwest":{"lat":51.48806092010727,"lng":6.886297070107276}}},"icon":"https://maps.gstatic.com/mapfiles/place_api/icons/v1/png_71/restaurant-71.png","icon_background_color":"#FF9E67","icon_mask_base_uri":"https://maps.gstatic.com/mapfiles/place_api/icons/v2/restaurant_pinlet","name":"L'Osteria Oberhausen","opening_hours":{"open_now":true},"photos":[{"height":1960,"html_attributions":["<a href=\"https://maps.google.com/maps/contrib/106392469742584644352\">Maik Flesch</a>"],"photo_reference":"AeJbb3c0dtpxeletwDGZcHFBebEML7mnjdx-PE1DwMHEr-iOuHx1V0WXNc9QPmRp7A7_BJLtp9unO5XnhWSIvONNj6PQfDWQhvqqejIvzncSo2s0ZCvSvoKvvs8PpOV3RQ5yTI_0WLLLXQwyoXGWtW65q4UCS0RnsNF7OgeLHHLuLewVEn7L","width":4032}],"place_id":"ChIJvebTd3HquEcRXuXLZ8BIWVg","plus_code":{"compound_code":"FVQP+QX Oberhausen","global_code":"9F38FVQP+QX"},"price_level":2,"rating":4.1,"reference":"ChIJvebTd3HquEcRXuXLZ8BIWVg","types":["restaurant","food","point_of_interest","establishment"],"user_ratings_total":3530},{"business_status":"OPERATIONAL","formatted_address":"Westfalenstraße 98, 45661 Recklinghausen","geometry":{"location":{"lat":51.5713361,"lng":7.185366699999999},"viewport":{"northeast":{"lat":51.57266632989273,"lng":7.186924229892721},"southwest":{"lat":51.56996667010728,"lng":7.184224570107277}}},"icon":"https://maps.gstatic.com/mapfiles/place_api/icons/v1/png_71/restaurant-71.png","icon_background_color":"#FF9E67","icon_mask_base_uri":"https://maps.gstatic.com/mapfiles/place_api/icons/v2/restaurant_pinlet","name":"Pizza Dream Ristorante","opening_hours":{"open_now":true},"photos":[{"height":4032,"html_attributions":["<a href=\"https://maps.google.com/maps/contrib/104258054847343238333\">Pedro Neves</a>"],"photo_reference":"AeJbb3eoQSvTXHWS9gNe8brEtCA7KNabACd5LUAAM4e2G4XkHlRXXeMkESgujF4mbDePps5vqLJlaSjk7iD-Wt2NY1-_tHZyyUjwlL1f8RUMTj78GujlV48lnEjm-_cZFM6g1yJoYK4qTM0-ZGg-W5kvfO9Ecun8UkAOIwwukcaWW7fjahj1","width":3024}],"place_id":"ChIJudvH0b_juEcR1xnEA6mCX0g","plus_code":{"compound_code":"H5CP+G4 Recklinghausen","global_code":"9F39H5CP+G4"},"price_level":1,"rating":4,"reference":"ChIJudvH0b_juEcR1xnEA6mCX0g","types":["meal_delivery","restaurant","food","point_of_interest","establishment"],"user_ratings_total":267},{"business_status":"OPERATIONAL","formatted_address":"Bottroper Str. 115, 45964 Gladbeck","geometry":{"location":{"lat":51.5705556,"lng":6.9775},"viewport":{"northeast":{"lat":51.57196052989272,"lng":6.978817029892721},"southwest":{"lat":51.56926087010728,"lng":6.976117370107278}}},"icon":"https://maps.gstatic.com/mapfiles/place_api/icons/v1/png_71/restaurant-71.png","icon_background_color":"#FF9E67","icon_mask_base_uri":"https://maps.gstatic.com/mapfiles/place_api/icons/v2/restaurant_pinlet","name":"Pizzaland","opening_hours":{"open_now":true},"photos":[{"height":4032,"html_attributions":["<a href=\"https://maps.google.com/maps/contrib/118171055267188508055\">A Google User</a>"],"photo_reference":"AeJbb3dsv5rmT78MU7INlnYyozppr7WslnkXKIT2Kq7J-yFrWGP8tb-Q9qsz-X9kcwbhpk0_pc5yf_PGSFK1gvMjjopD2t65YFAFHV1Xt2xXeOIgXeoDhtpvEgnjClNkcgeNSjma_PGbIaJ3TjnfYZZ_Z0K6ON-dJNUzTfvc_WR-AKUf6FFz","width":3024}],"place_id":"ChIJs18LZs_uuEcRT0oVWMY04o0","plus_code":{"compound_code":"HXCG+6X Gladbeck","global_code":"9F38HXCG+6X"},"price_level":1,"rating":4,"reference":"ChIJs18LZs_uuEcRT0oVWMY04o0","types":["meal_delivery","restaurant","food","point_of_interest","establishment"],"user_ratings_total":162},{"business_status":"OPERATIONAL","formatted_address":"Huestraße 158, 45309 Essen","geometry":{"location":{"lat":51.4873154,"lng":7.0645198},"viewport":{"northeast":{"lat":51.48870372989272,"lng":7.065759379892722},"southwest":{"lat":51.48600407010728,"lng":7.063059720107278}}},"icon":"https://maps.gstatic.com/mapfiles/place_api/icons/v1/png_71/restaurant-71.png","icon_background_color":"#FF9E67","icon_mask_base_uri":"https://maps.gstatic.com/mapfiles/place_api/icons/v2/restaurant_pinlet","name":"Pizzeria Ola","opening_hours":{"open_now":true},"photos":[{"height":1600,"html_attributions":["<a href=\"https://maps.google.com/maps/contrib/116203337561918091000\">Dennis BIH</a>"],"photo_reference":"AeJbb3dJ8bZlkqt9prb62yxZgBU62R8nqrI0IW3jT2Zm8XEMFar7Ra9vXAxtB1-X1pO86OrnGHuwoO3VY7mPTPMgcza-cXkPTjdzN6fmN4cWJvFCAUAvz9q-F2kVMRZEGFZSqplVedzF9uOmlg1gq4MEPGVLUhQZETfi7oUxnDqbHkbCV67e","width":1200}],"place_id":"ChIJ0WOlwefnuEcRH04Nx1QqUT8","plus_code":{"compound_code":"F3P7+WR Essen","global_code":"9F39F3P7+WR"},"rating":4,"reference":"ChIJ0WOlwefnuEcRH04Nx1QqUT8","types":["meal_delivery","restaurant","food","point_of_interest","establishment"],"user_ratings_total":75},{"business_status":"OPERATIONAL","formatted_address":"Osterfelder Str. 27, 46236 Bottrop","geometry":{"location":{"lat":51.5216199,"lng":6.9215791},"viewport":{"northeast":{"lat":51.52301052989272,"lng":6.922823679892723},"southwest":{"lat":51.52031087010727,"lng":6.920124020107279}}},"icon":"https://maps.gstatic.com/mapfiles/place_api/icons/v1/png_71/restaurant-71.png","icon_background_color":"#FF9E67","icon_mask_base_uri":"https://maps.gstatic.com/mapfiles/place_api/icons/v2/restaurant_pinlet","name":"Pizzeria Romantica","opening_hours":{"open_now":true},"photos":[{"height":768,"html_attributions":["<a href=\"https://maps.google.com/maps/contrib/115689363018859104862\">A Google User</a>"],"photo_reference":"AeJbb3fm21qsQZ-X7URv53jit1NX22z36R_n7NqDRcZ0qYNqTT4F5NORzt1n7GfRT7n2ZwZE6WuCpo8wydsh-bjJHA5LiwvnExZElWUPB1WwoPnCBKKIAZgMB6JQLZK_MVHtk8_BMMC0nque-1n5zuLdBkYwN218-qjI3V_iaMUdGN5GTjpd","width":1024}],"place_id":"ChIJSxZZHSvquEcRcwhK2XWNSxE","plus_code":{"compound_code":"GWCC+JJ Bottrop","global_code":"9F38GWCC+JJ"},"rating":3.9,"reference":"ChIJSxZZHSvquEcRcwhK2XWNSxE","types":["meal_takeaway","meal_delivery","restaurant","food","point_of_interest","establishment"],"user_ratings_total":726},{"business_status":"OPERATIONAL","formatted_address":"Hagedornstraße 43, 47169 Duisburg","geometry":{"location":{"lat":51.5023889,"lng":6.754546899999999},"viewport":{"northeast":{"lat":51.50368717989272,"lng":6.755965729892723},"southwest":{"lat":51.50098752010727,"lng":6.753266070107279}}},"icon":"https://maps.gstatic.com/mapfiles/place_api/icons/v1/png_71/restaurant-71.png","icon_background_color":"#FF9E67","icon_mask_base_uri":"https://maps.gstatic.com/mapfiles/place_api/icons/v2/restaurant_pinlet","name":"Pizzeria Pino Duisburg","opening_hours":{"open_now":true},"photos":[{"height":3024,"html_attributions":["<a href=\"https://maps.google.com/maps/contrib/103132322269262923393\">A Google User</a>"],"photo_reference":"AeJbb3dF4aAfFTBkzFbzKoCF_kpiUAvYQ_VkRQeHcDtO5QDUPWpTGutmHZOqNw60WieTRHFy-CBIDOafzDPmO70cjF6GctLSmAH8PjdiClJdimL2Zh6jPoEZTtWV_ASjZdujRbnnT3Lc91-Y0ddbnuwuy3PnxM26jbNPq_0GbsFaH5loLFzW","width":4032}],"place_id":"ChIJr7GfqpuVuEcRpyE_VhE4roM","plus_code":{"compound_code":"GQ23+XR Duisburg","global_code":"9F38GQ23+XR"},"rating":3.7,"reference":"ChIJr7GfqpuVuEcRpyE_VhE4roM","types":["meal_takeaway","restaurant","food","point_of_interest","store","establishment"],"user_ratings_total":190},{"business_status":"OPERATIONAL","formatted_address":"Hattinger Str. 353, 44795 Bochum","geometry":{"location":{"lat":51.45386629999999,"lng":7.192360799999999},"viewport":{"northeast":{"lat":51.45523822989271,"lng":7.193634629892721},"southwest":{"lat":51.45253857010727,"lng":7.190934970107278}}},"icon":"https://maps.gstatic.com/mapfiles/place_api/icons/v1/png_71/restaurant-71.png","icon_background_color":"#FF9E67","icon_mask_base_uri":"https://maps.gstatic.com/mapfiles/place_api/icons/v2/restaurant_pinlet","name":"Pizzeria Sicilia","opening_hours":{"open_now":true},"photos":[{"height":2268,"html_attributions":["<a href=\"https://maps.google.com/maps/contrib/102531028037726422416\">Marcel Neuhausen</a>"],"photo_reference":"AeJbb3eaYmyRXBK69YYrdUQfCnydxilYVkQWvRQm9DIcE3p4aiKUiPtTqJJexX8KUmXP0kJq3VDZsUVxDgwPXIPM3vH3yehIqqaRM-xhNqg9z-uu759iXpPe_dzPcLL5a4uyOByykEFpdJ3IOnZlyqW1IYSJwThU1RFzX785JGg24qoanE_I","width":4032}],"place_id":"ChIJsdFsR9DfuEcRHNEqqJpF75A","plus_code":{"compound_code":"F53R+GX Bochum","global_code":"9F39F53R+GX"},"price_level":1,"rating":3.6,"reference":"ChIJsdFsR9DfuEcRHNEqqJpF75A","types":["restaurant","food","point_of_interest","establishment"],"user_ratings_total":213},{"business_status":"OPERATIONAL","formatted_address":"Altendorfer Str. 437-439, 45143 Essen","geometry":{"location":{"lat":51.4612908,"lng":6.964512699999999},"viewport":{"northeast":{"lat":51.46270037989272,"lng":6.965840129892721},"southwest":{"lat":51.46000072010727,"lng":6.963140470107278}}},"icon":"https://maps.gstatic.com/mapfiles/place_api/icons/v1/png_71/restaurant-71.png","icon_background_color":"#FF9E67","icon_mask_base_uri":"https://maps.gstatic.com/mapfiles/place_api/icons/v2/restaurant_pinlet","name":"Pizza Dream Altendorf","opening_hours":{"open_now":true},"photos":[{"height":3024,"html_attributions":["<a href=\"https://maps.google.com/maps/contrib/111933441190812265919\">Kiluu Mustermann</a>"],"photo_reference":"AeJbb3cyF7i_10gkxq3Zzv4p5z5-oAcOOlpVY5n9PpNLMBXdfBCLEcBekWR86sxftpisd--_AxcKWPsv0IK8a21J5YveInQ5Ks7_IGhSCWNnMqpDHd3tSE3tQVdlFljrAAa7FTrH4A_Fn1qa3FA1JOh3d2YR1TfsgR48tRkK-YjVFYhIP4aW","width":4032}],"place_id":"ChIJsc1c0WPCuEcRNpr_8fqrrT0","plus_code":{"compound_code":"FX67+GR Essen","global_code":"9F38FX67+GR"},"rating":3.6,"reference":"ChIJsc1c0WPCuEcRNpr_8fqrrT0","types":["restaurant","food","point_of_interest","establishment"],"user_ratings_total":72},{"business_status":"OPERATIONAL","formatted_address":"Münchener Str. 37, 47249 Duisburg","geometry":{"location":{"lat":51.3840699,"lng":6.7627904},"viewport":{"northeast":{"lat":51.38533997989272,"lng":6.764549429892722},"southwest":{"lat":51.38264032010728,"lng":6.761849770107278}}},"icon":"https://maps.gstatic.com/mapfiles/place_api/icons/v1/png_71/restaurant-71.png","icon_background_color":"#FF9E67","icon_mask_base_uri":"https://maps.gstatic.com/mapfiles/place_api/icons/v2/restaurant_pinlet","name":"Pizzeria Adria","opening_hours":{"open_now":true},"place_id":"ChIJ7zIr8b-4uEcRjqidp01Vuf4","plus_code":{"compound_code":"9QM7+J4 Duisburg","global_code":"9F389QM7+J4"},"rating":3.5,"reference":"ChIJ7zIr8b-4uEcRjqidp01Vuf4","types":["meal_delivery","restaurant","food","point_of_interest","establishment"],"user_ratings_total":74},{"business_status":"OPERATIONAL","formatted_address":"Eppinghofer Str. 105, 45468 Mülheim an der Ruhr","geometry":{"location":{"lat":51.43335159999999,"lng":6.8865098},"viewport":{"northeast":{"lat":51.43469812989272,"lng":6.887940779892721},"southwest":{"lat":51.43199847010727,"lng":6.885241120107278}}},"icon":"https://maps.gstatic.com/mapfiles/place_api/icons/v1/png_71/restaurant-71.png","icon_background_color":"#FF9E67","icon_mask_base_uri":"https://maps.gstatic.com/mapfiles/place_api/icons/v2/restaurant_pinlet","name":"Pizzeria Grande Appetito","opening_hours":{"open_now":true},"photos":[{"height":1920,"html_attributions":["<a href=\"https://maps.google.com/maps/contrib/115582030006054184954\">sammar javed</a>"],"photo_reference":"AeJbb3dWocaleQpZ9BNOZyLENzWt-jiswgdCKdrpzKeu82ugQDBfVVf_qDg7nQbDfkW8yWxStheEnnoLgo3pqnG0qV5Sq4-SrYDp08DWWQDHPDzCH6m7yRS9XNz88rJ-rtRCXisMEqj3QSp2Hkw-PVT2BP-T5L9amqAbBtQAl2ErlAZPXR5S","width":1080}],"place_id":"ChIJp8ga8nPBuEcR_br2Tq3F5dg","plus_code":{"compound_code":"CVMP+8H Mülheim","global_code":"9F38CVMP+8H"},"rating":3.5,"reference":"ChIJp8ga8nPBuEcR_br2Tq3F5dg","types":["meal_delivery","restaurant","food","point_of_interest","establishment"],"user_ratings_total":48},{"business_status":"OPERATIONAL","formatted_address":"Cranger Str. 24, 44629 Herne","geometry":{"location":{"lat":51.542571,"lng":7.2067792},"viewport":{"northeast":{"lat":51.54393367989272,"lng":7.208060729892721},"southwest":{"lat":51.54123402010728,"lng":7.205361070107277}}},"icon":"https://maps.gstatic.com/mapfiles/place_api/icons/v1/png_71/restaurant-71.png","icon_background_color":"#FF9E67","icon_mask_base_uri":"https://maps.gstatic.com/mapfiles/place_api/icons/v2/restaurant_pinlet","name":"Pizzeria Italia","opening_hours":{"open_now":true},"photos":[{"height":4032,"html_attributions":["<a href=\"https://maps.google.com/maps/contrib/115522888923156450438\">Markus Schmedemann</a>"],"photo_reference":"AeJbb3cXpziC2ZlS0xI51CtgCp2oP4WYmuDCw8HKNR0q9EWC_IeYz66HwTHuu-qOALn7ydIDqrz-uR_IzXW1GjMY7oCiwHXvbncEMiLLrX5QN5oRhvOHN0zuQmLQZVyouNXYTyGsFrICb5iOVmnSKgbajeucdC4cZvVQW83KzK_GEhjZhnBQ","width":3024}],"place_id":"ChIJGUM3mIHhuEcRtig_zTcx9_M","plus_code":{"compound_code":"G6V4+2P Herne","global_code":"9F39G6V4+2P"},"price_level":1,"rating":3.2,"reference":"ChIJGUM3mIHhuEcRtig_zTcx9_M","types":["restaurant","food","point_of_interest","establishment"],"user_ratings_total":47},{"business_status":"OPERATIONAL","formatted_address":"Friedrich-Ebert-Straße 85, 45127 Essen","geometry":{"location":{"lat":51.4613109,"lng":7.010813199999999},"viewport":{"northeast":{"lat":51.46262202989274,"lng":7.012204229892722},"southwest":{"lat":51.45992237010729,"lng":7.009504570107278}}},"icon":"https://maps.gstatic.com/mapfiles/place_api/icons/v1/png_71/restaurant-71.png","icon_background_color":"#FF9E67","icon_mask_base_uri":"https://maps.gstatic.com/mapfiles/place_api/icons/v2/restaurant_pinlet","name":"Pizza Mare","opening_hours":{"open_now":true},"place_id":"ChIJm9TBW7DCuEcRNVhs2wUmlqg","plus_code":{"compound_code":"F266+G8 Essen","global_code":"9F39F266+G8"},"rating":2,"reference":"ChIJm9TBW7DCuEcRNVhs2wUmlqg","types":["restaurant","food","point_of_interest","establishment"],"user_ratings_total":1}]