[{"business_status":"OPERATIONAL","formatted_address":"Bielefelder Str. 189, 44625 Herne","geometry":{"location":{"lat":51.536724,"lng":7.195353799999999},"viewport":{"northeast":{"lat":51.53800632989272,"lng":7.196766229892721},"southwest":{"lat":51.53530667010727,"lng":7.194066570107277}}},"icon":"https://maps.gstatic.com/mapfiles/place_api/icons/v1/png_71/restaurant-71.png","icon_background_color":"#FF9E67","icon_mask_base_uri":"https://maps.gstatic.com/mapfiles/place_api/icons/v2/restaurant_pinlet","name":"Bei Darius","opening_hours":{"open_now":true},"photos":[{"height":1836,"html_attributions":["<a href=\"https://maps.google.com/maps/contrib/101321444159927140055\">Anton Menzner</a>"],"photo_reference":"AeJbb3exHq1GtkV9aUWgW9g560Ftq9uFw0e0_bGNt6APe0VQ1bcN-HqvvPV4D3n_NJ1WmNkGhFCpOVlXqGq2TSa_irJvB32RENCwlqWEDuZdOxT-XlrlRooixvUIuDJO4cZCKctIYET9HaDmwCm_q5Fc5rrJNjS4beMHbO8RwwpgERz-FhY","width":3264}],"place_id":"ChIJ5X6VqXDhuEcRL9IYdOlOVRs","plus_code":{"compound_code":"G5PW+M4 Herne","global_code":"9F39G5PW+M4"},"price_level":1,"rating":4.7,"reference":"ChIJ5X6VqXDhuEcRL9IYdOlOVRs","types":["restaurant","food","point_of_interest","establishment"],"user_ratings_total":692},{"business_status":"OPERATIONAL","formatted_address":"Altmarkt 3, 46045 Oberhausen","geometry":{"location":{"lat":51.4684098,"lng":6.850012},"viewport":{"northeast":{"lat":51.46976247989272,"lng":6.851385579892722},"southwest":{"lat":51.46706282010728,"lng":6.848685920107278}}},"icon":"https://maps.gstatic.com/mapfiles/place_api/icons/v1/png_71/restaurant-71.png","icon_background_color":"#FF9E67","icon_mask_base_uri":"https://maps.gstatic.com/mapfiles/place_api/icons/v2/restaurant_pinlet","name":"Restaurant Gdanska","opening_hours":{"open_now":false},"photos":[{"height":3792,"html_attributions":["<a href=\"https://maps.google.com/maps/contrib/113858140969776937074\">PWDigitalArts by Peter Walloschek</a>"],"photo_reference":"AeJbb3evcnxBL6zpqer0fFvCFP5DxhsfZyaavCgYEbdYcut8o89jk2ePt7Yiwd-AZc5TMv25fqkoiWCcd049FY97sOfuwyW_9Q3csNjqH57MCYwMRtO9wvDFv-9yUcpdLYa_IF_OFSCTtBhwI6XyKp0ZYm47-2vygV5kaxDRHZTWpjKg8cvR","width":5056}],"place_id":"ChIJrbWlqDDAuEcR52aOYtVVDxY","plus_code":{"compound_code":"FV92+82 Oberhausen","global_code":"9F38FV92+82"},"price_level":2,"rating":4.6,"reference":"ChIJrbWlqDDAuEcR52aOYtVVDxY","types":["night_club","bar","restaurant","food","point_of_interest","establishment"],"user_ratings_total":2239},{"business_status":"OPERATIONAL","formatted_address":"Klapperstraße 32, 45277 Essen","geometry":{"location":{"lat":51.4192733,"lng":7.0791378},"viewport":{"northeast":{"lat":51.42066892989273,"lng":7.080306029892722},"southwest":{"lat":51.41796927010728,"lng":7.077606370107278}}},"icon":"https://maps.gstatic.com/mapfiles/place_api/icons/v1/png_71/restaurant-71.png","icon_background_color":"#FF9E67","icon_mask_base_uri":"https://maps.gstatic.com/mapfiles/place_api/icons/v2/restaurant_pinlet","name":"Wehbergshof","opening_hours":{"open_now":false},"photos":[{"height":4000,"html_attributions":["<a href=\"https://maps.google.com/maps/contrib/109061127414014035652\">Sebastian Benthaus</a>"],"photo_reference":"AeJbb3eRwXoBgIU3I-PHIFvix7n3w6QJfoVUtlTpsghg_7tOqCDTjJscqAVWpym5slcrxtxNfxUOvYN2mMZpQWFDouFnUB11E8rQcLZRfTHE2lg0IUqT_7ODUl63MqV0_srQYvdmNy-dKyay0H0d0Upi0Dy0xmTHCbXrtsSjzB2XKTCd9QRc","width":3000}],"place_id":"ChIJNyHO2k_cuEcRe_xJiz0I140","plus_code":{"compound_code":"C39H+PM Essen","global_code":"9F39C39H+PM"},"rating":4.6,"reference":"ChIJNyHO2k_cuEcRe_xJiz0I140","types":["restaurant","food","point_of_interest","establishment"],"user_ratings_total":126},{"business_status":"OPERATIONAL","formatted_address":"Am Schloß Broich 38, 45479 Mülheim an der Ruhr","geometry":{"location":{"lat":51.4283935,"lng":6.8684731},"viewport":{"northeast":{"lat":51.42976652989272,"lng":6.869703479892721},"southwest":{"lat":51.42706687010728,"lng":6.867003820107278}}},"icon":"https://maps.gstatic.com/mapfiles/place_api/icons/v1/png_71/restaurant-71.png","icon_background_color":"#FF9E67","icon_mask_base_uri":"https://maps.gstatic.com/mapfiles/place_api/icons/v2/restaurant_pinlet","name":"Restaurant Ronja im Ringlokschuppen","opening_hours":{"open_now":true},"photos":[{"height":2325,"html_attributions":["<a href=\"https://maps.google.com/maps/contrib/113777488134517959268\">Christian Oeser</a>"],"photo_reference":"AeJbb3e6vh62UB3Jb9-Hp-P5DwiiDPce-AnyDY4XpKlhq4Iz6O4fw30A9MNde_TTlqd6xvPswGvFzDwyVCUu361ErkoalKosN5IRzNwuGVb2lR1H17sVR7hlud70e5-zkEi1V6BnPLmiipYT0xCOBa-_Spn12R_HYGMemJ5TMa3ViCbqVBji","width":3285}],"place_id":"ChIJbckNOGzBuEcRb1PdkXrX5eo","plus_code":{"compound_code":"CVH9+99 Mülheim","global_code":"9F38CVH9+99"},"price_level":1,"rating":4.5,"reference":"ChIJbckNOGzBuEcRb1PdkXrX5eo","types":["restaurant","food","point_of_interest","establishment"],"user_ratings_total":1191},{"business_status":"OPERATIONAL","formatted_address":"Bottroper Str. 1, 46244 Bottrop","geometry":{"location":{"lat":51.6027351,"lng":6.9160246},"viewport":{"northeast":{"lat":51.60410307989272,"lng":6.917279879892723},"southwest":{"lat":51.60140342010727,"lng":6.914580220107279}}},"icon":"https://maps.gstatic.com/mapfiles/place_api/icons/v1/png_71/shopping-71.png","icon_background_color":"#4B96F3","icon_mask_base_uri":"https://maps.gstatic.com/mapfiles/place_api/icons/v2/shoppingcart_pinlet","name":"Spickermanns Bioladen Kirchhellen","opening_hours":{"open_now":true},"photos":[{"height":3264,"html_attributions":["<a href=\"https://maps.google.com/maps/contrib/111029259022322323577\">A Google User</a>"],"photo_reference":"AeJbb3dz4qkGVTrBBY8p2uEA30NsY3G14gTpxUrUoFD1ioXr-PYc-U5aH9gbdzwRWDUenTTapsMtOErS4IHNIi3XrUVtpx8ecK54p-u9s655KWWNy5t3pIrcjx8oywLNVlBreWgBgKBuEgHKx6ruXKlOCFBoKfpedO15TVrq9kFdxikwM7de","width":2448}],"place_id":"ChIJ3UCldEzsuEcRmVUHg1-g2CI","plus_code":{"compound_code":"JW38+3C Bottrop","global_code":"9F38JW38+3C"},"rating":4.5,"reference":"ChIJ3UCldEzsuEcRmVUHg1-g2CI","types":["supermarket","bakery","grocery_or_supermarket","restaurant","food","point_of_interest","store","establishment"],"user_ratings_total":143},{"business_status":"OPERATIONAL","formatted_address":"Elberfelder Str. 7, 42553 Velbert","geometry":{"location":{"lat":51.3135877,"lng":7.087999699999999},"viewport":{"northeast":{"lat":51.31493327989273,"lng":7.089325129892722},"southwest":{"lat":51.31223362010729,"lng":7.086625470107278}}},"icon":"https://maps.gstatic.com/mapfiles/place_api/icons/v1/png_71/restaurant-71.png","icon_background_color":"#FF9E67","icon_mask_base_uri":"https://maps.gstatic.com/mapfiles/place_api/icons/v2/restaurant_pinlet","name":"Restauracja Polska","opening_hours":{"open_now":false},"photos":[{"height":2664,"html_attributions":["<a href=\"https://maps.google.com/maps/contrib/117799305413543558532\">Agnes Baudach</a>"],"photo_reference":"AeJbb3f94IoAu3EkAfpvMIBz0BaBUvv5Ib2ZQGYH-mo9zknI4vJ9V-jDUfNpK_nUO-Q-98PlK0jFc-JNJ81ouJxeHzwsTkcQF46xhkwdWPI5e1y-wdluck8wBkGdgcoLFoPOCLbIgIlAKJ9XliYTdPqk8zWx7Rp9-Cyqt-F137uMNENk0UFw","width":3996}],"place_id":"ChIJ-0yG_hzauEcR2vAr8OP5eA0","plus_code":{"compound_code":"837Q+C5 Velbert","global_code":"9F39837Q+C5"},"rating":4.2,"reference":"ChIJ-0yG_hzauEcR2vAr8OP5eA0","types":["restaurant","food","point_of_interest","establishment"],"user_ratings_total":179},{"business_status":"OPERATIONAL","formatted_address":"Vogelheimer Str. 129, 45329 Essen","geometry":{"location":{"lat":51.4920246,"lng":6.9956584},"viewport":{"northeast":{"lat":51.49345137989272,"lng":6.997037679892721},"southwest":{"lat":51.49075172010728,"lng":6.994338020107278}}},"icon":"https://maps.gstatic.com/mapfiles/place_api/icons/v1/png_71/shopping-71.png","icon_background_color":"#4B96F3","icon_mask_base_uri":"https://maps.gstatic.com/mapfiles/place_api/icons/v2/shoppingcart_pinlet","name":"Foodland Gastroservice GmbH","opening_hours":{"open_now":true},"photos":[{"height":1192,"html_attributions":["<a href=\"https://maps.google.com/maps/contrib/114445952151854007543\">A Google User</a>"],"photo_reference":"AeJbb3f9K9jxrp8LtKQK6A2nOOYU2ZS40keMQAX9mG46uixqw9eMzGjGyCSbcaLDzPxcIjqNj6Sqss0LEbzdUSM-vPfeCf38SpG3gsc_YFjdJPimceDvtuEndPOqOM2TLdFrgyOLK4o8pEd0JsELJ6utcYpkBIzel1wXHKt6Hfj96_6gPlw-","width":2118}],"place_id":"ChIJy_SjSTnouEcRupTEZ1cZzUg","plus_code":{"compound_code":"FXRW+R7 Essen","global_code":"9F38FXRW+R7"},"rating":4.2,"reference":"ChIJy_SjSTnouEcRupTEZ1cZzUg","types":["supermarket","grocery_or_supermarket","restaurant","food","point_of_interest","store","establishment"],"user_ratings_total":126},{"business_status":"OPERATIONAL","formatted_address":"Große Weilstraße 16, 45525 Hattingen","geometry":{"location":{"lat":51.3981605,"lng":7.182346},"viewport":{"northeast":{"lat":51.40002677989272,"lng":7.183326079892722},"southwest":{"lat":51.39732712010728,"lng":7.180626420107278}}},"icon":"https://maps.gstatic.com/mapfiles/place_api/icons/v1/png_71/restaurant-71.png","icon_background_color":"#FF9E67","icon_mask_base_uri":"https://maps.gstatic.com/mapfiles/place_api/icons/v2/restaurant_pinlet","name":"Polis Grill-Pizzeria","opening_hours":{"open_now":true},"photos":[{"height":810,"html_attributions":["<a href=\"https://maps.google.com/maps/contrib/100596786174392550441\">A Google User</a>"],"photo_reference":"AeJbb3eQxnmlu51YCmqb-TNeWE4f68TTYykjVYU1w48gQobJUeP2HUwcYFTSyGMlSIp3LmFbjztvGpAo1WHNrkCWvPrhj5KR3dK7RieVJCchgWgnwPTEMNN8AejGBfzaBW4nhlgR_t642dBZnmLMGuM6zUTSMTOCH6B6kLEL84i8ej1yra0x","width":1440}],"place_id":"ChIJ4T1-GT3fuEcRP4KQ_WOErMY","plus_code":{"compound_code":"95XJ+7W Hattingen","global_code":"9F3995XJ+7W"},"rating":3.8,"reference":"ChIJ4T1-GT3fuEcRP4KQ_WOErMY","types":["meal_takeaway","meal_delivery","restaurant","food","point_of_interest","establishment"],"user_ratings_total":186},{"business_status":"OPERATIONAL","formatted_address":"Hochstraße 19, 45894 Gelsenkirchen","geometry":{"location":{"lat":51.5790131,"lng":7.0535286},"viewport":{"northeast":{"lat":51.58039647989272,"lng":7.055241529892723},"southwest":{"lat":51.57769682010728,"lng":7.052541870107279}}},"icon":"https://maps.gstatic.com/mapfiles/place_api/icons/v1/png_71/restaurant-71.png","icon_background_color":"#FF9E67","icon_mask_base_uri":"https://maps.gstatic.com/mapfiles/place_api/icons/v2/restaurant_pinlet","name":"Nordsee","opening_hours":{"open_now":true},"photos":[{"height":500,"html_attributions":["<a href=\"https://maps.google.com/maps/contrib/105788688217762521472\">NORDSEE</a>"],"photo_reference":"AeJbb3cCSopbf8WL-cBfCC4XPvL5wMwv77z4DK1DXoKZoQjRQNbxKB406uHW6WOHT26OinmXqHareYc8woHViORYy2VN2uCXPN325lmp19RgGFG_nANSDjUHbjbnsU6M7oTTkfxgZycYzXVGNXI8QeK_j-y4lUPmVFrWnGjpoZh4TV66mjjL","width":500}],"place_id":"ChIJ3UdU7IrluEcR7g1vC8hLZ4Q","plus_code":{"compound_code":"H3H3+JC Gelsenkirchen","global_code":"9F39H3H3+JC"},"price_level":2,"rating":3.7,"reference":"ChIJ3UdU7IrluEcR7g1vC8hLZ4Q","types":["restaurant","food","point_of_interest","establishment"],"user_ratings_total":218},{"business_status":"OPERATIONAL","formatted_address":"Limbecker Pl. 1a, 45127 Essen","geometry":{"location":{"lat":51.4583719,"lng":7.006318599999999},"viewport":{"northeast":{"lat":51.45958442989271,"lng":7.00794722989272},"southwest":{"lat":51.45688477010727,"lng":7.005247570107276}}},"icon":"https://maps.gstatic.com/mapfiles/place_api/icons/v1/png_71/restaurant-71.png","icon_background_color":"#FF9E67","icon_mask_base_uri":"https://maps.gstatic.com/mapfiles/place_api/icons/v2/restaurant_pinlet","name":"Curry Dehli","opening_hours":{"open_now":true},"photos":[{"height":3000,"html_attributions":["<a href=\"https://maps.google.com/maps/contrib/111970103998593619083\">Gokuldeep T.M</a>"],"photo_reference":"AeJbb3dUmCK4bjTBrgUVVN3OjMs5Lq8hWM5eKeVNLy9gxuwe6AGY8gI1e1spmKGXqqv-w3IwZrBIXmC8ztdKrKIHG0WUyZUaoiT26KvlZ9QB39JDOIh9S0t6-JhQ8qqrogdcM49jfuM1PU56JjCsX2p7fewkrDaSGbQb7z27_dm_yx6E1jug","width":4000}],"place_id":"ChIJEbkA9bnCuEcR3yYY9XauvBs","plus_code":{"compound_code":"F254+8G Essen","global_code":"9F39F254+8G"},"rating":3.5,"reference":"ChIJEbkA9bnCuEcR3yYY9XauvBs","types":["restaurant","food","point_of_interest","establishment"],"user_ratings_total":18}]