[{"business_status":"OPERATIONAL","formatted_address":"ul. \"Elemag\" 34, 1113 g.k. Izgrev, Sofia","geometry":{"location":{"lat":42.6686797,"lng":23.3439294},"viewport":{"northeast":{"lat":42.66994517989272,"lng":23.34528187989272},"southwest":{"lat":42.66724552010728,"lng":23.34258222010728}}},"icon":"https://maps.gstatic.com/mapfiles/place_api/icons/v1/png_71/restaurant-71.png","icon_background_color":"#FF9E67","icon_mask_base_uri":"https://maps.gstatic.com/mapfiles/place_api/icons/v2/restaurant_pinlet","name":"Utre bulgaria","opening_hours":{"open_now":true},"place_id":"ChIJleoc8fyFqkARgcaKpoVsW3Y","plus_code":{"compound_code":"M89V+FH Sofia","global_code":"8GJ5M89V+FH"},"rating":5,"reference":"ChIJleoc8fyFqkARgcaKpoVsW3Y","types":["restaurant","food","point_of_interest","establishment"],"user_ratings_total":1},{"business_status":"OPERATIONAL","formatted_address":"ul. \"Professor Fridtjof Nansen\" 47, 1142 Sofia Center, Sofia","geometry":{"location":{"lat":42.6836302,"lng":23.3211677},"viewport":{"northeast":{"lat":42.68499132989272,"lng":23.32234732989273},"southwest":{"lat":42.68229167010728,"lng":23.31964767010728}}},"icon":"https://maps.gstatic.com/mapfiles/place_api/icons/v1/png_71/restaurant-71.png","icon_background_color":"#FF9E67","icon_mask_base_uri":"https://maps.gstatic.com/mapfiles/place_api/icons/v2/restaurant_pinlet","name":"Корейски ресторант","photos":[{"height":4624,"html_attributions":["<a href=\"https://maps.google.com/maps/contrib/110965592815242676787\">Zeliha Ibrahim</a>"],"photo_reference":"AeJbb3eklOMKWZfck9oJLFo-xgM-9WKUhoTX3P0ZQxyGITKfLAykn7hTzaiUolBoe2_Y3qh04X8x9ptjOkKKyNqskoFLAaeoMtBG9reqfGnZC9dbEjyKnOM7Zmr2LuNXezNEaRPp96f4RNssdU1yaFZ9dIZ9BCiCaYsR7j0lNs2p-JCpm6gq","width":3468}],"place_id":"ChIJHXkh8G2FqkARaqJsSCxfgQc","plus_code":{"compound_code":"M8MC+FF Sofia","global_code":"8GJ5M8MC+FF"},"rating":5,"reference":"ChIJHXkh8G2FqkARaqJsSCxfgQc","types":["restaurant","food","point_of_interest","establishment"],"user_ratings_total":1},{"business_status":"OPERATIONAL","formatted_address":"bul. \"Asen Yordanov\" 7, 1000 SPZ Slatina, Sofia","geometry":{"location":{"lat":42.6741672,"lng":23.3828137},"viewport":{"northeast":{"lat":42.67554407989272,"lng":23.38401362989272},"southwest":{"lat":42.67284442010727,"lng":23.38131397010728}}},"icon":"https://maps.gstatic.com/mapfiles/place_api/icons/v1/png_71/restaurant-71.png","icon_background_color":"#FF9E67","icon_mask_base_uri":"https://maps.gstatic.com/mapfiles/place_api/icons/v2/restaurant_pinlet","name":"Domashna kuhnia eood /RepEat/","opening_hours":{"open_now":true},"photos":[{"height":2268,"html_attributions":["<a href=\"https://maps.google.com/maps/contrib/112335508081697680472\">A Google User</a>"],"photo_reference":"AeJbb3fZrIQTXWgWQiBTlWs8UlZhn1ZB3ZEvl-thMu5uKOozXVD0gh0H-WHSv27e0sWAPRgcWpX1TD4STY8E7hUv-P63Kzz5aEGJxrzAm4VIt4mx4DWR4tP26BEHW1ubkwG6mE65j8OtZe0EjhcO1jLXwmdvjmFoVVGVZZounzDUxtLh3lCH","width":4032}],"place_id":"ChIJ56C5VOuHqkARJ-7CyTnjpTw","plus_code":{"compound_code":"M9FM+M4 Sofia","global_code":"8GJ5M9FM+M4"},"rating":5,"reference":"ChIJ56C5VOuHqkARJ-7CyTnjpTw","types":["restaurant","food","point_of_interest","establishment"],"user_ratings_total":1},{"business_status":"OPERATIONAL","formatted_address":"ulitsa „Georgi S. Rakovski“ 116, 1000 Sofia Center, Sofia","geometry":{"location":{"lat":42.6917192,"lng":23.3252216},"viewport":{"northeast":{"lat":42.69302337989272,"lng":23.32662862989272},"southwest":{"lat":42.69032372010727,"lng":23.32392897010727}}},"icon":"https://maps.gstatic.com/mapfiles/place_api/icons/v1/png_71/cafe-71.png","icon_background_color":"#FF9E67","icon_mask_base_uri":"https://maps.gstatic.com/mapfiles/place_api/icons/v2/cafe_pinlet","name":"Bamboo Flavor Factory","opening_hours":{"open_now":true},"photos":[{"height":4624,"html_attributions":["<a href=\"https://maps.google.com/maps/contrib/103487595931329006307\">vivka m</a>"],"photo_reference":"AeJbb3eYxmH0q-tktrxPsEkYH4K7OMTbntb261locOGAuI3XyShQpi00-tKmsv0caqVySkvH86NsnD_d4Fi6LD8p1Jjci5WsZhQC9aerWwKgLTc788wxRww1fTlib4e0vT_s6Rn75ziu4BhJdIMRJKPR2-TiQZRxJa-abysB4vz2hpB3UH_g","width":3472}],"place_id":"ChIJP3N96WOFqkAR6d6nDGjf0iY","plus_code":{"compound_code":"M8RG+M3 Sofia","global_code":"8GJ5M8RG+M3"},"rating":4.9,"reference":"ChIJP3N96WOFqkAR6d6nDGjf0iY","types":["cafe","restaurant","food","point_of_interest","establishment"],"user_ratings_total":116},{"business_status":"OPERATIONAL","formatted_address":"Ул.20ти Април 19, 1000 Pette Kyosheta, Sofia","geometry":{"location":{"lat":42.693817,"lng":23.3116959},"viewport":{"northeast":{"lat":42.69520657989272,"lng":23.31312262989272},"southwest":{"lat":42.69250692010728,"lng":23.31042297010728}}},"icon":"https://maps.gstatic.com/mapfiles/place_api/icons/v1/png_71/restaurant-71.png","icon_background_color":"#FF9E67","icon_mask_base_uri":"https://maps.gstatic.com/mapfiles/place_api/icons/v2/restaurant_pinlet","name":"Ресторант-градина Ена","opening_hours":{"open_now":true},"photos":[{"height":1200,"html_attributions":["<a href=\"https://maps.google.com/maps/contrib/104369934158877382325\">Alexander Hristov</a>"],"photo_reference":"AeJbb3d11liSUElG9eLi5rQ3nIj4cFoQ6QTay9jomBIPnL-BB32JtKyMpbDoshXdrvueWbYuBOoL7PLHBNlRNYb0x0AO1n3zNyEwiwZ2kXV_ZaL8VilAH6KTPEzU6qGbZA9c_kE-snHvRO7uQyu1SYrDLq10c8zHDvEuBpyMeFMtXi8_vqsx","width":1600}],"place_id":"ChIJ6RE6oE-FqkARuhqUjqQ9ajI","plus_code":{"compound_code":"M8V6+GM Sofia","global_code":"8GJ5M8V6+GM"},"rating":4.9,"reference":"ChIJ6RE6oE-FqkARuhqUjqQ9ajI","types":["restaurant","food","point_of_interest","establishment"],"user_ratings_total":12},{"business_status":"OPERATIONAL","formatted_address":"bul. \"Patriarh Evtimiy\" 44, 1000 Sofia Center, Sofia","geometry":{"location":{"lat":42.6888717,"lng":23.3224679},"viewport":{"northeast":{"lat":42.69021727989272,"lng":23.32385922989272},"southwest":{"lat":42.68751762010728,"lng":23.32115957010728}}},"icon":"https://maps.gstatic.com/mapfiles/place_api/icons/v1/png_71/restaurant-71.png","icon_background_color":"#FF9E67","icon_mask_base_uri":"https://maps.gstatic.com/mapfiles/place_api/icons/v2/restaurant_pinlet","name":"Farmhopping Kitchen","opening_hours":{"open_now":true},"photos":[{"height":2250,"html_attributions":["<a href=\"https://maps.google.com/maps/contrib/107982296691178326848\">A Google User</a>"],"photo_reference":"AeJbb3dJx23IPAHEK3OpdNIi0rkTxJZxTslYvCVFDzwpYYLIlnSHI8Mqg-8lSd-Ud05AaeZdX-hglhhRKAV5N0XAgcLqDwWO_VJ1BTjZycoH7cq2I1bcwkV1GhcUqWxWHLkXFXDSnTWjM5duQEDVAnxP4ynBp4ty7h_-SBWJxUMmwD1VmRi6","width":4000}],"place_id":"ChIJxaECCCWFqkARdpmyoSGGb_0","plus_code":{"compound_code":"M8QC+HX Sofia","global_code":"8GJ5M8QC+HX"},"rating":4.8,"reference":"ChIJxaECCCWFqkARdpmyoSGGb_0","types":["restaurant","food","point_of_interest","establishment"],"user_ratings_total":23},{"business_status":"OPERATIONAL","formatted_address":"бул. „Княз Александър Дондуков\" 29, 1000 Sofia Center, Sofia","geometry":{"location":{"lat":42.698477,"lng":23.3308504},"viewport":{"northeast":{"lat":42.69975837989272,"lng":23.33221127989272},"southwest":{"lat":42.69705872010728,"lng":23.32951162010728}}},"icon":"https://maps.gstatic.com/mapfiles/place_api/icons/v1/png_71/restaurant-71.png","icon_background_color":"#FF9E67","icon_mask_base_uri":"https://maps.gstatic.com/mapfiles/place_api/icons/v2/restaurant_pinlet","name":"Genji Street Food","opening_hours":{"open_now":true},"photos":[{"height":655,"html_attributions":["<a href=\"https://maps.google.com/maps/contrib/110814552563422115674\">A Google User</a>"],"photo_reference":"AeJbb3cTZEKgLsILsh3FwVWG0AaVgaRRA-h2Upb-WGvkXUeXUSiqxPH8XXeCej7IrJdBAK-6LT357U0mkRC6QS5fVU-WlFOvIa35FHHxqVZxnpCQP_1YgzrmgY-COaQVnFdq0AUo8UyBZn2WBnWx_lSxYrVPBPj5ItYBTkXE5Q0I1nflBs-e","width":1080}],"place_id":"ChIJ9xYy6AqFqkARIUgkw77h-l0","plus_code":{"compound_code":"M8XJ+98 Sofia","global_code":"8GJ5M8XJ+98"},"rating":4.7,"reference":"ChIJ9xYy6AqFqkARIUgkw77h-l0","types":["meal_takeaway","restaurant","food","point_of_interest","establishment"],"user_ratings_total":300},{"business_status":"OPERATIONAL","formatted_address":"1700 Studentski Kompleks, Sofia","geometry":{"location":{"lat":42.6509532,"lng":23.3419219},"viewport":{"northeast":{"lat":42.65237642989272,"lng":23.34333677989272},"southwest":{"lat":42.64967677010728,"lng":23.34063712010727}}},"icon":"https://maps.gstatic.com/mapfiles/place_api/icons/v1/png_71/restaurant-71.png","icon_background_color":"#FF9E67","icon_mask_base_uri":"https://maps.gstatic.com/mapfiles/place_api/icons/v2/restaurant_pinlet","name":"The Bibimbap","opening_hours":{"open_now":true},"photos":[{"height":3024,"html_attributions":["<a href=\"https://maps.google.com/maps/contrib/108313439763817192547\">Karolė Miuller</a>"],"photo_reference":"AeJbb3crT25TuAsScWB0peFD4bnUgQsCWEkd4D6qzr0H1Sk2AXj1DLQJDyRIhU6p0skMUX6LRTgoJazizE3GuGfpC3kdHZ4_4ZdAsGyx6BDVSlUn29O_UV4q4BXcvU5Z_IlXCP0p3tAaIGQBZpfR2jgphYzKa7wKi8fe1ILUzd_PY0Hbmd3p","width":3024}],"place_id":"ChIJ7VGe8JCFqkARLc7xCYa7a6s","plus_code":{"compound_code":"M82R+9Q Sofia","global_code":"8GJ5M82R+9Q"},"price_level":2,"rating":4.7,"reference":"ChIJ7VGe8JCFqkARLc7xCYa7a6s","types":["restaurant","food","point_of_interest","establishment"],"user_ratings_total":117},{"business_status":"OPERATIONAL","formatted_address":"ul. \"Tsar Samuil\" 33, 1000 Sofia Center, Sofia","geometry":{"location":{"lat":42.692426,"lng":23.316221},"viewport":{"northeast":{"lat":42.69376847989273,"lng":23.31761377989272},"southwest":{"lat":42.69106882010728,"lng":23.31491412010728}}},"icon":"https://maps.gstatic.com/mapfiles/place_api/icons/v1/png_71/restaurant-71.png","icon_background_color":"#FF9E67","icon_mask_base_uri":"https://maps.gstatic.com/mapfiles/place_api/icons/v2/restaurant_pinlet","name":"Deep Roots","opening_hours":{"open_now":false},"photos":[{"height":3024,"html_attributions":["<a href=\"https://maps.google.com/maps/contrib/105268986319898665200\">Andrew Hsi</a>"],"photo_reference":"AeJbb3fJDrR0QaGLEoNQm-TMyCuo6fSHo2RGlX1rFC2xUlSAhhl_vtDmsWy_QKOM4xrWI_K-4VDrZL2_OACP4JaNkOD3nITqzDcbAC4l42o0kc22WeWlWK4mrgVpVYKttOnY9e2ZZDmcesle1rGvQW5DqK9TOETdu-neprxao4e-piXPdWmt","width":4032}],"place_id":"ChIJyxSqJa2FqkARM2ci7dHKG7Q","plus_code":{"compound_code":"M8R8+XF Sofia","global_code":"8GJ5M8R8+XF"},"rating":4.7,"reference":"ChIJyxSqJa2FqkARM2ci7dHKG7Q","types":["restaurant","food","point_of_interest","establishment"],"user_ratings_total":18},{"business_status":"OPERATIONAL","formatted_address":"Blvd \"James Bourchier\" бул. \"Джеймс Баучер, 1407 g.k. Lozenets, Sofia","geometry":{"location":{"lat":42.6720503,"lng":23.3176924},"viewport":{"northeast":{"lat":42.67310327989271,"lng":23.31932087989272},"southwest":{"lat":42.67040362010727,"lng":23.31662122010728}}},"icon":"https://maps.gstatic.com/mapfiles/place_api/icons/v1/png_71/restaurant-71.png","icon_background_color":"#FF9E67","icon_mask_base_uri":"https://maps.gstatic.com/mapfiles/place_api/icons/v2/restaurant_pinlet","name":"Umami","opening_hours":{"open_now":true},"photos":[{"height":3744,"html_attributions":["<a href=\"https://maps.google.com/maps/contrib/101452851197407192162\">A Google User</a>"],"photo_reference":"AeJbb3dBYoOpWGNXojms6lAXGCT_gEOZ-TDORXLAylhYzf9xsxfFCKuDjjBW6Ycyk79CLbS5ulj9-XYf9jsYTuZ6P2AKFf46fNNwhRBVeHouAJe-PIy5OzNPXykaofO2G2t1UmIoXHw0Pd-eVzTPLJLyJQ_OxdOUPQIsk5LjRY-SETeJ3TON","width":5616}],"place_id":"ChIJb3ZrkP-EqkARMiuAMMAnyxg","plus_code":{"compound_code":"M8C9+R3 Sofia","global_code":"8GJ5M8C9+R3"},"price_level":2,"rating":4.6,"reference":"ChIJb3ZrkP-EqkARMiuAMMAnyxg","types":["restaurant","food","point_of_interest","establishment"],"user_ratings_total":2036},{"business_status":"OPERATIONAL","formatted_address":"ul. \"Kokiche\" 13, 1164 g.k. Lozenets, Sofia","geometry":{"location":{"lat":42.6843368,"lng":23.3273697},"viewport":{"northeast":{"lat":42.68571887989272,"lng":23.32870637989272},"southwest":{"lat":42.68301922010728,"lng":23.32600672010728}}},"icon":"https://maps.gstatic.com/mapfiles/place_api/icons/v1/png_71/restaurant-71.png","icon_background_color":"#FF9E67","icon_mask_base_uri":"https://maps.gstatic.com/mapfiles/place_api/icons/v2/restaurant_pinlet","name":"Soul Kitchen","opening_hours":{"open_now":true},"photos":[{"height":635,"html_attributions":["<a href=\"https://maps.google.com/maps/contrib/104029345666475599696\">A Google User</a>"],"photo_reference":"AeJbb3d5wDC7AL1X9WtEFo-ml1PzyskiboEJorkkxu2bnr9jmPls0XylGU6LWD16d_lAfDtYSBRsI-6PoV6-JboOlN6zxllBd129zlno1ROHc6sYkahiqaxtVoPLlJCsMfux7b3bf9wTXm7KxrcLMQZ7IWNhlvvio6FqDxClooeI4gh6JYVE","width":960}],"place_id":"ChIJCR6YoQmFqkARJVGx7tG7qdw","plus_code":{"compound_code":"M8MG+PW Sofia","global_code":"8GJ5M8MG+PW"},"price_level":2,"rating":4.6,"reference":"ChIJCR6YoQmFqkARJVGx7tG7qdw","types":["restaurant","point_of_interest","food","establishment"],"user_ratings_total":1247},{"business_status":"OPERATIONAL","formatted_address":"ul. \"Ivan Denkoglu\" 18, 1000 Sofia Center, Sofia","geometry":{"location":{"lat":42.6940606,"lng":23.3188183},"viewport":{"northeast":{"lat":42.69545222989272,"lng":23.32018282989272},"southwest":{"lat":42.69275257010728,"lng":23.31748317010728}}},"icon":"https://maps.gstatic.com/mapfiles/place_api/icons/v1/png_71/restaurant-71.png","icon_background_color":"#FF9E67","icon_mask_base_uri":"https://maps.gstatic.com/mapfiles/place_api/icons/v2/restaurant_pinlet","name":"The Sushi Bar","opening_hours":{"open_now":true},"photos":[{"height":3125,"html_attributions":["<a href=\"https://maps.google.com/maps/contrib/105238268064349591696\">The Sushi Bar</a>"],"photo_reference":"AeJbb3fAF5pOaDR_SAt5ulTaZWAIYrpg7_PejF77426ufHpBMyCrcHrLYFzSV4gWzxCe6irLdnDa1ZOAg0pmYU7VXD2Xu1i_ASJrvkxjMCa7j9N_EX58c0NQG0SXADlBdXm_ujiJQ8Gui7YZGWIIdqw7GLeYYpKFJBdMEywziX-q3FQ_ebc9","width":4717}],"place_id":"ChIJPwLAiGyFqkARhNE-zl9vtIM","plus_code":{"compound_code":"M8V9+JG Sofia","global_code":"8GJ5M8V9+JG"},"price_level":2,"rating":4.6,"reference":"ChIJPwLAiGyFqkARhNE-zl9vtIM","types":["restaurant","food","point_of_interest","establishment"],"user_ratings_total":1208},{"business_status":"OPERATIONAL","formatted_address":"ul. \"Pirotska\" 71, 1303 Sofia Center, Sofia","geometry":{"location":{"lat":42.701057,"lng":23.3102591},"viewport":{"northeast":{"lat":42.70247552989272,"lng":23.31163107989272},"southwest":{"lat":42.69977587010728,"lng":23.30893142010728}}},"icon":"https://maps.gstatic.com/mapfiles/place_api/icons/v1/png_71/restaurant-71.png","icon_background_color":"#FF9E67","icon_mask_base_uri":"https://maps.gstatic.com/mapfiles/place_api/icons/v2/restaurant_pinlet","name":"SenViet Center - Vietnamese Noodle House","opening_hours":{"open_now":true},"photos":[{"height":960,"html_attributions":["<a href=\"https://maps.google.com/maps/contrib/101538728236963829869\">A Google User</a>"],"photo_reference":"AeJbb3dgAIfSnGIPKRKG57Z4YxlvnMLstKkQnen2jmX1_J5zHizT5x75wWo2p8h7DKUytLTmnaM_roMz5QfzD2Cndv1CluLdua3LN1SW90ypZ87HvJ0KMp8mJFO26locZkUYwgJNX7Thm34O-Sp3qKQCgWcupwUFI8eW_02_u99NjPQ450Vy","width":960}],"place_id":"ChIJgUs5D_-FqkAR_AUjxUNjVUs","plus_code":{"compound_code":"P826+C4 Sofia","global_code":"8GJ5P826+C4"},"rating":4.6,"reference":"ChIJgUs5D_-FqkAR_AUjxUNjVUs","types":["restaurant","food","point_of_interest","establishment"],"user_ratings_total":274},{"business_status":"OPERATIONAL","formatted_address":"Милениум център, bul. \"Vitosha\" 89b, 1463 Ivan Vazov, Sofia","geometry":{"location":{"lat":42.6823373,"lng":23.3144689},"viewport":{"northeast":{"lat":42.68373482989272,"lng":23.31572947989272},"southwest":{"lat":42.68103517010728,"lng":23.31302982010728}}},"icon":"https://maps.gstatic.com/mapfiles/place_api/icons/v1/png_71/restaurant-71.png","icon_background_color":"#FF9E67","icon_mask_base_uri":"https://maps.gstatic.com/mapfiles/place_api/icons/v2/restaurant_pinlet","name":"888 Taste Show Asian Cuisine","opening_hours":{"open_now":true},"photos":[{"height":3749,"html_attributions":["<a href=\"https://maps.google.com/maps/contrib/102103046561115799039\">A Google User</a>"],"photo_reference":"AeJbb3cJ41eCzOaSlgdNhlLuAqXQE_rKTf0AYqIXygccIkJ759VkhYItn9zBAN7rQ2bgM_Fix2C0uMPbEZCYGFI3qq-hcdmc6Trlnqlrq5Kv9gemJHId1yEz5emIjCTUbnoYuh8S03Q7zyPKj_L9Ih80Qq6nG1XKWyZRt9WDIWVXcMuTMuu5","width":5629}],"place_id":"ChIJh9bR7HOFqkARDLUcC2SJrOs","plus_code":{"compound_code":"M8J7+WQ Sofia","global_code":"8GJ5M8J7+WQ"},"rating":4.6,"reference":"ChIJh9bR7HOFqkARDLUcC2SJrOs","types":["restaurant","point_of_interest","food","establishment"],"user_ratings_total":77},{"business_status":"OPERATIONAL","formatted_address":"бул. „Княз Александър Дондуков\" 15, 1000 Sofia Center, Sofia","geometry":{"location":{"lat":42.6982027,"lng":23.328125},"viewport":{"northeast":{"lat":42.69947887989272,"lng":23.32948782989272},"southwest":{"lat":42.69677922010728,"lng":23.32678817010727}}},"icon":"https://maps.gstatic.com/mapfiles/place_api/icons/v1/png_71/restaurant-71.png","icon_background_color":"#FF9E67","icon_mask_base_uri":"https://maps.gstatic.com/mapfiles/place_api/icons/v2/restaurant_pinlet","name":"на BBQ то","opening_hours":{"open_now":true},"photos":[{"height":310,"html_attributions":["<a href=\"https://maps.google.com/maps/contrib/106286853666657065918\">A Google User</a>"],"photo_reference":"AeJbb3dLUhG0l4QR6r67CmEU1UeEfnb4kp5kFOXGvlltUKFeGQ5jx6DXdwCLkoOJDf3uqZR5TROe7rSvmAtTPkkt79l05JaJLHqANr6x2gDiZ5Y2wSbYFFG6XA79LhqCMTfw5DDatQ-1dK1Dl6hn1SBUX5IKTLw4lILh12IEwThhAH3tbeaY","width":413}],"place_id":"ChIJ1Qeg-rqFqkARjLlqBtRQbUY","plus_code":{"compound_code":"M8XH+76 Sofia","global_code":"8GJ5M8XH+76"},"rating":4.6,"reference":"ChIJ1Qeg-rqFqkARjLlqBtRQbUY","types":["restaurant","food","point_of_interest","establishment"],"user_ratings_total":44},{"business_status":"OPERATIONAL","formatted_address":"ul. \"20-ti april\" 19, 1606 Pette Kyosheta, Sofia","geometry":{"location":{"lat":42.693838,"lng":23.3116743},"viewport":{"northeast":{"lat":42.69522782989272,"lng":23.31310157989272},"southwest":{"lat":42.69252817010728,"lng":23.31040192010728}}},"icon":"https://maps.gstatic.com/mapfiles/place_api/icons/v1/png_71/restaurant-71.png","icon_background_color":"#FF9E67","icon_mask_base_uri":"https://maps.gstatic.com/mapfiles/place_api/icons/v2/restaurant_pinlet","name":"ресторант Хоремаг","opening_hours":{"open_now":true},"photos":[{"height":2252,"html_attributions":["<a href=\"https://maps.google.com/maps/contrib/112651577477459071868\">A Google User</a>"],"photo_reference":"AeJbb3dZeQUJJOdGgb5K9POmd8zRJwa2sRCtBnTXmn4nKaRa3NSo234nR2WONPULhlVq42LOtHVKab8Q97y5SkSqsSRX4STHnrkW_PpN5c6EI233qRqtq6-XiMzlDaQlpjNZidZfNIGj8I7TuRHt4dOJEHrgwDUc3EkQD6VJFCXjI0-sDYVh","width":4000}],"place_id":"ChIJa9UvtE-FqkARhCI6yGte5gs","plus_code":{"compound_code":"M8V6+GM Sofia","global_code":"8GJ5M8V6+GM"},"rating":4.6,"reference":"ChIJa9UvtE-FqkARhCI6yGte5gs","types":["restaurant","food","point_of_interest","establishment"],"user_ratings_total":22},{"business_status":"OPERATIONAL","formatted_address":"ul. \"Stara Planina\" 5, 1000 Sofia Center, Sofia","geometry":{"location":{"lat":42.69858139999999,"lng":23.3304546},"viewport":{"northeast":{"lat":42.69986657989272,"lng":23.33185547989272},"southwest":{"lat":42.69716692010727,"lng":23.32915582010728}}},"icon":"https://maps.gstatic.com/mapfiles/place_api/icons/v1/png_71/restaurant-71.png","icon_background_color":"#FF9E67","icon_mask_base_uri":"https://maps.gstatic.com/mapfiles/place_api/icons/v2/restaurant_pinlet","name":"Miyabi","opening_hours":{"open_now":true},"photos":[{"height":12000,"html_attributions":["<a href=\"https://maps.google.com/maps/contrib/106777677615480793650\">Ludmil Parvanov</a>"],"photo_reference":"AeJbb3dmR4xhTsaRFnFH2Sy9q3rDbEfXSPNJ72dFig3tk7396KL_XTqhtZKQtEwE9pcX80B-_5xjHOdSfw94BSNRbD8qtN_lH_yDpBjIzgMpeG4xM7hU8G70tf608gO0kj0I2GyVelC0CU9OrDPkXdU7NrNjKDG7C0meDhgOEhKiD_dhyXf3","width":9000}],"place_id":"ChIJxyhVc3CFqkAR2vFb_zE3o8I","plus_code":{"compound_code":"M8XJ+C5 Sofia","global_code":"8GJ5M8XJ+C5"},"price_level":3,"rating":4.5,"reference":"ChIJxyhVc3CFqkAR2vFb_zE3o8I","types":["restaurant","point_of_interest","food","establishment"],"user_ratings_total":1090},{"business_status":"OPERATIONAL","formatted_address":"ulitsa „Georgi S. Rakovski“ 179, 1142 Sofia Center, Sofia","geometry":{"location":{"lat":42.6875185,"lng":23.3231043},"viewport":{"northeast":{"lat":42.68886002989272,"lng":23.32438077989273},"southwest":{"lat":42.68616037010728,"lng":23.32168112010728}}},"icon":"https://maps.gstatic.com/mapfiles/place_api/icons/v1/png_71/restaurant-71.png","icon_background_color":"#FF9E67","icon_mask_base_uri":"https://maps.gstatic.com/mapfiles/place_api/icons/v2/restaurant_pinlet","name":"HAMACHI-Ni - Japanese Fish Restaurant","opening_hours":{"open_now":true},"photos":[{"height":3264,"html_attributions":["<a href=\"https://maps.google.com/maps/contrib/106519595256028728522\">Hamachi</a>"],"photo_reference":"AeJbb3e9YI9RBdTpsi-XaXpmDhJSsbQeUTkCPlBreCllP4_J8uXnAn1TD4G0SJgCHI49V6qv-goMr111fGj-CLrkFsuCmoUJYAPd48Y63_ry5JJNl1lAnASQD6LCmY4z6IK8r25xdKryfN71DWxvARbDyXNOtibG9tVEs7dMKxase15t7S_F","width":4928}],"place_id":"ChIJIzO4twmFqkARvaJ6EJTYSi8","plus_code":{"compound_code":"M8QF+26 Sofia","global_code":"8GJ5M8QF+26"},"price_level":3,"rating":4.5,"reference":"ChIJIzO4twmFqkARvaJ6EJTYSi8","types":["restaurant","point_of_interest","food","establishment"],"user_ratings_total":987},{"business_status":"OPERATIONAL","formatted_address":"ul. \"Opalchenska\" 21, 1303 Sofia Center, Sofia","geometry":{"location":{"lat":42.7008065,"lng":23.3101716},"viewport":{"northeast":{"lat":42.70214627989272,"lng":23.31158852989272},"southwest":{"lat":42.69944662010728,"lng":23.30888887010728}}},"icon":"https://maps.gstatic.com/mapfiles/place_api/icons/v1/png_71/restaurant-71.png","icon_background_color":"#FF9E67","icon_mask_base_uri":"https://maps.gstatic.com/mapfiles/place_api/icons/v2/restaurant_pinlet","name":"Jipbap Kорея - Sofia","opening_hours":{"open_now":true},"photos":[{"height":810,"html_attributions":["<a href=\"https://maps.google.com/maps/contrib/106681503559730359442\">Cup &amp; Roll - Korean restaurant</a>"],"photo_reference":"AeJbb3fda2Jj9PMRDD4tgZ_zAMi4oqT3SHNvq9h0yd93uVqVGm3x2nR-Sbxn9zrytKM6ik8EfXIUrgFIc4698Y0-B3gXixZKWC11YuN8lLuNWXIdzscb0U9T4llu2VpxoF3cdBtgSNG-wM9ZWfX5PF1XeIj6xwwwqqUsBvp0mJ-ul2FbJsCL","width":1440}],"place_id":"ChIJLdbteEOFqkARZuWhIImbhUA","plus_code":{"compound_code":"P826+83 Sofia","global_code":"8GJ5P826+83"},"price_level":2,"rating":4.5,"reference":"ChIJLdbteEOFqkARZuWhIImbhUA","types":["grocery_or_supermarket","restaurant","store","food","point_of_interest","establishment"],"user_ratings_total":459},{"business_status":"OPERATIONAL","formatted_address":"Boulevard \"Simeonovsko Shose №1, 1700 Loven Park, Sofia","geometry":{"location":{"lat":42.66252370000001,"lng":23.3401455},"viewport":{"northeast":{"lat":42.66396062989273,"lng":23.34137617989272},"southwest":{"lat":42.66126097010728,"lng":23.33867652010728}}},"icon":"https://maps.gstatic.com/mapfiles/place_api/icons/v1/png_71/restaurant-71.png","icon_background_color":"#FF9E67","icon_mask_base_uri":"https://maps.gstatic.com/mapfiles/place_api/icons/v2/restaurant_pinlet","name":"Restaurant Victoria Hunting Park","opening_hours":{"open_now":true},"photos":[{"height":922,"html_attributions":["<a href=\"https://maps.google.com/maps/contrib/103913569081427781817\">A Google User</a>"],"photo_reference":"AeJbb3eLGmddHhSMJGtf7FrZFr5DPY45gjxVa6Mud-1MAJmShqSq0ffCFo1AfZNtOTQjcnBV3Be7njWnUUFZDy-RidPr0QwfFjjPKOZl6XLSoUnmAxyi0KbNHYoUecotVBu0FD24OvwG6zkMCClOh0P9TaMN2o2n3lPfA3NB177chNvurUDG","width":1382}],"place_id":"ChIJ06HrJzaEqkARqcVg2n8Vo2s","plus_code":{"compound_code":"M87R+23 Sofia","global_code":"8GJ5M87R+23"},"price_level":3,"rating":4.4,"reference":"ChIJ06HrJzaEqkARqcVg2n8Vo2s","types":["restaurant","meal_delivery","meal_takeaway","park","food","point_of_interest","establishment"],"user_ratings_total":3317},{"business_status":"OPERATIONAL","formatted_address":"bul. \"Tsar Osvoboditel\" 10, 1000 Sofia Center, Sofia","geometry":{"location":{"lat":42.6951728,"lng":23.3288859},"viewport":{"northeast":{"lat":42.69659722989272,"lng":23.33029592989272},"southwest":{"lat":42.69389757010727,"lng":23.32759627010728}}},"icon":"https://maps.gstatic.com/mapfiles/place_api/icons/v1/png_71/restaurant-71.png","icon_background_color":"#FF9E67","icon_mask_base_uri":"https://maps.gstatic.com/mapfiles/place_api/icons/v2/restaurant_pinlet","name":"Russian Restaurant Arbat","opening_hours":{"open_now":true},"photos":[{"height":5304,"html_attributions":["<a href=\"https://maps.google.com/maps/contrib/102991121434733388039\">АРБАТ - руски ресторант</a>"],"photo_reference":"AeJbb3eGYQipoo341DDHQPJZY42aMaVTIfaUkqqAIlLkkAuyBdQ63lvPvl94e1M0D1xPREJy0PTrmtq_m48mc_zaDHQ5EpJOcdTioWJ4ZZbMUfGf_sZtJ6KBCdKHRwr0_8hgwf8eGu4yadIpiV9hPz918iUDbmFKIVeX9ZZkbJiQQY4C8Yaj","width":7952}],"place_id":"ChIJweRFXZuFqkARgTPUzWabZZ8","plus_code":{"compound_code":"M8WH+3H Sofia","global_code":"8GJ5M8WH+3H"},"price_level":2,"rating":4.4,"reference":"ChIJweRFXZuFqkARgTPUzWabZZ8","types":["restaurant","food","point_of_interest","establishment"],"user_ratings_total":1021},{"business_status":"OPERATIONAL","formatted_address":"ul. \"Slavyanska\" 24, 1000 Sofia Center, Sofia","geometry":{"location":{"lat":42.6921539,"lng":23.3304939},"viewport":{"northeast":{"lat":42.69349662989273,"lng":23.33183632989272},"southwest":{"lat":42.69079697010729,"lng":23.32913667010728}}},"icon":"https://maps.gstatic.com/mapfiles/place_api/icons/v1/png_71/restaurant-71.png","icon_background_color":"#FF9E67","icon_mask_base_uri":"https://maps.gstatic.com/mapfiles/place_api/icons/v2/restaurant_pinlet","name":"Royal Thai","opening_hours":{"open_now":true},"photos":[{"height":1536,"html_attributions":["<a href=\"https://maps.google.com/maps/contrib/115333194215047192289\">A Google User</a>"],"photo_reference":"AeJbb3eC_TULXDoZBR7DDRhsS2dQCPCTWJ6vFYPaY6Q0iu3sBki_e_x0oRhflT78YH3zJvPVH-wtQj5ArsovZHgQwDDtX88oeVqM839_jcZScEXs6w1gfQIEIz9xTLALJA_nlEIiBrms76Ob2Z4olnp9f_jjgrE22v5TRKn0_hxz5_sRVq0r","width":2048}],"place_id":"ChIJsU4Zf3SFqkAR9KQdjHCfooA","plus_code":{"compound_code":"M8RJ+R5 Sofia","global_code":"8GJ5M8RJ+R5"},"price_level":3,"rating":4.4,"reference":"ChIJsU4Zf3SFqkAR9KQdjHCfooA","types":["restaurant","food","point_of_interest","establishment"],"user_ratings_total":844},{"business_status":"OPERATIONAL","formatted_address":"Пешеходен подлез Галерия НДК, 1142 Sofia","geometry":{"location":{"lat":42.6832866,"lng":23.3213557},"viewport":{"northeast":{"lat":42.68463642989272,"lng":23.32270552989272},"southwest":{"lat":42.68193677010727,"lng":23.32000587010728}}},"icon":"https://maps.gstatic.com/mapfiles/place_api/icons/v1/png_71/restaurant-71.png","icon_background_color":"#FF9E67","icon_mask_base_uri":"https://maps.gstatic.com/mapfiles/place_api/icons/v2/restaurant_pinlet","name":"Cup&Roll center - Korean restaurant","opening_hours":{"open_now":true},"photos":[{"height":1560,"html_attributions":["<a href=\"https://maps.google.com/maps/contrib/112099227264562030963\">A Google User</a>"],"photo_reference":"AeJbb3eWw-xk_gYScl8wsG5yjT_hcZvqIenltV47bv_e9hMIWscJ3wxwRcBjuOREv1cqPqRLPJKcKt6gXuQbcqayFdZW7ej6Cx-JWFDckHPHr676lnS8ZhlbSvbfw-LNiuJwI7fk7-M0NHKNvrM_ZvEEpMMMz59wxm_7BW8R2EunGYw1zJw","width":2773}],"place_id":"ChIJx_aVxu-FqkARowQu1yC6yC0","plus_code":{"compound_code":"M8MC+8G Sofia","global_code":"8GJ5M8MC+8G"},"price_level":2,"rating":4.4,"reference":"ChIJx_aVxu-FqkARowQu1yC6yC0","types":["grocery_or_supermarket","restaurant","store","food","point_of_interest","establishment"],"user_ratings_total":550},{"business_status":"OPERATIONAL","formatted_address":"ul. \"Elemag\" 34, 1113 g.k. Izgrev, Sofia","geometry":{"location":{"lat":42.6686406,"lng":23.3439049},"viewport":{"northeast":{"lat":42.66995132989272,"lng":23.34515577989272},"southwest":{"lat":42.66725167010728,"lng":23.34245612010728}}},"icon":"https://maps.gstatic.com/mapfiles/place_api/icons/v1/png_71/restaurant-71.png","icon_background_color":"#FF9E67","icon_mask_base_uri":"https://maps.gstatic.com/mapfiles/place_api/icons/v2/restaurant_pinlet","name":"Корейски ресторант „Юн“","opening_hours":{"open_now":true},"photos":[{"height":3024,"html_attributions":["<a href=\"https://maps.google.com/maps/contrib/112606996757577931769\">조준범</a>"],"photo_reference":"AeJbb3cj06oSiadQEejx0-xFnx_k3J-rwpMpuvLXBKUIvAxguXH3z7nM7-01moaGBG37AhNATY-J2DkUwcLOzjNlz-hXNjQtPG_94OSmV_ISkOg0LrvYNr14QtiX2l9dDlRr80n8PNAEgnD1psLwqYUd6Dc7GUBvf0kaDz4wMlJHRwxjMTOP","width":4032}],"place_id":"ChIJVXs3T7WFqkARO8giF_S3nSs","plus_code":{"compound_code":"M89V+FH Sofia","global_code":"8GJ5M89V+FH"},"price_level":3,"rating":4.4,"reference":"ChIJVXs3T7WFqkARO8giF_S3nSs","types":["restaurant","food","point_of_interest","establishment"],"user_ratings_total":544},{"business_status":"OPERATIONAL","formatted_address":"ul. \"Viskyar Planina\" 15, 1164 g.k. Lozenets, Sofia","geometry":{"location":{"lat":42.6706094,"lng":23.3196435},"viewport":{"northeast":{"lat":42.67190492989273,"lng":23.32097367989272},"southwest":{"lat":42.66920527010728,"lng":23.31827402010728}}},"icon":"https://maps.gstatic.com/mapfiles/place_api/icons/v1/png_71/restaurant-71.png","icon_background_color":"#FF9E67","icon_mask_base_uri":"https://maps.gstatic.com/mapfiles/place_api/icons/v2/restaurant_pinlet","name":"Sasaguri Sushi Bar","opening_hours":{"open_now":true},"photos":[{"height":3024,"html_attributions":["<a href=\"https://maps.google.com/maps/contrib/108966976953837383481\">A Google User</a>"],"photo_reference":"AeJbb3cr7Ux_pFObRXzRGIhJze7hZdCa7ecS_AYHxyLnCWrfal-LVlJSrBuIXp6mCwWIbN5ycxck9pdcoKVT9Zjt7EUz6AWYIzZ2Ofrr_Jfdu4OO10Pr7wGo54TY6tg0qdzUG8JlkeBakyFZ7W_QN_SCV1TuxauZCN_T5a0i1E2GqP7209Yj","width":4032}],"place_id":"ChIJf-nkZLKFqkARhi2y6Rs4Upc","plus_code":{"compound_code":"M8C9+6V Sofia","global_code":"8GJ5M8C9+6V"},"price_level":2,"rating":4.4,"reference":"ChIJf-nkZLKFqkARhi2y6Rs4Upc","types":["restaurant","food","point_of_interest","establishment"],"user_ratings_total":517},{"business_status":"OPERATIONAL","formatted_address":"ul. \"Neofit Rilski\" 55, 1000 Sofia Center, Sofia","geometry":{"location":{"lat":42.6899259,"lng":23.3237424},"viewport":{"northeast":{"lat":42.69125497989272,"lng":23.32508867989272},"southwest":{"lat":42.68855532010728,"lng":23.32238902010728}}},"icon":"https://maps.gstatic.com/mapfiles/place_api/icons/v1/png_71/restaurant-71.png","icon_background_color":"#FF9E67","icon_mask_base_uri":"https://maps.gstatic.com/mapfiles/place_api/icons/v2/restaurant_pinlet","name":"Soup Me","opening_hours":{"open_now":true},"photos":[{"height":3024,"html_attributions":["<a href=\"https://maps.google.com/maps/contrib/108003487259130266237\">Ivailo Ivanov</a>"],"photo_reference":"AeJbb3dBRzDL14GwUsJn4YMxcbVI2nhEruyvRcf_xrRrILy-nRCVHHQH2o_mvNQeqwfDUZ2qbhq3BjzhN2TDcBjsEaqkju6XYePDgWU5W6LpOQdm1yOP7N5dEXKslcvaqezYH77Yy3nosaQCvu1lXGWVNKsMX2WzVbjgPtFtNcndWHcMG7jP","width":4032}],"place_id":"ChIJwwcMPQ2FqkARwOtzErmRQAw","plus_code":{"compound_code":"M8QF+XF Sofia","global_code":"8GJ5M8QF+XF"},"rating":4.4,"reference":"ChIJwwcMPQ2FqkARwOtzErmRQAw","types":["restaurant","point_of_interest","food","establishment"],"user_ratings_total":11},{"business_status":"OPERATIONAL","formatted_address":"ul. \"Dragalevska\" 1, 1407 g.k. Lozenets, Sofia","geometry":{"location":{"lat":42.6708327,"lng":23.3213119},"viewport":{"northeast":{"lat":42.67218562989272,"lng":23.32259662989272},"southwest":{"lat":42.66948597010727,"lng":23.31989697010728}}},"icon":"https://maps.gstatic.com/mapfiles/place_api/icons/v1/png_71/restaurant-71.png","icon_background_color":"#FF9E67","icon_mask_base_uri":"https://maps.gstatic.com/mapfiles/place_api/icons/v2/restaurant_pinlet","name":"Restaurant Silhouette","opening_hours":{"open_now":true},"photos":[{"height":3024,"html_attributions":["<a href=\"https://maps.google.com/maps/contrib/109380100212619182179\">Petar Valkov</a>"],"photo_reference":"AeJbb3fSe66R2f1fxMxp7HPUzHrGQkUbyFi8LzqFzmd8opbcbIxwXxjRpAtaQX6_GiJCXKbODQP3Y2OPwLESGg5fs6Su9xkl2MwL4MWr91ZXlLrHK1c98UrEqSt8XxfWo-xH9LHziEPK07kF2WDBwDn1cS-Dj5QKOZcPl1NK8p4Gsxa_UPDI","width":4032}],"place_id":"ChIJ7VOEDlWEqkARvnAzQtGhQYI","plus_code":{"compound_code":"M8CC+8G Sofia","global_code":"8GJ5M8CC+8G"},"price_level":2,"rating":4.3,"reference":"ChIJ7VOEDlWEqkARvnAzQtGhQYI","types":["restaurant","food","point_of_interest","establishment"],"user_ratings_total":1015},{"business_status":"OPERATIONAL","formatted_address":"Boulevard \"Shipchenski Prohod\" 15-17, 1113 g.k. Yavorov, Sofia","geometry":{"location":{"lat":42.6826417,"lng":23.3549382},"viewport":{"northeast":{"lat":42.68404962989273,"lng":23.35640202989272},"southwest":{"lat":42.68134997010728,"lng":23.35370237010728}}},"icon":"https://maps.gstatic.com/mapfiles/place_api/icons/v1/png_71/restaurant-71.png","icon_background_color":"#FF9E67","icon_mask_base_uri":"https://maps.gstatic.com/mapfiles/place_api/icons/v2/restaurant_pinlet","name":"Xin Guibin Lou","opening_hours":{"open_now":true},"photos":[{"height":3024,"html_attributions":["<a href=\"https://maps.google.com/maps/contrib/109585429902342926876\">anamursoft</a>"],"photo_reference":"AeJbb3f_EP6Veo5dBFrPdBsLziqzDfz62nwONwZbnQ1mnAXx2YFWmSftM_f4Vsb3x2j1SSg9m_ZYUBdhUmpwTvBJ-fNnud9C8Op66KaTvx7aws04HW5ev0CN0J38TRBc5oka8c9KAP9_rls4zc_56j7WPQil2hfVJQSK-NV9sBScgvjajPJN","width":4032}],"place_id":"ChIJ__9Pur-FqkAR72ntq9o5-LQ","plus_code":{"compound_code":"M9M3+3X Sofia","global_code":"8GJ5M9M3+3X"},"price_level":2,"rating":4.3,"reference":"ChIJ__9Pur-FqkAR72ntq9o5-LQ","types":["restaurant","point_of_interest","food","establishment"],"user_ratings_total":893},{"business_status":"OPERATIONAL","formatted_address":"ul. \"Cherkovna\" 47, 1505 Oborishte, Sofia","geometry":{"location":{"lat":42.6946563,"lng":23.3518027},"viewport":{"northeast":{"lat":42.69601097989273,"lng":23.35306032989272},"southwest":{"lat":42.69331132010728,"lng":23.35036067010727}}},"icon":"https://maps.gstatic.com/mapfiles/place_api/icons/v1/png_71/restaurant-71.png","icon_background_color":"#FF9E67","icon_mask_base_uri":"https://maps.gstatic.com/mapfiles/place_api/icons/v2/restaurant_pinlet","name":"Fu En Yuan Restaurant","opening_hours":{"open_now":true},"photos":[{"height":4032,"html_attributions":["<a href=\"https://maps.google.com/maps/contrib/112709492818926354130\">A Google User</a>"],"photo_reference":"AeJbb3df-_gMdHWmMYrr19fzvZnruCAOe5w3S5f3VuqRb9XPTkz6xd84uIHA0ZFhwHcTmbCnvdWk2WcVC-n0rwLBZpLiVaqxfeOcxOUpzXTqiGelhnQ4iuxp6viR_Uc3sO9PJKVFL6SlxBDyXU53aD4cRttdbFEM_pW4DdNfRHviDeIGQGk3","width":3024}],"place_id":"ChIJwzz9SYWFqkARMGfm0_nndoo","plus_code":{"compound_code":"M9V2+VP Sofia","global_code":"8GJ5M9V2+VP"},"price_level":1,"rating":4.3,"reference":"ChIJwzz9SYWFqkARMGfm0_nndoo","types":["restaurant","point_of_interest","food","establishment"],"user_ratings_total":594},{"business_status":"OPERATIONAL","formatted_address":"1231, ul. \"Sveti Nikolay Chudotvorets\" 69, Sofia","geometry":{"location":{"lat":42.7364241,"lng":23.307383},"viewport":{"northeast":{"lat":42.73773452989272,"lng":23.30874102989272},"southwest":{"lat":42.73503487010728,"lng":23.30604137010728}}},"icon":"https://maps.gstatic.com/mapfiles/place_api/icons/v1/png_71/restaurant-71.png","icon_background_color":"#FF9E67","icon_mask_base_uri":"https://maps.gstatic.com/mapfiles/place_api/icons/v2/restaurant_pinlet","name":"Ming Yuan","opening_hours":{"open_now":true},"photos":[{"height":2268,"html_attributions":["<a href=\"https://maps.google.com/maps/contrib/115474826911535577622\">Станимир Илчев</a>"],"photo_reference":"AeJbb3c_N1lRSnH_PgGskVyrvI3pVN6edj4arnrqd_-H_oX6x1ewxEuHpbQ_MviiulAX6DouMOVdQkaabO0NGXmT0oGl7L2LezXozbH2sRDywj--D6EEgm8am6pNgR4Og71vgMcfSETQgoKlyZ5Xb3ZYrKcALtA_piVaW2YCJAmn2aSZX4Xw","width":4032}],"place_id":"ChIJDeuqYyOQqkARv5QwrZdzpTc","plus_code":{"compound_code":"P8P4+HX Sofia","global_code":"8GJ5P8P4+HX"},"price_level":2,"rating":4.3,"reference":"ChIJDeuqYyOQqkARv5QwrZdzpTc","types":["restaurant","food","point_of_interest","establishment"],"user_ratings_total":192},{"business_status":"OPERATIONAL","formatted_address":"ul. \"Perunika\" 1-А, 1614 Gorna Banya, Sofia","geometry":{"location":{"lat":42.6778889,"lng":23.2369266},"viewport":{"northeast":{"lat":42.67927462989272,"lng":23.23824002989272},"southwest":{"lat":42.67657497010728,"lng":23.23554037010727}}},"icon":"https://maps.gstatic.com/mapfiles/place_api/icons/v1/png_71/restaurant-71.png","icon_background_color":"#FF9E67","icon_mask_base_uri":"https://maps.gstatic.com/mapfiles/place_api/icons/v2/restaurant_pinlet","name":"Momo's Kitchen","opening_hours":{"open_now":true},"photos":[{"height":1392,"html_attributions":["<a href=\"https://maps.google.com/maps/contrib/105895126952164504811\">A Google User</a>"],"photo_reference":"AeJbb3c3zcYwKRi3toCwD4Bj-KIveyjNKezWPmqdIn1_Z5G7hpBslM_5OOjVnlIZPuX-7dofcqLFqcgBp97lnkyVQsEo66qcU2UPU5VmNHEtlKjeKlyStQbNbmgWBXGmoEzcHe0_lijt8qFoZEfO8bMDvvDtWlZqIloYDmcUNSv0dlIIzWYE","width":1077}],"place_id":"ChIJX72X5K6bqkART4LCBjmnaEE","plus_code":{"compound_code":"M6HP+4Q Sofia","global_code":"8GJ5M6HP+4Q"},"rating":4.3,"reference":"ChIJX72X5K6bqkART4LCBjmnaEE","types":["restaurant","food","point_of_interest","establishment"],"user_ratings_total":125},{"business_status":"OPERATIONAL","formatted_address":"bul. \"Petko Karavelov\" 12, 1421 Ivan Vazov, Sofia","geometry":{"location":{"lat":42.6753268,"lng":23.3109897},"viewport":{"northeast":{"lat":42.67675287989273,"lng":23.31216062989272},"southwest":{"lat":42.67405322010728,"lng":23.30946097010728}}},"icon":"https://maps.gstatic.com/mapfiles/place_api/icons/v1/png_71/restaurant-71.png","icon_background_color":"#FF9E67","icon_mask_base_uri":"https://maps.gstatic.com/mapfiles/place_api/icons/v2/restaurant_pinlet","name":"Цър Пър","photos":[{"height":3366,"html_attributions":["<a href=\"https://maps.google.com/maps/contrib/117063745313381491319\">elena taran</a>"],"photo_reference":"AeJbb3fkvU1mo0ntU7tSmYZghQcaHT4cDZkv47YSaMzu9wenVIfKIexKPDAJAIP_dVwr8Vm4vkklAOJG_q4jCbKrX5Snp14mXl-57ibC48wOQo2ById0aCYt8jSqXitWy3Xt0VxeixaRdb-M8QJV1khu4vpyZvjyunc99vjr5BA25VywBC_7","width":5984}],"place_id":"ChIJ70ykETeFqkARDbDYSqzPs-E","plus_code":{"compound_code":"M8G6+49 Sofia","global_code":"8GJ5M8G6+49"},"rating":4.3,"reference":"ChIJ70ykETeFqkARDbDYSqzPs-E","types":["restaurant","point_of_interest","food","establishment"],"user_ratings_total":96},{"business_status":"OPERATIONAL","formatted_address":"bul. \"Vitosha\" 8, 1000 Sofia Center, Sofia","geometry":{"location":{"lat":42.6944362,"lng":23.3204243},"viewport":{"northeast":{"lat":42.69575372989272,"lng":23.32197927989272},"southwest":{"lat":42.69305407010727,"lng":23.31927962010728}}},"icon":"https://maps.gstatic.com/mapfiles/place_api/icons/v1/png_71/restaurant-71.png","icon_background_color":"#FF9E67","icon_mask_base_uri":"https://maps.gstatic.com/mapfiles/place_api/icons/v2/restaurant_pinlet","name":"Wok to Walk","opening_hours":{"open_now":true},"photos":[{"height":1536,"html_attributions":["<a href=\"https://maps.google.com/maps/contrib/117711218848903384323\">Wok to Walk</a>"],"photo_reference":"AeJbb3fWm7r3p7amk8unWnEp20b3a4ZyRnbzn9JibKtbwlzSg_7EDZaMtEwfP5q_5KKxUeYxU7n_z2SRbbgxn0PiS0k7AQZShZuE3V2zdBIR8jl4SIlSrOuuc6s28M8HB_ZPwcaNQBzyT9E4LK26JVUWr947xaJKvDasA3ALZeVzaTpXaglw","width":2048}],"place_id":"ChIJXRrqW2yFqkAR1dC8SSSJWoA","plus_code":{"compound_code":"M8VC+Q5 Sofia","global_code":"8GJ5M8VC+Q5"},"price_level":2,"rating":4.2,"reference":"ChIJXRrqW2yFqkAR1dC8SSSJWoA","types":["meal_takeaway","restaurant","food","point_of_interest","establishment"],"user_ratings_total":1912},{"business_status":"OPERATIONAL","formatted_address":"ulitsa \"Kestenova gora\" 19, 1404 Motopista, Sofia","geometry":{"location":{"lat":42.6706146,"lng":23.2952057},"viewport":{"northeast":{"lat":42.67200812989272,"lng":23.29648412989272},"southwest":{"lat":42.66930847010727,"lng":23.29378447010728}}},"icon":"https://maps.gstatic.com/mapfiles/place_api/icons/v1/png_71/restaurant-71.png","icon_background_color":"#FF9E67","icon_mask_base_uri":"https://maps.gstatic.com/mapfiles/place_api/icons/v2/restaurant_pinlet","name":"Meng Fu Yuan","opening_hours":{"open_now":true},"photos":[{"height":1080,"html_attributions":["<a href=\"https://maps.google.com/maps/contrib/108737491811405875459\">Петър Петров</a>"],"photo_reference":"AeJbb3eYeIsBAbcvhMIHoV3Zq0wgBuwqC3eDWWuzvUhCPiZeNqDee07o_FqCiCrRA4Q2m4iJhLDUORtp3rEiMV4jnYxFOT0xrrcdB_OYRgMpUO1-O-tMA5t2OvP31nDOFzy_kp7uU69dglcFwaGIjLFYXvkne0fTa9NCBZbxuIF_5Bj9Zp7G","width":1920}],"place_id":"ChIJU3-gWeaEqkARx9R0lTKMrEQ","plus_code":{"compound_code":"M7CW+63 Sofia","global_code":"8GJ5M7CW+63"},"price_level":1,"rating":4.2,"reference":"ChIJU3-gWeaEqkARx9R0lTKMrEQ","types":["restaurant","food","point_of_interest","establishment"],"user_ratings_total":1335},{"business_status":"OPERATIONAL","formatted_address":"ul. \"Stefan Karadzha\" 12Б, 1000 Sofia Center, Sofia","geometry":{"location":{"lat":42.69277779999999,"lng":23.3247222},"viewport":{"northeast":{"lat":42.69417062989272,"lng":23.32613357989272},"southwest":{"lat":42.69147097010728,"lng":23.32343392010728}}},"icon":"https://maps.gstatic.com/mapfiles/place_api/icons/v1/png_71/restaurant-71.png","icon_background_color":"#FF9E67","icon_mask_base_uri":"https://maps.gstatic.com/mapfiles/place_api/icons/v2/restaurant_pinlet","name":"Umamido Sofia","opening_hours":{"open_now":true},"photos":[{"height":1960,"html_attributions":["<a href=\"https://maps.google.com/maps/contrib/102406309387478705236\">Simich</a>"],"photo_reference":"AeJbb3ecwXfSwMi8VdfXd1cCxiJgImpwxTWMqAsa4_RVaLx9bozW1zNsWti5QPMmuWBBuTOU6zq-0enDmkJKO5SU0OaF26poth5IVtmUAXcLEEp6DJNaYF8QGxU4AXtR29DfLSlTvpCHOOQnQC0-VKhER7L8DSTg2FkjU1Ooo45SU4MePKwX","width":4032}],"place_id":"ChIJE1IVj3KFqkARDlmA5s0Vbk0","plus_code":{"compound_code":"M8VF+4V Sofia","global_code":"8GJ5M8VF+4V"},"price_level":3,"rating":4.2,"reference":"ChIJE1IVj3KFqkARDlmA5s0Vbk0","types":["restaurant","point_of_interest","food","establishment"],"user_ratings_total":945},{"business_status":"OPERATIONAL","formatted_address":"ul. \"Nikola Gabrovski\" 100, 1700 Studentski Kompleks, Sofia","geometry":{"location":{"lat":42.6585417,"lng":23.3481778},"viewport":{"northeast":{"lat":42.65992912989272,"lng":23.34963257989272},"southwest":{"lat":42.65722947010727,"lng":23.34693292010728}}},"icon":"https://maps.gstatic.com/mapfiles/place_api/icons/v1/png_71/restaurant-71.png","icon_background_color":"#FF9E67","icon_mask_base_uri":"https://maps.gstatic.com/mapfiles/place_api/icons/v2/restaurant_pinlet","name":"Yi Dien Yuan Restaurant","opening_hours":{"open_now":true},"photos":[{"height":800,"html_attributions":["<a href=\"https://maps.google.com/maps/contrib/109480539541225071582\">И Диен Юан „Райска градина“ китайски ресторант</a>"],"photo_reference":"AeJbb3dlMT1lVnloRruRcREEcfEEzUbxAsMLHVQV8CQklQEiBJ2XHdq2XRWBKDr4IGrBw05H3sOFIWnCagqUBe35nEhg-5YnUbu9cofi3qSZdg0LZCl-8p3fyz_bAzGCGXvO8mambT0Zhm--C3byM9jNtFcddgV7yu6gZB7xSRV8LuRN5so3","width":800}],"place_id":"ChIJK_qqcTCEqkARu3_X9TjMhI8","plus_code":{"compound_code":"M85X+C7 Sofia","global_code":"8GJ5M85X+C7"},"price_level":1,"rating":4.2,"reference":"ChIJK_qqcTCEqkARu3_X9TjMhI8","types":["restaurant","point_of_interest","food","establishment"],"user_ratings_total":655},{"business_status":"OPERATIONAL","formatted_address":"улица „проф. Георги Златарски“ 5 Кв.витоша бл.9 (на гърба, 1700 Sofia","geometry":{"location":{"lat":42.6569659,"lng":23.3393813},"viewport":{"northeast":{"lat":42.65826542989272,"lng":23.34090827989272},"southwest":{"lat":42.65556577010728,"lng":23.33820862010728}}},"icon":"https://maps.gstatic.com/mapfiles/place_api/icons/v1/png_71/restaurant-71.png","icon_background_color":"#FF9E67","icon_mask_base_uri":"https://maps.gstatic.com/mapfiles/place_api/icons/v2/restaurant_pinlet","name":"Korean Restaurant Korea","opening_hours":{"open_now":true},"photos":[{"height":3024,"html_attributions":["<a href=\"https://maps.google.com/maps/contrib/105394294614792390457\">O CAFE BAR AND LOUNGE</a>"],"photo_reference":"AeJbb3c4k83ZpbJk7Km-ZFdNGk8XrYpbvmqQ9og_ZNhBnimKcoZw3dRWtFcSXfb991REenH5GjogkH9ONLbOZIe13gp6UkTT9LeM02r0GVqf14mn-U1PyClbJY80xUZjK13hXF6_IHHm_rZLKg_FGKhJuASuZQ631RYbFa-uofi6jCO_tIc8","width":4032}],"place_id":"ChIJ3X1-BDmEqkARTddS9mDn3hc","plus_code":{"compound_code":"M84Q+QQ Sofia","global_code":"8GJ5M84Q+QQ"},"price_level":3,"rating":4.2,"reference":"ChIJ3X1-BDmEqkARTddS9mDn3hc","types":["restaurant","food","point_of_interest","establishment"],"user_ratings_total":249},{"business_status":"OPERATIONAL","formatted_address":"ul. \"Vezhen\" 12A, 1000 g.k. Lozenets, Sofia","geometry":{"location":{"lat":42.675498,"lng":23.319683},"viewport":{"northeast":{"lat":42.67679997989271,"lng":23.32105742989272},"southwest":{"lat":42.67410032010727,"lng":23.31835777010728}}},"icon":"https://maps.gstatic.com/mapfiles/place_api/icons/v1/png_71/restaurant-71.png","icon_background_color":"#FF9E67","icon_mask_base_uri":"https://maps.gstatic.com/mapfiles/place_api/icons/v2/restaurant_pinlet","name":"Нишко пиво и скара","opening_hours":{"open_now":true},"photos":[{"height":3024,"html_attributions":["<a href=\"https://maps.google.com/maps/contrib/105562365301634579191\">Bobi Koralski</a>"],"photo_reference":"AeJbb3eth7zRlqiS_Cx_PzcLSSiJzMQnVRRfXQ2_5Crd5fy7qSI26c97w_SHMQpuLzzpF0veQgUeYycExSNLaP0fuEoxFKtt97b5KxgeBq5dgeZbTARvsNgpxbvzZbb7zL0XbqmX8q2Nh0GMDZEzFeVwiO2SIBKd7z79PTDC65RmE42qNX0C","width":4032}],"place_id":"ChIJPSskeY2DqkARo0KYwBqS4-w","plus_code":{"compound_code":"M8G9+5V Sofia","global_code":"8GJ5M8G9+5V"},"rating":4.2,"reference":"ChIJPSskeY2DqkARo0KYwBqS4-w","types":["restaurant","food","point_of_interest","establishment"],"user_ratings_total":32},{"business_status":"OPERATIONAL","formatted_address":"1700 Studentski Kompleks, Sofia","geometry":{"location":{"lat":42.6568474,"lng":23.3394894},"viewport":{"northeast":{"lat":42.65816322989272,"lng":23.34093022989272},"southwest":{"lat":42.65546357010727,"lng":23.33823057010728}}},"icon":"https://maps.gstatic.com/mapfiles/place_api/icons/v1/png_71/restaurant-71.png","icon_background_color":"#FF9E67","icon_mask_base_uri":"https://maps.gstatic.com/mapfiles/place_api/icons/v2/restaurant_pinlet","name":"소피아 한국식당","opening_hours":{"open_now":true},"photos":[{"height":2250,"html_attributions":["<a href=\"https://maps.google.com/maps/contrib/117724409788219082560\">TAERYONG LEE</a>"],"photo_reference":"AeJbb3dpSUE4xHw7altkpqOPZdJansLou42BtFZKsJgaCaY81PJINWYRvZlNJMeE1JGvc1obIF59Zzdq22e2_g4RatY2HV6--UK7vSQg0mhJGKhWbAd7fxj2-gY57EnOQGtD2LUf_fZo5xCqsNcfzbQ_Ec6nhYtoP2tygzZUim7oosXiCI2r","width":4000}],"place_id":"ChIJSy4sDjmEqkARP571Qn9p18M","plus_code":{"compound_code":"M84Q+PQ Sofia","global_code":"8GJ5M84Q+PQ"},"rating":4.2,"reference":"ChIJSy4sDjmEqkARP571Qn9p18M","types":["restaurant","food","point_of_interest","establishment"],"user_ratings_total":17},{"business_status":"OPERATIONAL","formatted_address":"Блок 59, кв. вх. Б, 1734 Sofia","geometry":{"location":{"lat":42.64303,"lng":23.338121},"viewport":{"northeast":{"lat":42.64446682989272,"lng":23.33948192989272},"southwest":{"lat":42.64176717010727,"lng":23.33678227010728}}},"icon":"https://maps.gstatic.com/mapfiles/place_api/icons/v1/png_71/restaurant-71.png","icon_background_color":"#FF9E67","icon_mask_base_uri":"https://maps.gstatic.com/mapfiles/place_api/icons/v2/restaurant_pinlet","name":"Kashtata (The House)","opening_hours":{"open_now":true},"photos":[{"height":2268,"html_attributions":["<a href=\"https://maps.google.com/maps/contrib/103996535875561170498\">Альоша Любенов</a>"],"photo_reference":"AeJbb3fLRxQlFsGELDUqLJOkUtB7Pd1-7at4qR89X2nfTq-vBhsRf88eWbgQXdgsIPzY7zkxSiM1Apneb4u3zQXvjicMrwFLSe2g9JQrXi2oxia6LC0ifhGbkx3cgPpmYSCJie0y1vsWZfNTNLihOJpdIZXzqB4AgMniAkDBuuTzmNb7Dhyk","width":4032}],"place_id":"ChIJc4xJvBqEqkAReg8RvgTmRps","plus_code":{"compound_code":"J8VQ+66 Sofia","global_code":"8GJ5J8VQ+66"},"price_level":2,"rating":4.1,"reference":"ChIJc4xJvBqEqkAReg8RvgTmRps","types":["restaurant","point_of_interest","food","establishment"],"user_ratings_total":559},{"business_status":"OPERATIONAL","formatted_address":"ul. \"Poruchik Georhi Kyumurdzhiev\" 8, 1505 g.k. Levski G, Sofia","geometry":{"location":{"lat":42.7155865,"lng":23.3754428},"viewport":{"northeast":{"lat":42.71695687989273,"lng":23.37688762989272},"southwest":{"lat":42.71425722010728,"lng":23.37418797010728}}},"icon":"https://maps.gstatic.com/mapfiles/place_api/icons/v1/png_71/restaurant-71.png","icon_background_color":"#FF9E67","icon_mask_base_uri":"https://maps.gstatic.com/mapfiles/place_api/icons/v2/restaurant_pinlet","name":"Ресторант Наздраве с Приятели , Храна за Вкъщи София, Доставка на Храна София, Обедно Меню","opening_hours":{"open_now":false},"photos":[{"height":611,"html_attributions":["<a href=\"https://maps.google.com/maps/contrib/100339235812750246652\">A Google User</a>"],"photo_reference":"AeJbb3d-kvB_kjIW1VMx0HZKIBOUpeUN4dCQNZD8j3HrrEZN-BrPsE7DHzFQ3j00HFwd4VvC2pp6-1E2313zLVWrqWD04TLjo-jaB2nIOOCXs3bwKgbUmfDDviiY3e7KFFW1TFzG7vBM3DsqRMw2OT1xCZYNPR4QSFKCUifIvwuvgxPK-n3I","width":1020}],"place_id":"ChIJcbjosYSFqkAR5WOAdSqMzDw","plus_code":{"compound_code":"P98G+65 Sofia","global_code":"8GJ5P98G+65"},"price_level":1,"rating":4.1,"reference":"ChIJcbjosYSFqkAR5WOAdSqMzDw","types":["meal_takeaway","park","restaurant","food","point_of_interest","establishment"],"user_ratings_total":347},{"business_status":"OPERATIONAL","formatted_address":"ul. \"Taras Shevchenko\" 5А, 1113 g.k. Iztok, Sofia","geometry":{"location":{"lat":42.6713301,"lng":23.3600544},"viewport":{"northeast":{"lat":42.67273092989272,"lng":23.36134447989272},"southwest":{"lat":42.67003127010728,"lng":23.35864482010728}}},"icon":"https://maps.gstatic.com/mapfiles/place_api/icons/v1/png_71/restaurant-71.png","icon_background_color":"#FF9E67","icon_mask_base_uri":"https://maps.gstatic.com/mapfiles/place_api/icons/v2/restaurant_pinlet","name":"Restaurant \"Genoa\" part of the complex East","opening_hours":{"open_now":true},"photos":[{"height":3456,"html_attributions":["<a href=\"https://maps.google.com/maps/contrib/100538210725735434996\">Ресторант Генуа, гр.София, ул. Тарас Шевченко 5а</a>"],"photo_reference":"AeJbb3coW2L78M2JyFWYoDMRML3cd_XWscoAGeJ-3CKesZfFL4a90GkQcEYQhMKcc-pxWHVzwOG21PXeOAiynuItIzMyixSRShn5tiQPh45Xa6XJlMCad2SgF08Ap77I9v6f2wGW2dqY42uJiYdeFzUXtlU4gWKQLBS4iEak10JOxoj6GLJW","width":5184}],"place_id":"ChIJQ_YdSs6FqkARglMive5RzhA","plus_code":{"compound_code":"M9C6+G2 Sofia","global_code":"8GJ5M9C6+G2"},"price_level":2,"rating":4.1,"reference":"ChIJQ_YdSs6FqkARglMive5RzhA","types":["restaurant","point_of_interest","food","establishment"],"user_ratings_total":258},{"business_status":"OPERATIONAL","formatted_address":"ul. \"Pozitano\" 16, 1000 Sofia Center, Sofia","geometry":{"location":{"lat":42.696217,"lng":23.318993},"viewport":{"northeast":{"lat":42.69748842989272,"lng":23.32031827989272},"southwest":{"lat":42.69478877010727,"lng":23.31761862010728}}},"icon":"https://maps.gstatic.com/mapfiles/place_api/icons/v1/png_71/restaurant-71.png","icon_background_color":"#FF9E67","icon_mask_base_uri":"https://maps.gstatic.com/mapfiles/place_api/icons/v2/restaurant_pinlet","name":"East Chinese Restaurant","opening_hours":{"open_now":true},"photos":[{"height":720,"html_attributions":["<a href=\"https://maps.google.com/maps/contrib/116411149152591407999\">A Google User</a>"],"photo_reference":"AeJbb3efngbEUdkLSOPvMNiyuJqC2sB0zFTkHBIbeZSaWaiGNDOab_0sH7SKmMQjlLjrzfCNOrMTUBi5B6KA-agUPR6TIOEwtQHbiu7tpevOkO4cMsYc8t2pVbsMHZ1gQbnz8yx1urSJJ8y8aF9mrZWBzo25cHp7QtWGGYRVg8mh9B2w56oE","width":960}],"place_id":"ChIJo5Zn-muFqkARD1ECyd8-JWo","plus_code":{"compound_code":"M8W9+FH Sofia","global_code":"8GJ5M8W9+FH"},"rating":4.1,"reference":"ChIJo5Zn-muFqkARD1ECyd8-JWo","types":["restaurant","point_of_interest","food","establishment"],"user_ratings_total":119},{"business_status":"OPERATIONAL","formatted_address":"ul. \"Pozitano\" 16, 1000 Sofia Center, Sofia","geometry":{"location":{"lat":42.6961555,"lng":23.31896},"viewport":{"northeast":{"lat":42.69748382989271,"lng":23.32030262989272},"southwest":{"lat":42.69478417010727,"lng":23.31760297010727}}},"icon":"https://maps.gstatic.com/mapfiles/place_api/icons/v1/png_71/restaurant-71.png","icon_background_color":"#FF9E67","icon_mask_base_uri":"https://maps.gstatic.com/mapfiles/place_api/icons/v2/restaurant_pinlet","name":"Altay","opening_hours":{"open_now":true},"photos":[{"height":768,"html_attributions":["<a href=\"https://maps.google.com/maps/contrib/116411149152591407999\">A Google User</a>"],"photo_reference":"AeJbb3cs2VpLJYWGipuNcY44RtpBtVMUdXLtwFYZtnFit67hY2pcMdFrFzn7WC84lSQ8q6-0Vnvr3-T6gpgcRFXnU5dCUCMCc3dGvFIcuLFVD9leq9n63Y75MyCOD04VxGoFVmoKnbDKipJybamzUfH6aMT1SMN6TTIKotUFfYcCKyIIZHIV","width":1024}],"place_id":"ChIJFTtx-muFqkAR4Czpknwir0c","plus_code":{"compound_code":"M8W9+FH Sofia","global_code":"8GJ5M8W9+FH"},"price_level":2,"rating":4.1,"reference":"ChIJFTtx-muFqkAR4Czpknwir0c","types":["restaurant","food","point_of_interest","establishment"],"user_ratings_total":93},{"business_status":"OPERATIONAL","formatted_address":"ulitsa \"Sveti Kipriyan\" 44, 1799 g.k. Mladost 2, Sofia","geometry":{"location":{"lat":42.6432606,"lng":23.3662887},"viewport":{"northeast":{"lat":42.64461967989271,"lng":23.36777502989272},"southwest":{"lat":42.64192002010727,"lng":23.36507537010728}}},"icon":"https://maps.gstatic.com/mapfiles/place_api/icons/v1/png_71/restaurant-71.png","icon_background_color":"#FF9E67","icon_mask_base_uri":"https://maps.gstatic.com/mapfiles/place_api/icons/v2/restaurant_pinlet","name":"Хуа Ту","opening_hours":{"open_now":true},"photos":[{"height":3024,"html_attributions":["<a href=\"https://maps.google.com/maps/contrib/106035040306001279025\">Kaloyan Savov</a>"],"photo_reference":"AeJbb3fVoJE9pLEqO1_Uq72qLcgzD1WYmf22GHa7jSqKLc554EvURKVLjBqR9hAXkO4-jQhJnOGGPHE8e7_d42kXJ5gT5phJVinggZF2K9VsZyTaWJaaoJIRZRcDdsp7Nt1awI2_tAYZeheSo-GV_TrrRcQIbz8IiQ0KAYkYwMH9RdEsXaOy","width":4032}],"place_id":"ChIJa9ajbxaHqkARilJVIfiryq8","plus_code":{"compound_code":"J9V8+8G Sofia","global_code":"8GJ5J9V8+8G"},"rating":4.1,"reference":"ChIJa9ajbxaHqkARilJVIfiryq8","types":["restaurant","point_of_interest","food","establishment"],"user_ratings_total":46},{"business_status":"OPERATIONAL","formatted_address":"Shipka Street 46, 1000 Sofia Center, Sofia","geometry":{"location":{"lat":42.692694,"lng":23.3430752},"viewport":{"northeast":{"lat":42.69409627989271,"lng":23.34444432989272},"southwest":{"lat":42.69139662010727,"lng":23.34174467010728}}},"icon":"https://maps.gstatic.com/mapfiles/place_api/icons/v1/png_71/restaurant-71.png","icon_background_color":"#FF9E67","icon_mask_base_uri":"https://maps.gstatic.com/mapfiles/place_api/icons/v2/restaurant_pinlet","name":"Solo by Lili Pham","opening_hours":{"open_now":true},"photos":[{"height":3456,"html_attributions":["<a href=\"https://maps.google.com/maps/contrib/100116592184784314521\">A Google User</a>"],"photo_reference":"AeJbb3fsmZtQhCn-65KSFsXdHNeVDqiENp9nZ_OVGAgiuPURbEvszZ9LtUS5EJeu2D-4jgnd3OO6Hr6ESzCfSQcLAbLemDXKASBB4J8XVmsClbLcK2sbd4Ff36O4jJG-8gowGCtIEkLW1zYblQnuLaRiBX7kFBh0xtXOa7c-zV_oHKfF0Iex","width":5184}],"place_id":"ChIJZxXSuE-FqkARdpXEASWEvVo","plus_code":{"compound_code":"M8VV+36 Sofia","global_code":"8GJ5M8VV+36"},"rating":4,"reference":"ChIJZxXSuE-FqkARdpXEASWEvVo","types":["restaurant","bar","point_of_interest","food","establishment"],"user_ratings_total":366},{"business_status":"OPERATIONAL","formatted_address":"ul. \"Angista\" 6, 1527 Sofia Center, Sofia","geometry":{"location":{"lat":42.7038713,"lng":23.3338645},"viewport":{"northeast":{"lat":42.70517092989272,"lng":23.33515302989272},"southwest":{"lat":42.70247127010728,"lng":23.33245337010728}}},"icon":"https://maps.gstatic.com/mapfiles/place_api/icons/v1/png_71/restaurant-71.png","icon_background_color":"#FF9E67","icon_mask_base_uri":"https://maps.gstatic.com/mapfiles/place_api/icons/v2/restaurant_pinlet","name":"Restaurant SEVENTH LEVEL","opening_hours":{"open_now":true},"photos":[{"height":2448,"html_attributions":["<a href=\"https://maps.google.com/maps/contrib/102068551013603826449\">Ресторант СЕДМО НИВО</a>"],"photo_reference":"AeJbb3fjs6Bq8zJwKF1yzqLEcttU0TeucllCyJz7Vk0wNTvgDglrWdqYsFBqQKUk99b37kLo9VPIR3Bq_EkqfCe2ml1y0FekJm6p_pS9fCmxOeWP3a5Es0LCzHIXBckf77YEuha1x6a5rMQ9aeQomPv1eNrPW5Q8CGoW8TUHFTSmlrqwrhxo","width":3264}],"place_id":"ChIJn1hvtnyFqkAR7d2kG-PUZQs","plus_code":{"compound_code":"P83M+GG Sofia","global_code":"8GJ5P83M+GG"},"rating":4,"reference":"ChIJn1hvtnyFqkAR7d2kG-PUZQs","types":["restaurant","food","point_of_interest","establishment"],"user_ratings_total":5},{"business_status":"OPERATIONAL","formatted_address":"ul. \"General Asen Nikolov\" 917, 1324 zh.k. Lyulin 9, Sofia","geometry":{"location":{"lat":42.7199303,"lng":23.2638881},"viewport":{"northeast":{"lat":42.72127997989271,"lng":23.26523807989272},"southwest":{"lat":42.71858032010727,"lng":23.26253842010728}}},"icon":"https://maps.gstatic.com/mapfiles/place_api/icons/v1/png_71/restaurant-71.png","icon_background_color":"#FF9E67","icon_mask_base_uri":"https://maps.gstatic.com/mapfiles/place_api/icons/v2/restaurant_pinlet","name":"Българска скара Боби","opening_hours":{"open_now":true},"photos":[{"height":1800,"html_attributions":["<a href=\"https://maps.google.com/maps/contrib/111784462058279563489\">A Google User</a>"],"photo_reference":"AeJbb3eFJ6H0xbOEMtR-7QviS1MsSfIueIP4b4g6eyBUaxKbLx0yKPlkOAhr52kJBEHqXRuGHd7KlO2uDV5cpgLMspkCfCYVBrI224SBfjS252mI_9T9ajKDnQujEdaYtIJmm_-sGC-fNJxUiP1Z-xgiB0rOL3Kz169cV-RBb1EeMU-OWrYo","width":4000}],"place_id":"ChIJtaLX6w2bqkARX5bnUqPq778","plus_code":{"compound_code":"P797+XH Sofia","global_code":"8GJ5P797+XH"},"rating":4,"reference":"ChIJtaLX6w2bqkARX5bnUqPq778","types":["restaurant","point_of_interest","food","establishment"],"user_ratings_total":1},{"business_status":"OPERATIONAL","formatted_address":"ул. Н. Рилски #68, 1000 Sofia Center, Sofia","geometry":{"location":{"lat":42.6897125,"lng":23.3243618},"viewport":{"northeast":{"lat":42.69111727989272,"lng":23.32571867989272},"southwest":{"lat":42.68841762010727,"lng":23.32301902010727}}},"icon":"https://maps.gstatic.com/mapfiles/place_api/icons/v1/png_71/restaurant-71.png","icon_background_color":"#FF9E67","icon_mask_base_uri":"https://maps.gstatic.com/mapfiles/place_api/icons/v2/restaurant_pinlet","name":"Ugo","opening_hours":{"open_now":true},"photos":[{"height":1366,"html_attributions":["<a href=\"https://maps.google.com/maps/contrib/109772859837671756204\">Gogo Kehayov</a>"],"photo_reference":"AeJbb3cZNCbBv063vyxzf1myyTrLkUSLamNbLo7KdZxNbLO7gGPZ2qN1Dk1M_0a3BrDnmmdcam2YkRUYlKqo22-Ic8m59gCZtOl_ZgNV_MAJ1VFcXdLiZt8rscpD9XEHEFkWvJDdUNHKI76GsL44MLzm9lq9LlafqFTbKI4ELyuRvvPCosZR","width":2048}],"place_id":"ChIJHcxRIA2FqkARZLHqSWGypSY","plus_code":{"compound_code":"M8QF+VP Sofia","global_code":"8GJ5M8QF+VP"},"price_level":2,"rating":3.9,"reference":"ChIJHcxRIA2FqkARZLHqSWGypSY","types":["restaurant","point_of_interest","food","establishment"],"user_ratings_total":766},{"business_status":"OPERATIONAL","formatted_address":"ul. \"San Stefano\" 3, 1504 Sofia Center, Sofia","geometry":{"location":{"lat":42.6960913,"lng":23.3401557},"viewport":{"northeast":{"lat":42.69744972989272,"lng":23.34142167989272},"southwest":{"lat":42.69475007010728,"lng":23.33872202010728}}},"icon":"https://maps.gstatic.com/mapfiles/place_api/icons/v1/png_71/restaurant-71.png","icon_background_color":"#FF9E67","icon_mask_base_uri":"https://maps.gstatic.com/mapfiles/place_api/icons/v2/restaurant_pinlet","name":"Am-Gul","opening_hours":{"open_now":true},"photos":[{"height":1600,"html_attributions":["<a href=\"https://maps.google.com/maps/contrib/102113090862279669291\">ресторант АМ-ГЪЛ</a>"],"photo_reference":"AeJbb3ejk3ZMM1SX3Pv4DR4Xhwf3d-ayIUV3x7I_aVP9FubAsm__iNcjL-4lxSBVmXwf_t4E0ftGp93L8AuLAO5YEBmCCgMgu_c6ij4BXTwd8T-zMLh5nDamJU0C4Q9tzC4_yahsVvPtBXl8bRX7tLMTyr9E2HXwFUcLcAU5H8o2w9uiNzvR","width":1135}],"place_id":"ChIJadz75HeFqkARN0NrX-Fkk9c","plus_code":{"compound_code":"M8WR+C3 Sofia","global_code":"8GJ5M8WR+C3"},"price_level":2,"rating":3.9,"reference":"ChIJadz75HeFqkARN0NrX-Fkk9c","types":["restaurant","food","point_of_interest","establishment"],"user_ratings_total":593},{"business_status":"OPERATIONAL","formatted_address":"Slavyanska St 3, 1000 Sofia","geometry":{"location":{"lat":42.6935486,"lng":23.3283916},"viewport":{"northeast":{"lat":42.69486667989273,"lng":23.32970757989272},"southwest":{"lat":42.69216702010728,"lng":23.32700792010727}}},"icon":"https://maps.gstatic.com/mapfiles/place_api/icons/v1/png_71/restaurant-71.png","icon_background_color":"#FF9E67","icon_mask_base_uri":"https://maps.gstatic.com/mapfiles/place_api/icons/v2/restaurant_pinlet","name":"Chinese Dragon Restaurant","opening_hours":{"open_now":true},"photos":[{"height":3024,"html_attributions":["<a href=\"https://maps.google.com/maps/contrib/117372132860367809720\">oasischuan</a>"],"photo_reference":"AeJbb3dRQ9XlkpqHhUD5eT1xUhnK3iMHRPDeiDyvIiYdbFZTrpAlZmDbEKB5VNkeIAgVTi5rV1LXBKqflf-pN3AB9OKNxwDA2SmP320IXh68ShA40fAar_p7svV5-iJa7wxJchilPQrQCuSNzCfTHykySTXjPyz5kPuM48iFggwTci2k1UP8","width":4032}],"place_id":"ChIJsxELynOFqkAREGHGdmTX97g","plus_code":{"compound_code":"M8VH+C9 Sofia","global_code":"8GJ5M8VH+C9"},"price_level":1,"rating":3.9,"reference":"ChIJsxELynOFqkAREGHGdmTX97g","types":["restaurant","point_of_interest","food","establishment"],"user_ratings_total":357},{"business_status":"OPERATIONAL","formatted_address":"ul. \"Solun\" 56, 1680 Borovo, Sofia","geometry":{"location":{"lat":42.6711711,"lng":23.2897083},"viewport":{"northeast":{"lat":42.67249617989272,"lng":23.29109882989272},"southwest":{"lat":42.66979652010727,"lng":23.28839917010728}}},"icon":"https://maps.gstatic.com/mapfiles/place_api/icons/v1/png_71/restaurant-71.png","icon_background_color":"#FF9E67","icon_mask_base_uri":"https://maps.gstatic.com/mapfiles/place_api/icons/v2/restaurant_pinlet","name":"Red East","opening_hours":{"open_now":true},"photos":[{"height":4032,"html_attributions":["<a href=\"https://maps.google.com/maps/contrib/105727793745703908585\">seçkin doğan</a>"],"photo_reference":"AeJbb3elm5u1_KTkLfB5AIYDKIf-jmcYLwBQTb4RWdxTaLMZb3_lZloxRuy8toEZkEwT61gPT53k5RzgLqZEtrvt-9NaZ4KYg6MkHwl1ZwrugMBH2c_GEvf4N9M2cJLC6QKo4TVgDD9qyTIJYTXsYC_h9ITKY0ku_xT_jBxSLS2hjJO6VrjA","width":2268}],"place_id":"ChIJUcJrRN2EqkARdC9w2rcz8tQ","plus_code":{"compound_code":"M7CQ+FV Sofia","global_code":"8GJ5M7CQ+FV"},"price_level":1,"rating":3.9,"reference":"ChIJUcJrRN2EqkARdC9w2rcz8tQ","types":["restaurant","food","point_of_interest","establishment"],"user_ratings_total":206},{"business_status":"OPERATIONAL","formatted_address":"ul. \"Stara Planina\" 1, 1000 Sofia Center, Sofia","geometry":{"location":{"lat":42.69844,"lng":23.3301166},"viewport":{"northeast":{"lat":42.69971332989272,"lng":23.33152167989273},"southwest":{"lat":42.69701367010728,"lng":23.32882202010728}}},"icon":"https://maps.gstatic.com/mapfiles/place_api/icons/v1/png_71/restaurant-71.png","icon_background_color":"#FF9E67","icon_mask_base_uri":"https://maps.gstatic.com/mapfiles/place_api/icons/v2/restaurant_pinlet","name":"Chefs burger duner","opening_hours":{"open_now":true},"photos":[{"height":1786,"html_attributions":["<a href=\"https://maps.google.com/maps/contrib/111499628689233529828\">Vladimir Eftenov</a>"],"photo_reference":"AeJbb3dhLOiUurgTg-chW7k7Ry1hdcZ6aBvnfWnUXwfAWy18NdwoZi2QAvWgFsodJ9YSG-l0kldTPVFV_d3ZLcZczGdqKmk9Qfnj8O0rTcucQbOLpUIFBW9GMoL3sh-xofh6Ac7cjULJ9xw9ShN0RtoQHCK-TsQJXm0I87JuMvAa8emL4NTg","width":1786}],"place_id":"ChIJC5W9w6GFqkARqTOy6j56kWk","plus_code":{"compound_code":"M8XJ+93 Sofia","global_code":"8GJ5M8XJ+93"},"rating":3.9,"reference":"ChIJC5W9w6GFqkARqTOy6j56kWk","types":["restaurant","food","point_of_interest","establishment"],"user_ratings_total":8},{"business_status":"CLOSED_TEMPORARILY","formatted_address":"ul. \"Ivaylo\" 19, 1606 Sofia Center, Sofia","geometry":{"location":{"lat":42.6933697,"lng":23.3143906},"viewport":{"northeast":{"lat":42.69472497989271,"lng":23.31575052989272},"southwest":{"lat":42.69202532010727,"lng":23.31305087010728}}},"icon":"https://maps.gstatic.com/mapfiles/place_api/icons/v1/png_71/restaurant-71.png","icon_background_color":"#FF9E67","icon_mask_base_uri":"https://maps.gstatic.com/mapfiles/place_api/icons/v2/restaurant_pinlet","name":"Небесен дракон","permanently_closed":true,"photos":[{"height":4032,"html_attributions":["<a href=\"https://maps.google.com/maps/contrib/114485162002438506311\">Dominik Dyś</a>"],"photo_reference":"AeJbb3dc1egjCmgShYbEHH3h9OanQ0UdTtt6OqXKg6k3WOW6VgWRDCzOV_ZR97ANMAcsl8m9dTfhEwBDT-np3aOd_cJJDxzI1c0vV1TsNSHN0IyvmK6gRdMlnYGKJD44QS4ZV-KpLkieyVXF7VemGAmP4pfST6g_k2lh3-syaUZ-Jeh4iHZ-","width":3024}],"place_id":"ChIJFZ5nWlSAqkARQ1m3d6-z9XY","plus_code":{"compound_code":"M8V7+8P Sofia","global_code":"8GJ5M8V7+8P"},"price_level":1,"rating":3.6,"reference":"ChIJFZ5nWlSAqkARQ1m3d6-z9XY","types":["restaurant","food","point_of_interest","establishment"],"user_ratings_total":503},{"business_status":"OPERATIONAL","formatted_address":"ul. \"Bigla\" 1, 1407 g.k. Lozenets, Sofia","geometry":{"location":{"lat":42.6716217,"lng":23.3220834},"viewport":{"northeast":{"lat":42.67286422989272,"lng":23.32341952989272},"southwest":{"lat":42.67016457010727,"lng":23.32071987010728}}},"icon":"https://maps.gstatic.com/mapfiles/place_api/icons/v1/png_71/restaurant-71.png","icon_background_color":"#FF9E67","icon_mask_base_uri":"https://maps.gstatic.com/mapfiles/place_api/icons/v2/restaurant_pinlet","name":"MEAT&BEER","opening_hours":{"open_now":true},"photos":[{"height":3840,"html_attributions":["<a href=\"https://maps.google.com/maps/contrib/111421836950768314678\">A Google User</a>"],"photo_reference":"AeJbb3dOHhG-egyMXXkqYOqx5rIMNWtnJFiRCBkb7BrXpPUftJ8aDbeKZqaGuRqVkSaSfFuypxJSUPskC6WbXnvFuA-DxjWMLEjciVExWBx7kZFxARz_G-k17yDs2iyyynVDBfXcnZXcNyJ7LErKO39ftT9uCObG3X28xWJ9EVyYrInPi6se","width":2160}],"place_id":"ChIJ9SlixP2FqkARzltpoTjEYss","plus_code":{"compound_code":"M8CC+JR Sofia","global_code":"8GJ5M8CC+JR"},"rating":3,"reference":"ChIJ9SlixP2FqkARzltpoTjEYss","types":["restaurant","food","point_of_interest","establishment"],"user_ratings_total":2},{"business_status":"OPERATIONAL","formatted_address":"бул. „Княз Александър Дондуков\" 63, 1527 Sofia Center, Sofia","geometry":{"location":{"lat":42.6989412,"lng":23.3354987},"viewport":{"northeast":{"lat":42.70021047989272,"lng":23.33686402989272},"southwest":{"lat":42.69751082010728,"lng":23.33416437010728}}},"icon":"https://maps.gstatic.com/mapfiles/place_api/icons/v1/png_71/restaurant-71.png","icon_background_color":"#FF9E67","icon_mask_base_uri":"https://maps.gstatic.com/mapfiles/place_api/icons/v2/restaurant_pinlet","name":"Royal Horse","photos":[{"height":2016,"html_attributions":["<a href=\"https://maps.google.com/maps/contrib/111499628689233529828\">Vladimir Eftenov</a>"],"photo_reference":"AeJbb3eNpFdQn-8fKNXx3i-EzvBvmWmukqwV5lrKMgrBqdH_hQeeYrJ1XbgUOdChfinPixamoim_nJ5ETQmD6XjE5L-yRNjpNMxSCbLI8W4TwuWNkBIkcXfuwx-Mji2Sz2ZRkDUzLCCN78yi79lQTJ0E0x6riSX2UsIiLtX-G3p5Gzp5ajcP","width":1512}],"place_id":"ChIJLwBOrE2FqkARbWFAvpOznGQ","plus_code":{"compound_code":"M8XP+H5 Sofia","global_code":"8GJ5M8XP+H5"},"rating":2.8,"reference":"ChIJLwBOrE2FqkARbWFAvpOznGQ","types":["restaurant","food","point_of_interest","establishment"],"user_ratings_total":10},{"business_status":"OPERATIONAL","formatted_address":"ul. \"Stara Planina\", 1527 Sofia Center, Sofia","geometry":{"location":{"lat":42.7000928,"lng":23.3357287},"viewport":{"northeast":{"lat":42.70143967989272,"lng":23.33707777989272},"southwest":{"lat":42.69874002010728,"lng":23.33437812010728}}},"icon":"https://maps.gstatic.com/mapfiles/place_api/icons/v1/png_71/restaurant-71.png","icon_background_color":"#FF9E67","icon_mask_base_uri":"https://maps.gstatic.com/mapfiles/place_api/icons/v2/restaurant_pinlet","name":"Korean grill","place_id":"ChIJU427cTKFqkARkOztTnI31iA","plus_code":{"compound_code":"P82P+27 Sofia","global_code":"8GJ5P82P+27"},"rating":0,"reference":"ChIJU427cTKFqkARkOztTnI31iA","types":["restaurant","food","point_of_interest","establishment"],"user_ratings_total":0},{"business_status":"OPERATIONAL","formatted_address":"ul. \"Srebarna\", 1407 Hladilnika, Sofia","geometry":{"location":{"lat":42.6602747,"lng":23.3178396},"viewport":{"northeast":{"lat":42.66153857989272,"lng":23.31926352989272},"southwest":{"lat":42.65883892010728,"lng":23.31656387010728}}},"icon":"https://maps.gstatic.com/mapfiles/place_api/icons/v1/png_71/restaurant-71.png","icon_background_color":"#FF9E67","icon_mask_base_uri":"https://maps.gstatic.com/mapfiles/place_api/icons/v2/restaurant_pinlet","name":"SOKO cup ramen & kimchi","opening_hours":{"open_now":false},"place_id":"ChIJc2tgI1KFqkARpcsY8a9TxZU","plus_code":{"compound_code":"M869+44 Sofia","global_code":"8GJ5M869+44"},"rating":0,"reference":"ChIJc2tgI1KFqkARpcsY8a9TxZU","types":["restaurant","food","point_of_interest","establishment"],"user_ratings_total":0},{"business_status":"OPERATIONAL","formatted_address":"ul. \"Stara Planina\" 30, 1527 Sofia Center, Sofia","geometry":{"location":{"lat":42.6999855,"lng":23.3358129},"viewport":{"northeast":{"lat":42.70140652989272,"lng":23.33714802989272},"southwest":{"lat":42.69870687010728,"lng":23.33444837010727}}},"icon":"https://maps.gstatic.com/mapfiles/place_api/icons/v1/png_71/restaurant-71.png","icon_background_color":"#FF9E67","icon_mask_base_uri":"https://maps.gstatic.com/mapfiles/place_api/icons/v2/restaurant_pinlet","name":"Pory Lens Restaurant","place_id":"ChIJDTIHDuWFqkARqQBD1oSmlvo","plus_code":{"compound_code":"M8XP+X8 Sofia","global_code":"8GJ5M8XP+X8"},"rating":0,"reference":"ChIJDTIHDuWFqkARqQBD1oSmlvo","types":["restaurant","point_of_interest","food","establishment"],"user_ratings_total":0}]