[{"business_status":"OPERATIONAL","formatted_address":"Av. Jan Stobbaerts 100, 1030 Schaerbeek","geometry":{"location":{"lat":50.8591038,"lng":4.3892788},"viewport":{"northeast":{"lat":50.86041962989272,"lng":4.390643529892721},"southwest":{"lat":50.85771997010728,"lng":4.387943870107277}}},"icon":"https://maps.gstatic.com/mapfiles/place_api/icons/v1/png_71/bar-71.png","icon_background_color":"#FF9E67","icon_mask_base_uri":"https://maps.gstatic.com/mapfiles/place_api/icons/v2/bar_pinlet","name":"1030 Café","opening_hours":{"open_now":true},"photos":[{"height":1920,"html_attributions":["<a href=\"https://maps.google.com/maps/contrib/112881135357685298811\">pnobubbles</a>"],"photo_reference":"AeJbb3eOl0niFfQlyCWSQbacvRaIdD3uEwH4XhRMWD6PYrOGoIn8c2M1848zNmkS6BX7G-BnCIrskAyKwDGBqgzHx9-Xd_5YaJYF4rmLOsiwnH6Dyw2U1DG1bKh4GKypDdnrZYpkc_EM6jhQeKWBi6bCmM0nbZgZNk46fgoRZzYHr43WiUcY","width":1080}],"place_id":"ChIJjx12BUPDw0cRhI8JTzHLs6Q","plus_code":{"compound_code":"V95Q+MP Schaerbeek","global_code":"9F26V95Q+MP"},"price_level":2,"rating":4.6,"reference":"ChIJjx12BUPDw0cRhI8JTzHLs6Q","types":["bar","cafe","restaurant","food","point_of_interest","establishment"],"user_ratings_total":713},{"business_status":"OPERATIONAL","formatted_address":"Nieuwstraat 20, 1730 Asse","geometry":{"location":{"lat":50.9115337,"lng":4.1955733},"viewport":{"northeast":{"lat":50.91285807989272,"lng":4.196965879892721},"southwest":{"lat":50.91015842010728,"lng":4.194266220107277}}},"icon":"https://maps.gstatic.com/mapfiles/place_api/icons/v1/png_71/restaurant-71.png","icon_background_color":"#FF9E67","icon_mask_base_uri":"https://maps.gstatic.com/mapfiles/place_api/icons/v2/restaurant_pinlet","name":"Old Tbilisi","opening_hours":{"open_now":true},"photos":[{"height":1365,"html_attributions":["<a href=\"https://maps.google.com/maps/contrib/118442835488953444835\">A Google User</a>"],"photo_reference":"AeJbb3f5aCjjp69m4kkKz4k66Jdk6Lbob9VYwZKBzp9Iei7YPPc5_snVAI9uk7IL3q3v64MkEyHqJUNBnNRASSPna4-8XF6GkYbr-ROuCbMbtNmVmK1xxkoUIh9RXSWqfRGIV68HJ5rPTCUmyov1VWjwMCTKkwd7B75MABRlAdkSH9v2fE0o","width":2048}],"place_id":"ChIJeeHXo2u_w0cRncp6Nuy1STY","plus_code":{"compound_code":"W56W+J6 Asse","global_code":"9F26W56W+J6"},"rating":4.5,"reference":"ChIJeeHXo2u_w0cRncp6Nuy1STY","types":["restaurant","food","point_of_interest","establishment"],"user_ratings_total":84},{"business_status":"OPERATIONAL","formatted_address":"Rue Sainte-Catherine 42, 1000 Bruxelles","geometry":{"location":{"lat":50.8501781,"lng":4.3474876},"viewport":{"northeast":{"lat":50.85155407989272,"lng":4.348878179892721},"southwest":{"lat":50.84885442010728,"lng":4.346178520107277}}},"icon":"https://maps.gstatic.com/mapfiles/place_api/icons/v1/png_71/bar-71.png","icon_background_color":"#FF9E67","icon_mask_base_uri":"https://maps.gstatic.com/mapfiles/place_api/icons/v2/bar_pinlet","name":"Monk","opening_hours":{"open_now":true},"photos":[{"height":3000,"html_attributions":["<a href=\"https://maps.google.com/maps/contrib/100327294990801100606\">Christiane Lena</a>"],"photo_reference":"AeJbb3f0fO36skLnDAPH4WNNuFpcb7csuzZVppqUEH7ctofj8NKS_i8H_sZt7cJO7p9rOEJgoQ5WfMGXtHERGlmVK0ddajq-wSOXmHne5jZon8Rwy5_yo4B9resfNjf6SWEPo-lxscT0-HE8RC4XNnGMeWRzq6VHqRkM9NGIiNkcVNICyDVx","width":4000}],"place_id":"ChIJob4Rz4fDw0cRxUKDwIISIT4","plus_code":{"compound_code":"V82W+3X Brussels","global_code":"9F26V82W+3X"},"price_level":2,"rating":4.4,"reference":"ChIJob4Rz4fDw0cRxUKDwIISIT4","types":["cafe","bar","restaurant","food","point_of_interest","store","establishment"],"user_ratings_total":2767},{"business_status":"OPERATIONAL","formatted_address":"Rue de la Bourse 42, 1000 Bruxelles","geometry":{"location":{"lat":50.8481057,"lng":4.351261099999999},"viewport":{"northeast":{"lat":50.84881894999999,"lng":4.352518229892722},"southwest":{"lat":50.84596595,"lng":4.349818570107278}}},"icon":"https://maps.gstatic.com/mapfiles/place_api/icons/v1/png_71/bar-71.png","icon_background_color":"#FF9E67","icon_mask_base_uri":"https://maps.gstatic.com/mapfiles/place_api/icons/v2/bar_pinlet","name":"CASCO","opening_hours":{"open_now":true},"photos":[{"height":4000,"html_attributions":["<a href=\"https://maps.google.com/maps/contrib/116253686499646892851\">Viviana Parra</a>"],"photo_reference":"AeJbb3f-Uql25DTyiHqbW1HA_4Nfayrp0NPzr4NsAVDQtM5Pfe_7ZugpIqH1Ncv8w2JwGG2UuYKr-hmGrSmcwK5fL5AGvgw0PRuaZyWkjgPwrCT1u87VwHHr4q3XGYhPSZr8oMX8MxGcBuKQWxIAdz1LCWb-XCZmZbRF4LOkk4ojKkmDLT7j","width":3000}],"place_id":"ChIJwcyDMpXDw0cRfLZd8h-BwMk","plus_code":{"compound_code":"R9X2+6G Brussels","global_code":"9F26R9X2+6G"},"price_level":2,"rating":4.4,"reference":"ChIJwcyDMpXDw0cRfLZd8h-BwMk","types":["bar","restaurant","food","point_of_interest","establishment"],"user_ratings_total":436},{"business_status":"OPERATIONAL","formatted_address":"Rue Général Thys 2, 1050 Bruxelles","geometry":{"location":{"lat":50.81790969999999,"lng":4.3929944},"viewport":{"northeast":{"lat":50.81925072989272,"lng":4.394337629892722},"southwest":{"lat":50.81655107010727,"lng":4.391637970107278}}},"icon":"https://maps.gstatic.com/mapfiles/place_api/icons/v1/png_71/restaurant-71.png","icon_background_color":"#FF9E67","icon_mask_base_uri":"https://maps.gstatic.com/mapfiles/place_api/icons/v2/restaurant_pinlet","name":"Nem Nem Câphê","opening_hours":{"open_now":false},"photos":[{"height":1536,"html_attributions":["<a href=\"https://maps.google.com/maps/contrib/114985795367242577361\">A Google User</a>"],"photo_reference":"AeJbb3feV1Sq1s0IH2mjMUI2xsPaFQtKedl_DLi1tSC6bizvxpo7nPiVezhNL8GbqTuSmrljBRsWAHfRbkPC27RhJQJC3u8UjYM9ig-Bd_IGrwi89kqXU-jeURFjeNFlOSWgHJhEWlEYJYu0eAY43Aq7B-62yqjoOMQ5sH8NF01tV2k6Joca","width":2048}],"place_id":"ChIJb108Ae7Fw0cRNnGukjmytG0","plus_code":{"compound_code":"R99V+56 Brussels","global_code":"9F26R99V+56"},"price_level":2,"rating":4.4,"reference":"ChIJb108Ae7Fw0cRNnGukjmytG0","types":["bar","restaurant","food","point_of_interest","establishment"],"user_ratings_total":219},{"business_status":"OPERATIONAL","formatted_address":"Rue Théodore Verhaegen 158, 1060 Saint-Gilles","geometry":{"location":{"lat":50.8303232,"lng":4.3367244},"viewport":{"northeast":{"lat":50.83172122989271,"lng":4.338127929892721},"southwest":{"lat":50.82902157010727,"lng":4.335428270107277}}},"icon":"https://maps.gstatic.com/mapfiles/place_api/icons/v1/png_71/cafe-71.png","icon_background_color":"#FF9E67","icon_mask_base_uri":"https://maps.gstatic.com/mapfiles/place_api/icons/v2/cafe_pinlet","name":"Tricoterie","opening_hours":{"open_now":false},"photos":[{"height":1202,"html_attributions":["<a href=\"https://maps.google.com/maps/contrib/116672575624529646390\">A Google User</a>"],"photo_reference":"AeJbb3fgfCzgwuxopf4TFpUQN85B3ltFclHGwJNp9NAPTCWiNeJSpB1bWDozorxnT9nWxQZ-6pILllpQaJejzLT7nQEkZSAki-L4NnhkAnB3IO30IV1RWlRHs1oZi7T34QfNoWoHijBtv6CWsrxDoRiORLg5Airy62-NRTGAjCl4VLAB1QfQ","width":1800}],"place_id":"ChIJ_xRY02vEw0cR2QQLprB4XHA","plus_code":{"compound_code":"R8JP+4M Saint-Gilles","global_code":"9F26R8JP+4M"},"rating":4.4,"reference":"ChIJ_xRY02vEw0cR2QQLprB4XHA","types":["cafe","restaurant","food","point_of_interest","establishment"],"user_ratings_total":65},{"business_status":"OPERATIONAL","formatted_address":"Rue de la Bourse 18, 1000 Bruxelles","geometry":{"location":{"lat":50.8483055,"lng":4.3507131},"viewport":{"northeast":{"lat":50.84971282989272,"lng":4.351517850000002},"southwest":{"lat":50.84701317010728,"lng":4.348298849999998}}},"icon":"https://maps.gstatic.com/mapfiles/place_api/icons/v1/png_71/restaurant-71.png","icon_background_color":"#FF9E67","icon_mask_base_uri":"https://maps.gstatic.com/mapfiles/place_api/icons/v2/restaurant_pinlet","name":"Le Cirio","opening_hours":{"open_now":true},"photos":[{"height":4000,"html_attributions":["<a href=\"https://maps.google.com/maps/contrib/115853179747069909983\">Frank Thys</a>"],"photo_reference":"AeJbb3eY_4Kyfve5APg8jTnw6T-qFfyc2eeEzlS-io4aeK9Zn8YGBavphD8DKibxGQirkmOuT3_6BnFp66XXoZROCrVpZTLkGxRlwfdcGaMHJbNzGACPgpA1R2lDsQ63CLpH9zjX6McMXfFOGBl2DM_a1JnLHz_yiF3NObh5BC4tH20nabms","width":6000}],"place_id":"ChIJuxuoZofDw0cR9pX7Fq5vHqE","plus_code":{"compound_code":"R9X2+87 Brussels","global_code":"9F26R9X2+87"},"price_level":2,"rating":4.3,"reference":"ChIJuxuoZofDw0cR9pX7Fq5vHqE","types":["restaurant","food","point_of_interest","establishment"],"user_ratings_total":2578},{"business_status":"OPERATIONAL","formatted_address":"Avenue Emmanuel Mounier 5 , Woluwé St Lambert, 1200 Brussel","geometry":{"location":{"lat":50.8526007,"lng":4.448476299999999},"viewport":{"northeast":{"lat":50.85390977989272,"lng":4.449764679892721},"southwest":{"lat":50.85121012010728,"lng":4.447065020107277}}},"icon":"https://maps.gstatic.com/mapfiles/place_api/icons/v1/png_71/lodging-71.png","icon_background_color":"#909CE1","icon_mask_base_uri":"https://maps.gstatic.com/mapfiles/place_api/icons/v2/hotel_pinlet","name":"Tangla Hotel Brussels","opening_hours":{"open_now":true},"photos":[{"height":2720,"html_attributions":["<a href=\"https://maps.google.com/maps/contrib/103543425286683893729\">A Google User</a>"],"photo_reference":"AeJbb3dUkyM-n8cix3kHFo-BDxw-yea51U_YCCJCbwiEdEtU0gkrZ-p7ZKZ3Py3vjK3Iwtnj_tDRogG9MqPyzXb2zhYoc7c3ZT137wESKIl7z5ZnL4jXAFhTnHQkzw3aSDZrl-mTO0le6GU6SLNRmuukteE5eT7ooh0KHbge268Vysg6b81t","width":4080}],"place_id":"ChIJmWOEIoXcw0cRI4gWiVJhSns","plus_code":{"compound_code":"VC3X+3C Brussels","global_code":"9F26VC3X+3C"},"rating":4.3,"reference":"ChIJmWOEIoXcw0cRI4gWiVJhSns","types":["lodging","spa","restaurant","food","point_of_interest","health","establishment"],"user_ratings_total":981},{"business_status":"OPERATIONAL","formatted_address":"Rue Archimède 65, 1000 Bruxelles","geometry":{"location":{"lat":50.8450374,"lng":4.3840413},"viewport":{"northeast":{"lat":50.84638252989271,"lng":4.385246329892722},"southwest":{"lat":50.84368287010727,"lng":4.382546670107279}}},"icon":"https://maps.gstatic.com/mapfiles/place_api/icons/v1/png_71/bar-71.png","icon_background_color":"#FF9E67","icon_mask_base_uri":"https://maps.gstatic.com/mapfiles/place_api/icons/v2/bar_pinlet","name":"The Funky Monkey","opening_hours":{"open_now":true},"photos":[{"height":4032,"html_attributions":["<a href=\"https://maps.google.com/maps/contrib/100802171912757617934\">Arianna Manfè</a>"],"photo_reference":"AeJbb3fk3CLTXqgcXPknLqxljrnOG5pnsjp2nKWEmdgufOOWgb4hz_Pw2yAXWD9bYfQn8WdiCQ61P_os9mU4TQeH_pYfaqJrDuWVjjTLqhh0so94csKR_D9hldjz195n7CvXGsg6PKRqUj_RmeSoc7oTvZHCAmp93xiwzRDAi2sueAceLq7I","width":3024}],"place_id":"ChIJGTc4O6DEw0cR0TY4p5hoEY4","plus_code":{"compound_code":"R9WM+2H Brussels","global_code":"9F26R9WM+2H"},"price_level":2,"rating":4.2,"reference":"ChIJGTc4O6DEw0cR0TY4p5hoEY4","types":["bar","restaurant","food","point_of_interest","establishment"],"user_ratings_total":495},{"business_status":"OPERATIONAL","formatted_address":"Rue de Moscou 7, 1060 Saint-Gilles","geometry":{"location":{"lat":50.8310635,"lng":4.3462203},"viewport":{"northeast":{"lat":50.83240952989272,"lng":4.347547779892722},"southwest":{"lat":50.82970987010728,"lng":4.344848120107278}}},"icon":"https://maps.gstatic.com/mapfiles/place_api/icons/v1/png_71/restaurant-71.png","icon_background_color":"#FF9E67","icon_mask_base_uri":"https://maps.gstatic.com/mapfiles/place_api/icons/v2/restaurant_pinlet","name":"Mille et Une Nuits","opening_hours":{"open_now":false},"photos":[{"height":852,"html_attributions":["<a href=\"https://maps.google.com/maps/contrib/105050183281652661988\">A Google User</a>"],"photo_reference":"AeJbb3fwtbFeFWKYd9D7Uar2NzvB19-0lEAvbd9-M0FT0Vlpt-fq0zDqZ8CpJNTC-3RyLKJofXjzJYb8E-kHExIFwGD4zOZp-x6QCZqK5mr2hItQYoEUpgn1i6-21BIDuj5sqgxGJ-zOiaYC1fS_H1wseCZ_8dyFAzsvsVPEgEhi_41JITxG","width":1280}],"place_id":"ChIJozh2XmbEw0cRMuyt69Nm30o","plus_code":{"compound_code":"R8JW+CG Saint-Gilles","global_code":"9F26R8JW+CG"},"price_level":2,"rating":4.2,"reference":"ChIJozh2XmbEw0cRMuyt69Nm30o","types":["restaurant","food","point_of_interest","establishment"],"user_ratings_total":314},{"business_status":"OPERATIONAL","formatted_address":"Pl. de la Bourse 1, 1000 Bruxelles","geometry":{"location":{"lat":50.848035,"lng":4.3490055},"viewport":{"northeast":{"lat":50.84962012989272,"lng":4.350453229892722},"southwest":{"lat":50.84692047010727,"lng":4.347753570107278}}},"icon":"https://maps.gstatic.com/mapfiles/place_api/icons/v1/png_71/bar-71.png","icon_background_color":"#FF9E67","icon_mask_base_uri":"https://maps.gstatic.com/mapfiles/place_api/icons/v2/bar_pinlet","name":"O'Reilly's","opening_hours":{"open_now":true},"photos":[{"height":3456,"html_attributions":["<a href=\"https://maps.google.com/maps/contrib/116329590852878790540\">A Google User</a>"],"photo_reference":"AeJbb3cx3TR8e4Y669nw9WGwwUjEPUMDpdc6nSY6apJFguN67e7JqVkYbviAPM9l4gbhkQlowwu0ytpxNVkhj1wTzdIUrZjkWnqjHicKlJTvCM8ifONAZNKrAwpQJ0AAN9g1G63Ju-miO7wzztn7RtgC5Be5QjvoR88R7keA6Q1vheRLJBeJ","width":4608}],"place_id":"ChIJ7UIRgYfDw0cRjtxVmcidryw","plus_code":{"compound_code":"R8XX+6J Brussels","global_code":"9F26R8XX+6J"},"price_level":2,"rating":4.1,"reference":"ChIJ7UIRgYfDw0cRjtxVmcidryw","types":["bar","restaurant","food","point_of_interest","establishment"],"user_ratings_total":2959},{"business_status":"OPERATIONAL","formatted_address":"Rue Egide Van Ophem 20, 1180 Uccle","geometry":{"location":{"lat":50.7917393,"lng":4.3315096},"viewport":{"northeast":{"lat":50.79311592989272,"lng":4.332950579892723},"southwest":{"lat":50.79041627010728,"lng":4.330250920107279}}},"icon":"https://maps.gstatic.com/mapfiles/place_api/icons/v1/png_71/restaurant-71.png","icon_background_color":"#FF9E67","icon_mask_base_uri":"https://maps.gstatic.com/mapfiles/place_api/icons/v2/restaurant_pinlet","name":"Schievelavabo","opening_hours":{"open_now":true},"photos":[{"height":3268,"html_attributions":["<a href=\"https://maps.google.com/maps/contrib/104770228901619800286\">Philippe Allard</a>"],"photo_reference":"AeJbb3cykY9or20Mebqo0Ns25_ZSEa7_saL9-pd28vGZPm7U_NUN5k8GWQwD0D8W6a48lFgXQDXso4FRKYz6SLPJ5ylXNhdc-lOBI43EgbEoQp1D3yLm6HFhti0g-dawC3LZwfKNUOOHfJ-J_ghdUfW5pWQ-IcwEpcgeil_uv71rfDZyp7e1","width":2452}],"place_id":"ChIJ9zBC-bvFw0cRCpevWHzvQCI","plus_code":{"compound_code":"Q8RJ+MH Uccle","global_code":"9F26Q8RJ+MH"},"price_level":2,"rating":4.1,"reference":"ChIJ9zBC-bvFw0cRCpevWHzvQCI","types":["restaurant","food","point_of_interest","establishment"],"user_ratings_total":1243},{"business_status":"OPERATIONAL","formatted_address":"Chau. de Wavre 344, 1040 Etterbeek","geometry":{"location":{"lat":50.836478,"lng":4.3798663},"viewport":{"northeast":{"lat":50.83772462989272,"lng":4.381109079892721},"southwest":{"lat":50.83502497010728,"lng":4.378409420107277}}},"icon":"https://maps.gstatic.com/mapfiles/place_api/icons/v1/png_71/restaurant-71.png","icon_background_color":"#FF9E67","icon_mask_base_uri":"https://maps.gstatic.com/mapfiles/place_api/icons/v2/restaurant_pinlet","name":"Schievelavabo","opening_hours":{"open_now":false},"photos":[{"height":2759,"html_attributions":["<a href=\"https://maps.google.com/maps/contrib/113131778126831501598\">A Google User</a>"],"photo_reference":"AeJbb3eSH6-iXw8eN4AYfiJ0mb9S6MlEBEV7DSeZVOTTNr7lZq2q_MBv3AaRYVNBQT7fWPPVNbQcNMuyFtaXxbeBLki3ZmMqcGyhUDs3CqdUJXr2ohGCSLgAGI__IQV7cs92RGWw8mTneu1ypAup649nHILlwrtuT-qU8rSLug_nt4cRP6gv","width":4169}],"place_id":"ChIJJTXniZfEw0cRHpJ_cJbyNe0","plus_code":{"compound_code":"R9PH+HW Etterbeek","global_code":"9F26R9PH+HW"},"price_level":2,"rating":4.1,"reference":"ChIJJTXniZfEw0cRHpJ_cJbyNe0","types":["restaurant","food","point_of_interest","establishment"],"user_ratings_total":793},{"business_status":"OPERATIONAL","formatted_address":"Pl. Saint-Pierre 22, 1040 Etterbeek","geometry":{"location":{"lat":50.8373061,"lng":4.396447999999999},"viewport":{"northeast":{"lat":50.83871452989272,"lng":4.397752429892722},"southwest":{"lat":50.83601487010728,"lng":4.395052770107278}}},"icon":"https://maps.gstatic.com/mapfiles/place_api/icons/v1/png_71/restaurant-71.png","icon_background_color":"#FF9E67","icon_mask_base_uri":"https://maps.gstatic.com/mapfiles/place_api/icons/v2/restaurant_pinlet","name":"Pizza Mniam Mniam","opening_hours":{"open_now":false},"photos":[{"height":3024,"html_attributions":["<a href=\"https://maps.google.com/maps/contrib/106966411565205204737\">Piotr Artyfikiewicz</a>"],"photo_reference":"AeJbb3eaVQVBhIJVOAQCdF-p7F2YJIgGzPYbKo20uiJ3pR-f6KPtsnEi-YW8UK8m3FOz9DLkAoX22VJ9YwxBK6T5n0fdWWi2mg-3WrspfHaW4B4V4jK6NuKrgh2U83pdrNBuMVqBmJA2Be39MMTIN3jVjmGi-h56Jwf9p85DXo7D1FU3l91S","width":4032}],"place_id":"ChIJzZTTuK_Ew0cRLozHJ__QV3o","plus_code":{"compound_code":"R9PW+WH Etterbeek","global_code":"9F26R9PW+WH"},"price_level":2,"rating":4.1,"reference":"ChIJzZTTuK_Ew0cRLozHJ__QV3o","types":["meal_takeaway","restaurant","food","point_of_interest","establishment"],"user_ratings_total":244},{"business_status":"OPERATIONAL","formatted_address":"Av. Louise 300, 1000 Bruxelles","geometry":{"location":{"lat":50.82398190000001,"lng":4.3678333},"viewport":{"northeast":{"lat":50.82530222989272,"lng":4.369111479892721},"southwest":{"lat":50.82260257010728,"lng":4.366411820107277}}},"icon":"https://maps.gstatic.com/mapfiles/place_api/icons/v1/png_71/restaurant-71.png","icon_background_color":"#FF9E67","icon_mask_base_uri":"https://maps.gstatic.com/mapfiles/place_api/icons/v2/restaurant_pinlet","name":"Loola","opening_hours":{"open_now":true},"photos":[{"height":3024,"html_attributions":["<a href=\"https://maps.google.com/maps/contrib/113958070269928345657\">113958070269928345657</a>"],"photo_reference":"AeJbb3dZxSU-1app_5WiXBp7SOLSrbR9yxe2kPpzqtViqrBMK6pG-2GKDb47fx6Nwn5b4x9MGA7MvCLuZiHugf72-mnq3j5eGsmE1csEB_CS0d6mRZHqjQIw5gYjHnmBj7iv-PoU5y_y7c80pjDeRsa9lue8Kf69oqWBctY9tkc8HF6fPM_-","width":4032}],"place_id":"ChIJiU23SlnFw0cRD2zNz_PMnbM","plus_code":{"compound_code":"R9F9+H4 Brussels","global_code":"9F26R9F9+H4"},"rating":4.1,"reference":"ChIJiU23SlnFw0cRD2zNz_PMnbM","types":["restaurant","food","point_of_interest","establishment"],"user_ratings_total":132},{"business_status":"OPERATIONAL","formatted_address":"Rue de Laeken 177, 1000 Bruxelles","geometry":{"location":{"lat":50.8560877,"lng":4.3527961},"viewport":{"northeast":{"lat":50.85745917989272,"lng":4.354140629892722},"southwest":{"lat":50.85475952010728,"lng":4.351440970107278}}},"icon":"https://maps.gstatic.com/mapfiles/place_api/icons/v1/png_71/restaurant-71.png","icon_background_color":"#FF9E67","icon_mask_base_uri":"https://maps.gstatic.com/mapfiles/place_api/icons/v2/restaurant_pinlet","name":"Flamingo","opening_hours":{"open_now":true},"photos":[{"height":4032,"html_attributions":["<a href=\"https://maps.google.com/maps/contrib/117436250747682860122\">Paola Ianniello</a>"],"photo_reference":"AeJbb3eHXaYMe--TvcRrEIWXytLu2eEEZ4vzYuQfQvi7QPIhYLJHJ_wRIQssFmRaJ3SlScODrdM2456VBZp8LV2tOX9DLPJPU6X9yIT8vYMx6e6Bo_lNdpxi-PlHNdiOeCscC252K8DVONQsXQvbra1tGWZVHtRjcPGY_zmPuqgF63emyS4Z","width":3024}],"place_id":"ChIJ2XW7iITDw0cR3x16jlX5fW0","plus_code":{"compound_code":"V943+C5 Brussels","global_code":"9F26V943+C5"},"price_level":2,"rating":4,"reference":"ChIJ2XW7iITDw0cR3x16jlX5fW0","types":["restaurant","bar","food","point_of_interest","establishment"],"user_ratings_total":1355},{"business_status":"OPERATIONAL","formatted_address":"Chau. de Saint-Job 334, 1180 Uccle","geometry":{"location":{"lat":50.792972,"lng":4.3479299},"viewport":{"northeast":{"lat":50.79429257989271,"lng":4.349252929892722},"southwest":{"lat":50.79159292010727,"lng":4.346553270107278}}},"icon":"https://maps.gstatic.com/mapfiles/place_api/icons/v1/png_71/restaurant-71.png","icon_background_color":"#FF9E67","icon_mask_base_uri":"https://maps.gstatic.com/mapfiles/place_api/icons/v2/restaurant_pinlet","name":"Le Guignol","opening_hours":{"open_now":false},"photos":[{"height":3264,"html_attributions":["<a href=\"https://maps.google.com/maps/contrib/112013271784302147639\">Thomas Blairon</a>"],"photo_reference":"AeJbb3cISQcU-JiqgoktykWqUMBkHOHqZ9ZTclKLZXEdWGv_TqMsCsaREA_pmjenYaKS70uxm1MdNkxEFgAhOFNGFM32aA_h5cdAO0IBQmMYPRYilnX2nbNWQNI5t43NTOa8OxU1wP87HyZVBFa8UUFCNXEi75cHFn1AFWL1MhnrniGqtY3q","width":4928}],"place_id":"ChIJ2yDuDqfFw0cR0Daq1wHrQ8I","plus_code":{"compound_code":"Q8VX+55 Uccle","global_code":"9F26Q8VX+55"},"price_level":2,"rating":4,"reference":"ChIJ2yDuDqfFw0cR0Daq1wHrQ8I","types":["restaurant","food","point_of_interest","establishment"],"user_ratings_total":414},{"business_status":"OPERATIONAL","formatted_address":"Rue Chair et Pain 3, 1000 Bruxelles","geometry":{"location":{"lat":50.8473011,"lng":4.3527575},"viewport":{"northeast":{"lat":50.84834997989271,"lng":4.3536524},"southwest":{"lat":50.84565032010727,"lng":4.3502168}}},"icon":"https://maps.gstatic.com/mapfiles/place_api/icons/v1/png_71/restaurant-71.png","icon_background_color":"#FF9E67","icon_mask_base_uri":"https://maps.gstatic.com/mapfiles/place_api/icons/v2/restaurant_pinlet","name":"The Sister Brussels Café","opening_hours":{"open_now":true},"photos":[{"height":4032,"html_attributions":["<a href=\"https://maps.google.com/maps/contrib/101751342229910208632\">Kirill Zzz</a>"],"photo_reference":"AeJbb3fAJg-htpk2AHVMa6cjDrYeyiJ1Ih2TCk_A3inm4Usrf3797kk1XgQMHGZSRgZ23IFpHpOo-lpWRyy73hog1D7EkrykgPBVz3AmFa3Z8AEtXsIT_txP3pWOT44LcdkxVKdOex__v2NVhdm10YT-C8GNtgQB8r_tor-1_ji9mZ6yqTg6","width":3024}],"place_id":"ChIJdRLxUX_Ew0cRidbV64I0r0o","plus_code":{"compound_code":"R9W3+W4 Brussels","global_code":"9F26R9W3+W4"},"price_level":2,"rating":3.9,"reference":"ChIJdRLxUX_Ew0cRidbV64I0r0o","types":["cafe","bar","restaurant","food","point_of_interest","establishment"],"user_ratings_total":1347},{"business_status":"OPERATIONAL","formatted_address":"Av. des Anciens Combattants 1, 1140 Evere","geometry":{"location":{"lat":50.8593063,"lng":4.4139802},"viewport":{"northeast":{"lat":50.86072092989272,"lng":4.415420179892721},"southwest":{"lat":50.85802127010728,"lng":4.412720520107277}}},"icon":"https://maps.gstatic.com/mapfiles/place_api/icons/v1/png_71/lodging-71.png","icon_background_color":"#909CE1","icon_mask_base_uri":"https://maps.gstatic.com/mapfiles/place_api/icons/v2/hotel_pinlet","name":"Gresham Belson Hotel Brussels","opening_hours":{"open_now":true},"photos":[{"height":2365,"html_attributions":["<a href=\"https://maps.google.com/maps/contrib/115368316589482984243\">Gresham Belson Hotel Brussels</a>"],"photo_reference":"AeJbb3cqgIVe4vqgqQ5f6a8nk67xxnHrDesWgY_xQLGljVSvo_jCrVpF_GREJwew5DtonBB_iNpe3aeGUHUH0fLpC0GLy_mOe4xJo4TLIL87HXD6UG2zgpd6eU6pFnTk9ngeYiXEvxgq5FNMqqTxmbPlbmCZF2DUe0TPr8iKt7ZVxMsl4z-X","width":3543}],"place_id":"ChIJ4b_UqLPcw0cRyzOIdNf6ID4","plus_code":{"compound_code":"VC57+PH Evere","global_code":"9F26VC57+PH"},"rating":3.9,"reference":"ChIJ4b_UqLPcw0cRyzOIdNf6ID4","types":["bar","lodging","restaurant","food","point_of_interest","establishment"],"user_ratings_total":977},{"business_status":"OPERATIONAL","formatted_address":"Grand Place 2, 1000 Bruxelles","geometry":{"location":{"lat":50.84713840000001,"lng":4.3519517},"viewport":{"northeast":{"lat":50.84825862989273,"lng":4.352921779892721},"southwest":{"lat":50.84555897010728,"lng":4.350222120107277}}},"icon":"https://maps.gstatic.com/mapfiles/place_api/icons/v1/png_71/restaurant-71.png","icon_background_color":"#FF9E67","icon_mask_base_uri":"https://maps.gstatic.com/mapfiles/place_api/icons/v2/restaurant_pinlet","name":"La Brouette","opening_hours":{"open_now":true},"photos":[{"height":3000,"html_attributions":["<a href=\"https://maps.google.com/maps/contrib/105268741114031554600\">Fernande Ivens</a>"],"photo_reference":"AeJbb3do8hixQN-M9s40_YjtWibvhleXIK6oWtCpPe-Z4x7PRtssY8gs6aducda8yCvjV-8k_jlXszWdEt00sd9xbtJW031jdlvhmrb8PQb7xDkqsvK_Ak9ROKOmXvt4T7n6mdZ2lnPewsD6U7cOxQuhf53jX3kHGBkpy55ZCi2hP9vYUFMM","width":4000}],"place_id":"ChIJN0u3s3jEw0cRYCvM0kOLElA","plus_code":{"compound_code":"R9W2+VQ Brussels","global_code":"9F26R9W2+VQ"},"price_level":3,"rating":3.9,"reference":"ChIJN0u3s3jEw0cRYCvM0kOLElA","types":["restaurant","food","point_of_interest","establishment"],"user_ratings_total":709},{"business_status":"OPERATIONAL","formatted_address":"Rue des Pêcheries 2, 1170 Watermael-Boitsfort","geometry":{"location":{"lat":50.8124441,"lng":4.4052488},"viewport":{"northeast":{"lat":50.81376802989273,"lng":4.406614429892722},"southwest":{"lat":50.81106837010728,"lng":4.403914770107278}}},"icon":"https://maps.gstatic.com/mapfiles/place_api/icons/v1/png_71/restaurant-71.png","icon_background_color":"#FF9E67","icon_mask_base_uri":"https://maps.gstatic.com/mapfiles/place_api/icons/v2/restaurant_pinlet","name":"The Lodge","opening_hours":{"open_now":false},"photos":[{"height":5184,"html_attributions":["<a href=\"https://maps.google.com/maps/contrib/116710815385448515820\">A Google User</a>"],"photo_reference":"AeJbb3eQBKhaFZjPHiTc-gSOmTqH9DkqIFYjdsD8MaLudP4VX_e2eKEzrOoSDv2NijGWzx9nXrGmfgt5joCdkbrM9FklR4zBkKAo75wqYfG3TtVH4k3u8052v7PhPtUqWsrxbo85vqFVQsFiQEwiXXzzDfjF3dzW9TdEheyiwbnV2PgAMOVC","width":3456}],"place_id":"ChIJObtZGy3bw0cRs3PCF6258gE","plus_code":{"compound_code":"RC64+X4 Watermael-Boitsfort","global_code":"9F26RC64+X4"},"price_level":2,"rating":3.9,"reference":"ChIJObtZGy3bw0cRs3PCF6258gE","types":["restaurant","night_club","bar","food","point_of_interest","establishment"],"user_ratings_total":426},{"business_status":"OPERATIONAL","formatted_address":"Pl. Fernand Cocq 27, 1050 Ixelles","geometry":{"location":{"lat":50.8336276,"lng":4.3664002},"viewport":{"northeast":{"lat":50.83492782989272,"lng":4.367664129892722},"southwest":{"lat":50.83222817010728,"lng":4.364964470107278}}},"icon":"https://maps.gstatic.com/mapfiles/place_api/icons/v1/png_71/restaurant-71.png","icon_background_color":"#FF9E67","icon_mask_base_uri":"https://maps.gstatic.com/mapfiles/place_api/icons/v2/restaurant_pinlet","name":"Le Bar parallèle","opening_hours":{"open_now":true},"photos":[{"height":2048,"html_attributions":["<a href=\"https://maps.google.com/maps/contrib/105765717486388816420\">A Google User</a>"],"photo_reference":"AeJbb3dVRhOKa-qnhb901YWwXFpy7o8f37u2L1Qkv_ofmMzTLmzUAok06YceyEmJx3_FGiFPGP-QyAggTiS6W1IVmrRbVjG_LbFGWrnw7B3Ttylo2iCQJPK5Eu0MHyIYQBC4BZqq9dvaZlKQrLd434n5IX5t3CQ5lGTwZaW37AxMNmUd_GgL","width":1536}],"place_id":"ChIJ_y6_Wo7Ew0cRVdJ8OqbjVrk","plus_code":{"compound_code":"R9M8+FH Ixelles","global_code":"9F26R9M8+FH"},"price_level":2,"rating":3.9,"reference":"ChIJ_y6_Wo7Ew0cRVdJ8OqbjVrk","types":["restaurant","food","point_of_interest","establishment"],"user_ratings_total":353},{"business_status":"OPERATIONAL","formatted_address":"Bd du Souverain 275, 1150 Woluwe-Saint-Pierre","geometry":{"location":{"lat":50.82775150000001,"lng":4.432375299999999},"viewport":{"northeast":{"lat":50.82905102989272,"lng":4.433916429892721},"southwest":{"lat":50.82635137010728,"lng":4.431216770107278}}},"icon":"https://maps.gstatic.com/mapfiles/place_api/icons/v1/png_71/restaurant-71.png","icon_background_color":"#FF9E67","icon_mask_base_uri":"https://maps.gstatic.com/mapfiles/place_api/icons/v2/restaurant_pinlet","name":"Mellaertsvijvers","opening_hours":{"open_now":true},"photos":[{"height":3024,"html_attributions":["<a href=\"https://maps.google.com/maps/contrib/109115607722892738702\">Pascal Drabik</a>"],"photo_reference":"AeJbb3fAnSFRZqzUX5GrpACbRtvpqy-TO-txGbgt5h1Gu9OJiPRTuok6AMeCUQZ25zuCOm2nJoBMEQBSGccTJrJ1m6544sZgS0FF3GtajQA7n-MHK_86ekskMkx91cksi1CaNBzkrvXpAa-_vfgUh3iVrI-av3QLdPWS0XoLHrlWMiXMZ7xE","width":4032}],"place_id":"ChIJcTl_QWrbw0cRiVZv_hM5dcM","plus_code":{"compound_code":"RCHJ+3W Woluwe-Saint-Pierre","global_code":"9F26RCHJ+3W"},"price_level":3,"rating":3.8,"reference":"ChIJcTl_QWrbw0cRiVZv_hM5dcM","types":["restaurant","food","point_of_interest","establishment"],"user_ratings_total":2280},{"business_status":"OPERATIONAL","formatted_address":"Rue des Princes 4, 1000 Bruxelles","geometry":{"location":{"lat":50.8500727,"lng":4.3540052},"viewport":{"northeast":{"lat":50.85157977989272,"lng":4.355318179892722},"southwest":{"lat":50.84888012010727,"lng":4.352618520107278}}},"icon":"https://maps.gstatic.com/mapfiles/place_api/icons/v1/png_71/restaurant-71.png","icon_background_color":"#FF9E67","icon_mask_base_uri":"https://maps.gstatic.com/mapfiles/place_api/icons/v2/restaurant_pinlet","name":"Café de l'Opéra","opening_hours":{"open_now":true},"photos":[{"height":1920,"html_attributions":["<a href=\"https://maps.google.com/maps/contrib/104135908856361790686\">sa248</a>"],"photo_reference":"AeJbb3fWbcuFoFpu6PNVkddYad7UYj_OzBm-rmLNmKDcPttOVobYLKf_4VQUXODHpY3Xq6Gti6v2uHZ5LS3ZD8X3qsIrqluyGTBXNDKJEuvU7yfJMFjUQ_qhh1pgbx-26-JvcUVmBdwYTEA1cpimvLy_R83rHCYcAfujngkkIlGxoWXhz9DD","width":1080}],"place_id":"ChIJ774x3IDDw0cRWa4eFIx9nFE","plus_code":{"compound_code":"V923+2J Brussels","global_code":"9F26V923+2J"},"price_level":2,"rating":3.8,"reference":"ChIJ774x3IDDw0cRWa4eFIx9nFE","types":["restaurant","food","point_of_interest","establishment"],"user_ratings_total":389},{"business_status":"OPERATIONAL","formatted_address":"Pl. du Luxembourg 11, 1050 Ixelles","geometry":{"location":{"lat":50.8395679,"lng":4.3728402},"viewport":{"northeast":{"lat":50.84083367989272,"lng":4.374166079892722},"southwest":{"lat":50.83813402010728,"lng":4.371466420107278}}},"icon":"https://maps.gstatic.com/mapfiles/place_api/icons/v1/png_71/restaurant-71.png","icon_background_color":"#FF9E67","icon_mask_base_uri":"https://maps.gstatic.com/mapfiles/place_api/icons/v2/restaurant_pinlet","name":"The Network","opening_hours":{"open_now":true},"photos":[{"height":1910,"html_attributions":["<a href=\"https://maps.google.com/maps/contrib/114118451392288609524\">Paco Valera</a>"],"photo_reference":"AeJbb3dhGqR407ulNr1az0pmgQn7NkSy3mLY4nyWVJCqTXhsA-Bajm0ZOVvj4G-8PtGQI9z2JMWpx7PB-CyAe01whiaY6_k8MJjfdQiVW38xDBwPPgLz8t7kC7I_k8ffnSgsrcBT5MN_1MMerNIUN5vLFjBI4vy7QK19-_TtD0ysL0RINR1N","width":3842}],"place_id":"ChIJd8HaEzjFw0cRqmYUNltYmpw","plus_code":{"compound_code":"R9QF+R4 Ixelles","global_code":"9F26R9QF+R4"},"rating":3.8,"reference":"ChIJd8HaEzjFw0cRqmYUNltYmpw","types":["restaurant","food","point_of_interest","establishment"],"user_ratings_total":153},{"business_status":"OPERATIONAL","formatted_address":"Rue de la Croix de Fer 40, 1000 Bruxelles","geometry":{"location":{"lat":50.8482425,"lng":4.3650353},"viewport":{"northeast":{"lat":50.84955187989272,"lng":4.366403629892721},"southwest":{"lat":50.84685222010728,"lng":4.363703970107277}}},"icon":"https://maps.gstatic.com/mapfiles/place_api/icons/v1/png_71/restaurant-71.png","icon_background_color":"#FF9E67","icon_mask_base_uri":"https://maps.gstatic.com/mapfiles/place_api/icons/v2/restaurant_pinlet","name":"Luna","opening_hours":{"open_now":true},"photos":[{"height":3024,"html_attributions":["<a href=\"https://maps.google.com/maps/contrib/111066496409144439604\">A Google User</a>"],"photo_reference":"AeJbb3dB-6s7cL9c6-qGHpoGNIYlhrYGyLQ4L_S9f5urib2yPqeEoGFv_3D8OQ-wVFzAuuCuLzg67L1GXBGwWBRQBxs4sL8jYWu1LqRfWSI-zV-Ccj-WfXCAsQKN3HGpsbfD71J27-jODvHjxPKB97NAOcVu8LvBLkxShIOmFUS8PUWDOrfF","width":4032}],"place_id":"ChIJxUNfn_LDw0cR2n49uiypiyU","plus_code":{"compound_code":"R9X8+72 Brussels","global_code":"9F26R9X8+72"},"rating":3.6,"reference":"ChIJxUNfn_LDw0cR2n49uiypiyU","types":["restaurant","food","point_of_interest","establishment"],"user_ratings_total":113},{"business_status":"OPERATIONAL","formatted_address":"Av. Louise 91/93, 1050 Bruxelles","geometry":{"location":{"lat":50.83144979999999,"lng":4.3589838},"viewport":{"northeast":{"lat":50.83283537989271,"lng":4.360432429892721},"southwest":{"lat":50.83013572010727,"lng":4.357732770107277}}},"icon":"https://maps.gstatic.com/mapfiles/place_api/icons/v1/png_71/restaurant-71.png","icon_background_color":"#FF9E67","icon_mask_base_uri":"https://maps.gstatic.com/mapfiles/place_api/icons/v2/restaurant_pinlet","name":"91-restaurant","opening_hours":{"open_now":false},"photos":[{"height":3264,"html_attributions":["<a href=\"https://maps.google.com/maps/contrib/101816288926930909137\">Ninety One Restaurant</a>"],"photo_reference":"AeJbb3dAXSxcRbstnIKAeJ-KZik0yYVLFjsFJNCYf4GxXhwBLxZvD29NGfsKHrvto9BrpmnJL6czcprbY9mshesg3tiGPfXQBcdGxXvZGkf5YPU_BBIVPWfLcnbSYWqK1EP6pK9LWwtsjDuWeVaQFi3i1_UFiM4jHpnd1MAoWqyE2Alt4_zb","width":4928}],"place_id":"ChIJn7R3LYrEw0cRigJE5OnVLng","plus_code":{"compound_code":"R9J5+HH Brussels","global_code":"9F26R9J5+HH"},"rating":3,"reference":"ChIJn7R3LYrEw0cRigJE5OnVLng","types":["restaurant","bar","food","point_of_interest","establishment"],"user_ratings_total":7},{"business_status":"OPERATIONAL","formatted_address":"Chau. de Tubize 65, 1420 Braine-l'Alleud","geometry":{"location":{"lat":50.6985768,"lng":4.3589384},"viewport":{"northeast":{"lat":50.69989607989272,"lng":4.360180579892722},"southwest":{"lat":50.69719642010728,"lng":4.357480920107278}}},"icon":"https://maps.gstatic.com/mapfiles/place_api/icons/v1/png_71/restaurant-71.png","icon_background_color":"#FF9E67","icon_mask_base_uri":"https://maps.gstatic.com/mapfiles/place_api/icons/v2/restaurant_pinlet","name":"Cuelga","place_id":"ChIJ967XPN7Pw0cRGMatgTxlKKo","plus_code":{"compound_code":"M9X5+CH Braine-l'Alleud","global_code":"9F26M9X5+CH"},"rating":0,"reference":"ChIJ967XPN7Pw0cRGMatgTxlKKo","types":["restaurant","food","point_of_interest","establishment"],"user_ratings_total":0},{"business_status":"OPERATIONAL","formatted_address":"Baaskouter 26, 1730 Asse","geometry":{"location":{"lat":50.918435,"lng":4.1982114},"viewport":{"northeast":{"lat":50.91981527989272,"lng":4.199501929892722},"southwest":{"lat":50.91711562010727,"lng":4.196802270107278}}},"icon":"https://maps.gstatic.com/mapfiles/place_api/icons/v1/png_71/restaurant-71.png","icon_background_color":"#FF9E67","icon_mask_base_uri":"https://maps.gstatic.com/mapfiles/place_api/icons/v2/restaurant_pinlet","name":"The Orange Blossom","place_id":"ChIJAYRtTKC_w0cRM_qLiA6mFcg","plus_code":{"compound_code":"W59X+97 Asse","global_code":"9F26W59X+97"},"rating":0,"reference":"ChIJAYRtTKC_w0cRM_qLiA6mFcg","types":["restaurant","food","point_of_interest","establishment"],"user_ratings_total":0},{"business_status":"OPERATIONAL","formatted_address":"Rue Edmond de Grimberghe 21, 1080 Molenbeek-Saint-Jean","geometry":{"location":{"lat":50.8560664,"lng":4.3334663},"viewport":{"northeast":{"lat":50.85737602989273,"lng":4.334867929892722},"southwest":{"lat":50.85467637010728,"lng":4.332168270107278}}},"icon":"https://maps.gstatic.com/mapfiles/place_api/icons/v1/png_71/restaurant-71.png","icon_background_color":"#FF9E67","icon_mask_base_uri":"https://maps.gstatic.com/mapfiles/place_api/icons/v2/restaurant_pinlet","name":"Angelas Bakery","place_id":"ChIJmSpQo13Dw0cRj7UO3j0WrPo","plus_code":{"compound_code":"V84M+C9 Sint-Jans-Molenbeek","global_code":"9F26V84M+C9"},"rating":0,"reference":"ChIJmSpQo13Dw0cRj7UO3j0WrPo","types":["restaurant","food","point_of_interest","establishment"],"user_ratings_total":0}]