{"html_attributions":[],"next_page_token":"AeJbb3cbPmI6QQ2VddXiQPa79e3TkfwboicR7Zq9tLSv_02GhyRS3_UD-spHy6_y7sUpnaPfvux5ExKHgGwef1UhU4TPZQdPXDf8sZ1QURgIegpDHGqS99ORrXC0e8PEMoSmetFSIT9iscaYdOpxNOQHaX8JZw9b84xYlRuxmKcQFuvBarFdGWf9Dm02SEv60x4xcZI90hqAaXyDQyE6Z-dn0RFunnBaT_OUIiEOeI7yfZvU9rxJkpUh7ZjRR6-0BIIqWhOyfZ2CHERf1wlmzTrxMmkvd71_tgcQOXrIIQ2n_OgpI-0ejJ1_E0cI4wLY3FvxEN-VzuOBUNbrLODJMhs_qLwN9KLfwyn2mufakjYWOFcQ_fwGttU-1C56-rBWlZ2ysdEKph99oPfUFNVqXt6tnKZ3Ng","results":[{"business_status":"OPERATIONAL","formatted_address":"Oranienstraße 31, 10999 Berlin, Germany","geometry":{"location":{"lat":52.5014983,"lng":13.4188849},"viewport":{"northeast":{"lat":52.50279897989272,"lng":13.42019817989272},"southwest":{"lat":52.50009932010727,"lng":13.41749852010728}}},"icon":"https://maps.gstatic.com/mapfiles/place_api/icons/v1/png_71/restaurant-71.png","icon_background_color":"#FF9E67","icon_mask_base_uri":"https://maps.gstatic.com/mapfiles/place_api/icons/v2/restaurant_pinlet","name":"CHIKOGI","opening_hours":{"open_now":true},"photos":[{"height":800,"html_attributions":["<a href=\"https://maps.google.com/maps/contrib/116335109445790761893\">A Google User</a>"],"photo_reference":"AeJbb3eIFqrSmbLIQACPy96M7T_uUxzfaWOEi8YGGHCbnZKDy-EK29HaLH11w-ayjeWxaSPvyi8amrhP0iAvt8gC6BZOqxLWlA1iCJm7cgsLLT-SRKiiPEbeKbhqEX05RgWUlupxM5jfggcbdXZAcMTY036JjJ7G4cNjaafKcIxSqbsZJRZN","width":1200}],"place_id":"ChIJGV36fJxPqEcRBdDr8YpxXpA","plus_code":{"compound_code":"GC29+HH Berlin","global_code":"9F4MGC29+HH"},"rating":4.6,"reference":"ChIJGV36fJxPqEcRBdDr8YpxXpA","types":["restaurant","food","point_of_interest","establishment"],"user_ratings_total":408},{"business_status":"OPERATIONAL","formatted_address":"Seydelstraße 16, 10117 Berlin, Germany","geometry":{"location":{"lat":52.50872099999999,"lng":13.4046322},"viewport":{"northeast":{"lat":52.51007947989272,"lng":13.40605192989272},"southwest":{"lat":52.50737982010727,"lng":13.40335227010728}}},"icon":"https://maps.gstatic.com/mapfiles/place_api/icons/v1/png_71/restaurant-71.png","icon_background_color":"#FF9E67","icon_mask_base_uri":"https://maps.gstatic.com/mapfiles/place_api/icons/v2/restaurant_pinlet","name":"Gung koreanisches Restaurant","opening_hours":{"open_now":true},"photos":[{"height":3376,"html_attributions":["<a href=\"https://maps.google.com/maps/contrib/116991098650342862390\">Pascal Cabos</a>"],"photo_reference":"AeJbb3cbBCJhproP02gpm-i9pZ77XvcQtss5Z6NtlEEe5SnYG6Ko1j8n7PeGlhEmyoNd8czclvv8qgyN1wPX4mWba40tf0LscHFWWaMJ9XefUKjLn2SmESxRkHSfpxscDE3hXu8ZWBz4tn2qDi6KSGtvwnntrwBXQ3OPz0qnVVrtyV2cCvCd","width":5984}],"place_id":"ChIJadamWChOqEcRkhby0SuCI9U","plus_code":{"compound_code":"GC53+FR Berlin","global_code":"9F4MGC53+FR"},"price_level":1,"rating":3.9,"reference":"ChIJadamWChOqEcRkhby0SuCI9U","types":["restaurant","food","point_of_interest","establishment"],"user_ratings_total":319},{"business_status":"OPERATIONAL","formatted_address":"Dresdener Str. 11, 10999 Berlin, Germany","geometry":{"location":{"lat":52.5006087,"lng":13.4174237},"viewport":{"northeast":{"lat":52.50193197989272,"lng":13.41870287989272},"southwest":{"lat":52.49923232010728,"lng":13.41600322010728}}},"icon":"https://maps.gstatic.com/mapfiles/place_api/icons/v1/png_71/restaurant-71.png","icon_background_color":"#FF9E67","icon_mask_base_uri":"https://maps.gstatic.com/mapfiles/place_api/icons/v2/restaurant_pinlet","name":"Mercosy","opening_hours":{"open_now":true},"photos":[{"height":2266,"html_attributions":["<a href=\"https://maps.google.com/maps/contrib/115829781391998679916\">Karsten Weng</a>"],"photo_reference":"AeJbb3exFXGKKv1ig3TqMoy6giFcWVnG-OcEhU4R6gPaCMezvEYR8jmDtDu2U_MnuyvKx82u_nSRrO3aE-UTsZI-yA5Wu8jUcMmZpkjBS-AEqlucxA5DiK01ipqjEswS1Ts5ljrD0zbkAk4y468FDF4yKzDX73DBmIA7IMugyVNnbB0FyOD2","width":4032}],"place_id":"ChIJxbJxCTNOqEcRUR72A__wWcA","plus_code":{"compound_code":"GC28+6X Berlin","global_code":"9F4MGC28+6X"},"price_level":2,"rating":4,"reference":"ChIJxbJxCTNOqEcRUR72A__wWcA","types":["restaurant","food","point_of_interest","establishment"],"user_ratings_total":311},{"business_status":"OPERATIONAL","formatted_address":"Wiener Straße 31, 10999 Berlin, Germany","geometry":{"location":{"lat":52.4965801,"lng":13.4337931},"viewport":{"northeast":{"lat":52.49800737989272,"lng":13.43519107989272},"southwest":{"lat":52.49530772010728,"lng":13.43249142010728}}},"icon":"https://maps.gstatic.com/mapfiles/place_api/icons/v1/png_71/restaurant-71.png","icon_background_color":"#FF9E67","icon_mask_base_uri":"https://maps.gstatic.com/mapfiles/place_api/icons/v2/restaurant_pinlet","name":"Mmaah - Korean BBQ Express","opening_hours":{"open_now":true},"photos":[{"height":2000,"html_attributions":["<a href=\"https://maps.google.com/maps/contrib/110716796392147136274\">A Google User</a>"],"photo_reference":"AeJbb3fCxnkZ6RDSrgoXzKYceQNJM8yH63qk1GLqOQUTKZBOcKO0fLXYCYG5VSUtMgKNUaIu0CYA1rCixIPCGY4gf-pC2Youe5_C-zu5eQaS8XBognz0WnYTFkd9xuBoBlEDDRXAyVdjiRL3VOPGSO-k3Qd9ZbiGlD9CsP3lMGum0Xosa4jB","width":1500}],"place_id":"ChIJfX618KFPqEcRWFbbnPnsboY","plus_code":{"compound_code":"FCWM+JG Berlin","global_code":"9F4MFCWM+JG"},"rating":4.3,"reference":"ChIJfX618KFPqEcRWFbbnPnsboY","types":["meal_takeaway","restaurant","food","point_of_interest","establishment"],"user_ratings_total":217},{"business_status":"OPERATIONAL","formatted_address":"Kottbusser Damm 96, 10967 Berlin, Germany","geometry":{"location":{"lat":52.4942176,"lng":13.4215994},"viewport":{"northeast":{"lat":52.49554417989272,"lng":13.42295467989272},"southwest":{"lat":52.49284452010728,"lng":13.42025502010728}}},"icon":"https://maps.gstatic.com/mapfiles/place_api/icons/v1/png_71/restaurant-71.png","icon_background_color":"#FF9E67","icon_mask_base_uri":"https://maps.gstatic.com/mapfiles/place_api/icons/v2/restaurant_pinlet","name":"Ssam Korean Barbeque","opening_hours":{"open_now":true},"photos":[{"height":4032,"html_attributions":["<a href=\"https://maps.google.com/maps/contrib/117683590154977016707\">Hao Chen Liu</a>"],"photo_reference":"AeJbb3ey7UjeevqNGOlIRo8hMJJNYK-PwCEWvF_0juF0jvwJFhlCBaycHc4phpEJSge7CdKZD99_wpM7YWPElXoXauLofZDKwwlpG14peQQTAWC-GeKg9I30UAyBQg4iU2E7S09ftbpnGSzS6Wx39QpTIVYzJeo3RVOSisCFalp7odifVzsr","width":3024}],"place_id":"ChIJO8JfRcpPqEcRBeR4ROeY5-8","plus_code":{"compound_code":"FCVC+PM Berlin","global_code":"9F4MFCVC+PM"},"price_level":2,"rating":4,"reference":"ChIJO8JfRcpPqEcRBeR4ROeY5-8","types":["grocery_or_supermarket","store","restaurant","food","point_of_interest","establishment"],"user_ratings_total":1808},{"business_status":"OPERATIONAL","formatted_address":"Bergmannstraße 1, 10961 Berlin, Germany","geometry":{"location":{"lat":52.48987,"lng":13.38747},"viewport":{"northeast":{"lat":52.49126122989273,"lng":13.38870702989272},"southwest":{"lat":52.48856157010729,"lng":13.38600737010728}}},"icon":"https://maps.gstatic.com/mapfiles/place_api/icons/v1/png_71/restaurant-71.png","icon_background_color":"#FF9E67","icon_mask_base_uri":"https://maps.gstatic.com/mapfiles/place_api/icons/v2/restaurant_pinlet","name":"BABIKYU","opening_hours":{"open_now":true},"photos":[{"height":4032,"html_attributions":["<a href=\"https://maps.google.com/maps/contrib/106914451283840592086\">A Google User</a>"],"photo_reference":"AeJbb3cofhPBYky1kC1yUrK-iAQC9RhiVUCcoYZlv70k1Gt67ufMZo4nZM3yuBJ7xY-pZ_BYEcVP_wlQKOAZ_gfwTfpcGlpuJ1uIxFD_Kxo4Aic8RDOQ8wOgQYFleNUTnDBEbNCqaqLuNn2sPU4Pz3EEjDJK44zufHlA32fhVVzpWuI70dY","width":3024}],"place_id":"ChIJfWRBMyZQqEcRTz4Zrc--2Vo","plus_code":{"compound_code":"F9QP+WX Berlin","global_code":"9F4MF9QP+WX"},"price_level":2,"rating":4.4,"reference":"ChIJfWRBMyZQqEcRTz4Zrc--2Vo","types":["restaurant","food","point_of_interest","establishment"],"user_ratings_total":900},{"business_status":"OPERATIONAL","formatted_address":"Gneisenaustraße 8, 10961 Berlin, Germany","geometry":{"location":{"lat":52.4921471,"lng":13.3901148},"viewport":{"northeast":{"lat":52.49352842989273,"lng":13.39148177989272},"southwest":{"lat":52.49082877010728,"lng":13.38878212010728}}},"icon":"https://maps.gstatic.com/mapfiles/place_api/icons/v1/png_71/restaurant-71.png","icon_background_color":"#FF9E67","icon_mask_base_uri":"https://maps.gstatic.com/mapfiles/place_api/icons/v2/restaurant_pinlet","name":"Madang Restaurant","opening_hours":{"open_now":true},"photos":[{"height":3264,"html_attributions":["<a href=\"https://maps.google.com/maps/contrib/102057365809731321411\">김민경</a>"],"photo_reference":"AeJbb3c-KHJUTzC32pB2EVRa7oi9qoe5NiqiSyZh6CuXkrb2tt-nbRIYFaFjqQFVyTPtY4lDUvLJnCYgaTI_WvuDZMUh3ehYoZJudADAGImxOqLfqU0IGoFFM4WNF1oZcpnDq24azlGwfbeCQXgDgc9wGzXFOCsJQd4bdphLSoI1ngS7hqyk","width":2448}],"place_id":"ChIJTToBRChQqEcROQfEDRgcJZA","plus_code":{"compound_code":"F9RR+R2 Berlin","global_code":"9F4MF9RR+R2"},"price_level":2,"rating":4.2,"reference":"ChIJTToBRChQqEcROQfEDRgcJZA","types":["restaurant","food","point_of_interest","establishment"],"user_ratings_total":514},{"business_status":"OPERATIONAL","formatted_address":"Alte Schönhauser Str. 6, 10119 Berlin, Germany","geometry":{"location":{"lat":52.5275645,"lng":13.4083088},"viewport":{"northeast":{"lat":52.52890367989272,"lng":13.40969667989272},"southwest":{"lat":52.52620402010727,"lng":13.40699702010728}}},"icon":"https://maps.gstatic.com/mapfiles/place_api/icons/v1/png_71/restaurant-71.png","icon_background_color":"#FF9E67","icon_mask_base_uri":"https://maps.gstatic.com/mapfiles/place_api/icons/v2/restaurant_pinlet","name":"YamYam Berlin","opening_hours":{"open_now":true},"photos":[{"height":4160,"html_attributions":["<a href=\"https://maps.google.com/maps/contrib/114398195269333844309\">Barbes Rocherchouart</a>"],"photo_reference":"AeJbb3ckvkm-gjr75Uw-LXkfh-NYHV7-Jzg02tr8Np5uFg2zr42C3QdGUVy1OqaQVumHn48DzaLLQBWucNlwN5Y7hlUt3eNSeRPGRGvfljcePVxx8Qy32hVYnN1oKaGw1FgntJoYIw9x6VI68Wbnq0jFjMQouXBOWONZH0WVUxbvyPM87-JG","width":2340}],"place_id":"ChIJMferFeJRqEcR4ILthWXklLA","plus_code":{"compound_code":"GCH5+27 Berlin","global_code":"9F4MGCH5+27"},"price_level":2,"rating":4.2,"reference":"ChIJMferFeJRqEcR4ILthWXklLA","types":["restaurant","food","point_of_interest","establishment"],"user_ratings_total":2608},{"business_status":"OPERATIONAL","formatted_address":"Mehringdamm 38, 10961 Berlin, Germany","geometry":{"location":{"lat":52.4932934,"lng":13.3875244},"viewport":{"northeast":{"lat":52.49462157989272,"lng":13.38900597989272},"southwest":{"lat":52.49192192010727,"lng":13.38630632010728}}},"icon":"https://maps.gstatic.com/mapfiles/place_api/icons/v1/png_71/restaurant-71.png","icon_background_color":"#FF9E67","icon_mask_base_uri":"https://maps.gstatic.com/mapfiles/place_api/icons/v2/restaurant_pinlet","name":"Gogi Boss","opening_hours":{"open_now":true},"photos":[{"height":5504,"html_attributions":["<a href=\"https://maps.google.com/maps/contrib/105764270729976812158\">Ramsus Røsensburgers</a>"],"photo_reference":"AeJbb3dVStstyj5uuCQizNlKFQlrSizY8hLBDA_YncuXO6xajHG1ciwq9P59LE3CMYT8m4KEnhoRSCVp4hJR1GKR4f-Vtqew_BjWYnnimdK2AesM2nzAaQZnsbUcZWMY9IkI3432SNSqFqrAiiHaKgXWtvILGwR_3OoYv50Lqab6ACZG66w","width":3096}],"place_id":"ChIJOWi04ShQqEcREzZrIe80hsw","plus_code":{"compound_code":"F9VQ+82 Berlin","global_code":"9F4MF9VQ+82"},"rating":3.9,"reference":"ChIJOWi04ShQqEcREzZrIe80hsw","types":["restaurant","food","point_of_interest","establishment"],"user_ratings_total":399},{"business_status":"OPERATIONAL","formatted_address":"Rosa-Luxemburg-Straße 5-7, 10178 Berlin, Germany","geometry":{"location":{"lat":52.5236664,"lng":13.4090889},"viewport":{"northeast":{"lat":52.52498062989272,"lng":13.41057012989272},"southwest":{"lat":52.52228097010727,"lng":13.40787047010728}}},"icon":"https://maps.gstatic.com/mapfiles/place_api/icons/v1/png_71/restaurant-71.png","icon_background_color":"#FF9E67","icon_mask_base_uri":"https://maps.gstatic.com/mapfiles/place_api/icons/v2/restaurant_pinlet","name":"Bibi Mix","opening_hours":{"open_now":true},"photos":[{"height":4032,"html_attributions":["<a href=\"https://maps.google.com/maps/contrib/111210276161253804230\">Мария</a>"],"photo_reference":"AeJbb3dJxy0gGZ7UBZHo3sh--laBQsRYv_hL8Jxc4w78lTqcSOi8P_eN3Ag0LJkr3MFuek7VeXI39q8AN4NOYZ7i8V0chwx2LtjGiUL8rz2OTsQfex0Lrc9Tva5zezVbTmYCe4D4ShcPLU2D34NEPSpDAjcGhIcMutwKeDSQKsBadS2J2Gjg","width":3024}],"place_id":"ChIJj8aEMh5OqEcRu4fSDp0xYPQ","plus_code":{"compound_code":"GCF5+FJ Berlin","global_code":"9F4MGCF5+FJ"},"price_level":2,"rating":4.1,"reference":"ChIJj8aEMh5OqEcRu4fSDp0xYPQ","types":["meal_takeaway","restaurant","food","point_of_interest","establishment"],"user_ratings_total":183},{"business_status":"OPERATIONAL","formatted_address":"TOPFLAT-BERLIN.DE, Warschauer Str. 46, 10243 Berlin, Germany","geometry":{"location":{"lat":52.5036821,"lng":13.4471711},"viewport":{"northeast":{"lat":52.50499402989272,"lng":13.44869297989272},"southwest":{"lat":52.50229437010728,"lng":13.44599332010728}}},"icon":"https://maps.gstatic.com/mapfiles/place_api/icons/v1/png_71/restaurant-71.png","icon_background_color":"#FF9E67","icon_mask_base_uri":"https://maps.gstatic.com/mapfiles/place_api/icons/v2/restaurant_pinlet","name":"Seoulkitchen","opening_hours":{"open_now":true},"photos":[{"height":250,"html_attributions":["<a href=\"https://maps.google.com/maps/contrib/118231177480546700906\">A Google User</a>"],"photo_reference":"AeJbb3cMdkg24bEthj4PbTq_LgkZYKOylFBELEuQPg_jgJEnjXB32txdBbwV_6wifKOEgmqGuZRhiJPgRqeg6JokRdRMp8ssr6WLta3mKMRl6I9hg6UFfKps5ohANK2-3j8QP7nqtLYi0N2BfW1rOOBUs-s_Kimk_fLtStwoHI7mNYCeiMqw","width":250}],"place_id":"ChIJuyyr3wNOqEcROHTN-Jy1aUs","plus_code":{"compound_code":"GC3W+FV Berlin","global_code":"9F4MGC3W+FV"},"price_level":2,"rating":4.4,"reference":"ChIJuyyr3wNOqEcROHTN-Jy1aUs","types":["restaurant","food","point_of_interest","establishment"],"user_ratings_total":1945},{"business_status":"OPERATIONAL","formatted_address":"Oranienstraße 16, 10999 Berlin, Germany","geometry":{"location":{"lat":52.5005637,"lng":13.4229295},"viewport":{"northeast":{"lat":52.50189402989272,"lng":13.42429222989272},"southwest":{"lat":52.49919437010728,"lng":13.42159257010728}}},"icon":"https://maps.gstatic.com/mapfiles/place_api/icons/v1/png_71/restaurant-71.png","icon_background_color":"#FF9E67","icon_mask_base_uri":"https://maps.gstatic.com/mapfiles/place_api/icons/v2/restaurant_pinlet","name":"Angry Chicken","opening_hours":{"open_now":true},"photos":[{"height":2268,"html_attributions":["<a href=\"https://maps.google.com/maps/contrib/109706775778387005768\">Rad Ideal</a>"],"photo_reference":"AeJbb3eHk8cdUGLXopDY78Ot62apPnRpgF4KOz3TShKanp4tCHqtItLctq9dWXSO0reEkNem88iVp4qbuC29QUFFBAqan2tD76dUEOGgH_XUQ3yhgdqVEDtjmWVhRy9O8aq8AlqT8AnrMiW622qegYWu_hV9jZOe9P9RpeqtnuWn8WcIWYV-","width":4032}],"place_id":"ChIJpev7ZjVOqEcR-Dw4UZKT_-g","plus_code":{"compound_code":"GC2F+65 Berlin","global_code":"9F4MGC2F+65"},"price_level":2,"rating":4.2,"reference":"ChIJpev7ZjVOqEcR-Dw4UZKT_-g","types":["restaurant","food","point_of_interest","establishment"],"user_ratings_total":1827},{"business_status":"OPERATIONAL","formatted_address":"Torstraße 179, 10115 Berlin, Germany","geometry":{"location":{"lat":52.5287438,"lng":13.3939059},"viewport":{"northeast":{"lat":52.53001862989272,"lng":13.39533902989272},"southwest":{"lat":52.52731897010727,"lng":13.39263937010728}}},"icon":"https://maps.gstatic.com/mapfiles/place_api/icons/v1/png_71/restaurant-71.png","icon_background_color":"#FF9E67","icon_mask_base_uri":"https://maps.gstatic.com/mapfiles/place_api/icons/v2/restaurant_pinlet","name":"Coréen Restaurant Berlin","opening_hours":{"open_now":true},"photos":[{"height":4000,"html_attributions":["<a href=\"https://maps.google.com/maps/contrib/101206456148959577173\">Inés Valero Solesio</a>"],"photo_reference":"AeJbb3fQ1hXdfe2iQ4yT8bxRpC5sqdsFX26xIZ0aWJm_r5uopuJWvyypeNJXNLEX6rwwtRIU2Xpy2eje4-pm7FtIfES8jdZcpvKiteaFuh4c2IWamjl51NjQ_ZDBIj6SxbcTt5c8wwloGydpLlUp12mYKoeJGVlwVdvRMHik9ESrTh1XgaLP","width":2250}],"place_id":"ChIJOaDRwjtRqEcRnkLvxNMuZdw","plus_code":{"compound_code":"G9HV+FH Berlin","global_code":"9F4MG9HV+FH"},"rating":4.2,"reference":"ChIJOaDRwjtRqEcRnkLvxNMuZdw","types":["restaurant","food","point_of_interest","establishment"],"user_ratings_total":218},{"business_status":"OPERATIONAL","formatted_address":"Revaler Str. 8, 10245 Berlin, Germany","geometry":{"location":{"lat":52.5085269,"lng":13.4523611},"viewport":{"northeast":{"lat":52.50977767989272,"lng":13.45368907989272},"southwest":{"lat":52.50707802010728,"lng":13.45098942010728}}},"icon":"https://maps.gstatic.com/mapfiles/place_api/icons/v1/png_71/restaurant-71.png","icon_background_color":"#FF9E67","icon_mask_base_uri":"https://maps.gstatic.com/mapfiles/place_api/icons/v2/restaurant_pinlet","name":"MERCOSY Friedrichshain","opening_hours":{"open_now":true},"photos":[{"height":1080,"html_attributions":["<a href=\"https://maps.google.com/maps/contrib/116351367862040464494\">A Google User</a>"],"photo_reference":"AeJbb3fwoZIaoP2JHQKJVpNEzvSOyPLCYdp5YZXRwsJbqhBsjRwRGt_qn_CLiJ1Jy8NHgWfDTP8KJ5SctO8uSaOS4SI03T1jZHbCN5dZXLsWFcTvLL7FnTLK5M8-MA-cPd0q-K8Qa4Ro8hJHkgB2r3XfyOl3TQ4bRwTRHuJcAo5XTOv8MXik","width":1080}],"place_id":"ChIJCX3S-WVPqEcRw3Rb_IcIPWU","plus_code":{"compound_code":"GF52+CW Berlin","global_code":"9F4MGF52+CW"},"rating":4,"reference":"ChIJCX3S-WVPqEcRw3Rb_IcIPWU","types":["restaurant","food","point_of_interest","establishment"],"user_ratings_total":105},{"business_status":"OPERATIONAL","formatted_address":"Columbiadamm 160, 10965 Berlin, Germany","geometry":{"location":{"lat":52.4799602,"lng":13.4179199},"viewport":{"northeast":{"lat":52.48140142989272,"lng":13.41930072989272},"southwest":{"lat":52.47870177010728,"lng":13.41660107010728}}},"icon":"https://maps.gstatic.com/mapfiles/place_api/icons/v1/png_71/restaurant-71.png","icon_background_color":"#FF9E67","icon_mask_base_uri":"https://maps.gstatic.com/mapfiles/place_api/icons/v2/restaurant_pinlet","name":"Mmaah - Korean BBQ Express","opening_hours":{"open_now":true},"photos":[{"height":12000,"html_attributions":["<a href=\"https://maps.google.com/maps/contrib/111953906488314418769\">marco.gribnitz</a>"],"photo_reference":"AeJbb3fxdtJtmhtDjIMRJg3z_x5UtkDhY-jSRTkyS-n-KxgpGtPZShlJ5L4015hLyt2I3ZeSk4dSvYkLnXV4BoDvaYUeEhDJKf3XR8tFVhzF7RbxSh78rPF4GKCdg4TABaZPwmnQytSCeCVuLSp-KZpdqYMfEBC9xSiwElFgpeluWlW5ggR3","width":9000}],"place_id":"ChIJa18JY79PqEcRGC2IbRHdfjk","plus_code":{"compound_code":"FCH9+X5 Berlin","global_code":"9F4MFCH9+X5"},"price_level":2,"rating":4.4,"reference":"ChIJa18JY79PqEcRGC2IbRHdfjk","types":["restaurant","food","point_of_interest","establishment"],"user_ratings_total":534},{"business_status":"OPERATIONAL","formatted_address":"Kiehlufer 75, 12059 Berlin, Germany","geometry":{"location":{"lat":52.4838089,"lng":13.4476572},"viewport":{"northeast":{"lat":52.48510777989272,"lng":13.44891592989272},"southwest":{"lat":52.48240812010728,"lng":13.44621627010728}}},"icon":"https://maps.gstatic.com/mapfiles/place_api/icons/v1/png_71/restaurant-71.png","icon_background_color":"#FF9E67","icon_mask_base_uri":"https://maps.gstatic.com/mapfiles/place_api/icons/v2/restaurant_pinlet","name":"Mmaah - Korean BBQ Express","opening_hours":{"open_now":true},"photos":[{"height":3024,"html_attributions":["<a href=\"https://maps.google.com/maps/contrib/112913631589474220677\">Lost Berlin</a>"],"photo_reference":"AeJbb3cDkdNodNDizmUt36wPrvexZ-MCCV9OsmpjqVj6w7JJxQ4wPtjwFbjJlsOmtmP9qqF6se5OmsiQHsD9KIbxXzS-b1nMozFoqi-DV0-mCdQ0K4WC06aAYhKFa53z8wvThedVBSIejaOWfIPs-N3Xig6TayaBznnf4PxUQ8TuJyb6a7yt","width":4032}],"place_id":"ChIJn4KYd6hPqEcRvXHk-PqI5pY","plus_code":{"compound_code":"FCMX+G3 Berlin","global_code":"9F4MFCMX+G3"},"price_level":2,"rating":4.3,"reference":"ChIJn4KYd6hPqEcRvXHk-PqI5pY","types":["meal_takeaway","restaurant","food","point_of_interest","establishment"],"user_ratings_total":470},{"business_status":"OPERATIONAL","formatted_address":"Simon-Dach-Straße 11, 10245 Berlin, Germany","geometry":{"location":{"lat":52.5106703,"lng":13.4562816},"viewport":{"northeast":{"lat":52.51204617989273,"lng":13.45776292989272},"southwest":{"lat":52.50934652010729,"lng":13.45506327010728}}},"icon":"https://maps.gstatic.com/mapfiles/place_api/icons/v1/png_71/restaurant-71.png","icon_background_color":"#FF9E67","icon_mask_base_uri":"https://maps.gstatic.com/mapfiles/place_api/icons/v2/restaurant_pinlet","name":"Mmaah - Korean BBQ Express","opening_hours":{"open_now":true},"photos":[{"height":280,"html_attributions":["<a href=\"https://maps.google.com/maps/contrib/105693553626789275717\">A Google User</a>"],"photo_reference":"AeJbb3fJcoU3tbgcDbBBZIiw_YVN0rPjMG3jN-ckUAMwJwV7LAG9WEZCXZhS-CgaD8fmjG_1DGkm63GDIa7RpTXQ9Xuq8poDyNQZF1CYXEQURQsbyMgpvGIanUyl4r89cMddreAQWIqnd-RHCFMiaLiEOVm_OI-TGxh0PjIEqp6ygaxX5b-I","width":502}],"place_id":"ChIJOxO_zOpPqEcRbpOlrta1XpM","plus_code":{"compound_code":"GF64+7G Berlin","global_code":"9F4MGF64+7G"},"rating":4.2,"reference":"ChIJOxO_zOpPqEcRbpOlrta1XpM","types":["meal_takeaway","restaurant","food","point_of_interest","establishment"],"user_ratings_total":309},{"business_status":"OPERATIONAL","formatted_address":"Schillerpromenade 32, 12049 Berlin, Germany","geometry":{"location":{"lat":52.4757472,"lng":13.4229075},"viewport":{"northeast":{"lat":52.47706077989272,"lng":13.42427222989272},"southwest":{"lat":52.47436112010728,"lng":13.42157257010728}}},"icon":"https://maps.gstatic.com/mapfiles/place_api/icons/v1/png_71/restaurant-71.png","icon_background_color":"#FF9E67","icon_mask_base_uri":"https://maps.gstatic.com/mapfiles/place_api/icons/v2/restaurant_pinlet","name":"BAN BAN KITCHEN","opening_hours":{"open_now":true},"photos":[{"height":4032,"html_attributions":["<a href=\"https://maps.google.com/maps/contrib/112414906221598843789\">Marcus Magnusson</a>"],"photo_reference":"AeJbb3fUS0VlDySPeYjZGXjp-dWKhU0Kv8HjWCNSovGcjS-iVKyWh1RpRr-Lx0YUIff27m39u8-PttgshYT-5X6tYd9csDbZBo4gZG0kEGOPQfTosYBuS4sa0E2SwYBKTegccVt_hutUfJh2oateLaAvAD5s5V1Wc6jhQL6QzEtDnKeNvfce","width":2268}],"place_id":"ChIJL5Dnm71PqEcRAJrjIuzWxnE","plus_code":{"compound_code":"FCGF+85 Berlin","global_code":"9F4MFCGF+85"},"rating":3.8,"reference":"ChIJL5Dnm71PqEcRAJrjIuzWxnE","types":["restaurant","food","point_of_interest","establishment"],"user_ratings_total":266},{"business_status":"OPERATIONAL","formatted_address":"Goebenstraße 16, 10783 Berlin, Germany","geometry":{"location":{"lat":52.4937262,"lng":13.3665307},"viewport":{"northeast":{"lat":52.49499782989272,"lng":13.36784707989272},"southwest":{"lat":52.49229817010728,"lng":13.36514742010728}}},"icon":"https://maps.gstatic.com/mapfiles/place_api/icons/v1/png_71/restaurant-71.png","icon_background_color":"#FF9E67","icon_mask_base_uri":"https://maps.gstatic.com/mapfiles/place_api/icons/v2/restaurant_pinlet","name":"Hodori Restaurant","opening_hours":{"open_now":true},"photos":[{"height":4032,"html_attributions":["<a href=\"https://maps.google.com/maps/contrib/108434195418422436766\">Benedek</a>"],"photo_reference":"AeJbb3dEGzc_tcvVn6yDh6b6emEDLVYFCh4gTRgRk552ybX5EbhCgn2QLURsIb35ddYF6DK977I8GLFrFmKEqGBkgyA4-vtn396WyY9S4mSlyu5c-zGDu6qjLA7G2rTcuD0tvE3kVIZ2U271PyVBwrZ89W1nZsAL6OTTp9WUfvl0hjUKrJMg","width":3024}],"place_id":"ChIJF52pZDdQqEcROVyKDxqLP1g","plus_code":{"compound_code":"F9V8+FJ Berlin","global_code":"9F4MF9V8+FJ"},"price_level":2,"rating":4,"reference":"ChIJF52pZDdQqEcROVyKDxqLP1g","types":["restaurant","food","point_of_interest","establishment"],"user_ratings_total":1391},{"business_status":"OPERATIONAL","formatted_address":"Nollendorfstraße 31, 10777 Berlin, Germany","geometry":{"location":{"lat":52.4977557,"lng":13.3525434},"viewport":{"northeast":{"lat":52.49919752989272,"lng":13.35398887989272},"southwest":{"lat":52.49649787010727,"lng":13.35128922010728}}},"icon":"https://maps.gstatic.com/mapfiles/place_api/icons/v1/png_71/restaurant-71.png","icon_background_color":"#FF9E67","icon_mask_base_uri":"https://maps.gstatic.com/mapfiles/place_api/icons/v2/restaurant_pinlet","name":"Mmaah - Korean BBQ Express","opening_hours":{"open_now":true},"photos":[{"height":3980,"html_attributions":["<a href=\"https://maps.google.com/maps/contrib/110833080283572547959\">Maximilian</a>"],"photo_reference":"AeJbb3dw_VYnBdQxrKA3jJfJzrH7ad1zhVp2VlbkzShtoW4Zaa2t--cZtjlA8XJPKW57_J-kU9ms1r9_TUUfaciCqlHGh2OgpgvhUKf7D-GonRKrx0peYT3QUcu2gZFdzF9KTuGR3WRNH5fGJS7edA9-aLuYBEamhn9wZpb5_KcV6DcP8gSa","width":2985}],"place_id":"ChIJI8gJVk5QqEcRXdR_h3d15HE","plus_code":{"compound_code":"F9X3+42 Berlin","global_code":"9F4MF9X3+42"},"price_level":2,"rating":4.3,"reference":"ChIJI8gJVk5QqEcRXdR_h3d15HE","types":["restaurant","food","point_of_interest","establishment"],"user_ratings_total":815}],"status":"OK"}