[{"business_status":"OPERATIONAL","formatted_address":"Bulevardul General Gheorghe Magheru 12-14, București 030167","geometry":{"location":{"lat":44.4424746,"lng":26.0991938},"viewport":{"northeast":{"lat":44.44376307989272,"lng":26.10046872989272},"southwest":{"lat":44.44106342010728,"lng":26.09776907010728}}},"icon":"https://maps.gstatic.com/mapfiles/place_api/icons/v1/png_71/restaurant-71.png","icon_background_color":"#FF9E67","icon_mask_base_uri":"https://maps.gstatic.com/mapfiles/place_api/icons/v2/restaurant_pinlet","name":"The Kimchi","opening_hours":{"open_now":true},"photos":[{"height":3000,"html_attributions":["<a href=\"https://maps.google.com/maps/contrib/109613546773344977628\">Ciprian Alexandru Gorneanu</a>"],"photo_reference":"AeJbb3cZH_hWtpwc9JOY_-mFSAdY0ydotrFRMzKkpbeGccmZLuZmzv8BqTyLpCMyag-7pXYtsHi5650xSDV8BFgYDM4_5g0-pUgY5P26N6rvUoIrmx7e_C68oebWz_DHFIHcg834nhRWHH55GnY3DcmcrJfB1AJj6f60waQOk1im8YCYEuHg","width":4000}],"place_id":"ChIJixc-Mxr_sUAREazbCMFK53A","plus_code":{"compound_code":"C3RX+XM Bucharest","global_code":"8GP8C3RX+XM"},"rating":5,"reference":"ChIJixc-Mxr_sUAREazbCMFK53A","types":["restaurant","food","point_of_interest","store","establishment"],"user_ratings_total":97},{"business_status":"OPERATIONAL","formatted_address":"Intrarea Aviator Teodor Iliescu 2, București 011671","geometry":{"location":{"lat":44.45963099999999,"lng":26.0953334},"viewport":{"northeast":{"lat":44.46104422989271,"lng":26.09666687989272},"southwest":{"lat":44.45834457010727,"lng":26.09396722010728}}},"icon":"https://maps.gstatic.com/mapfiles/place_api/icons/v1/png_71/restaurant-71.png","icon_background_color":"#FF9E67","icon_mask_base_uri":"https://maps.gstatic.com/mapfiles/place_api/icons/v2/restaurant_pinlet","name":"Rio Juice Dorobanti","opening_hours":{"open_now":false},"photos":[{"height":3000,"html_attributions":["<a href=\"https://maps.google.com/maps/contrib/110220255696416865064\">110220255696416865064</a>"],"photo_reference":"AeJbb3eU3c_gzdcAxYwstxGarAyUx70KHszNMXc5mcJGiiKU2yDgMzbxj-uiPTgLLyJre4oIAIz2zS-Bp-BCrAvYJXrQgevm-59MvgFk5LWBjAWvh77cN1KHdCX1lBUJnRVGmxhXNMOfs6mHjo_Co05TfpnzHc-nkD00IMiBOzToEiwJH5sw","width":4000}],"place_id":"ChIJY_q99QcCskARBIVYRhavqFA","plus_code":{"compound_code":"F35W+V4 Bucharest","global_code":"8GP8F35W+V4"},"price_level":2,"rating":4.9,"reference":"ChIJY_q99QcCskARBIVYRhavqFA","types":["cafe","restaurant","food","point_of_interest","establishment"],"user_ratings_total":215},{"business_status":"OPERATIONAL","formatted_address":"Calea Dudești 101, București 031083","geometry":{"location":{"lat":44.4241719,"lng":26.124264},"viewport":{"northeast":{"lat":44.42549622989272,"lng":26.12558327989272},"southwest":{"lat":44.42279657010728,"lng":26.12288362010728}}},"icon":"https://maps.gstatic.com/mapfiles/place_api/icons/v1/png_71/restaurant-71.png","icon_background_color":"#FF9E67","icon_mask_base_uri":"https://maps.gstatic.com/mapfiles/place_api/icons/v2/restaurant_pinlet","name":"The Vibe - Lunch & Lounge","opening_hours":{"open_now":false},"photos":[{"height":3384,"html_attributions":["<a href=\"https://maps.google.com/maps/contrib/107330149476653312885\">A Google User</a>"],"photo_reference":"AeJbb3fHLdFnHqxEvOD0JcrgPoZNKxrAzrXU4Bfy4cFbRm0JSTANzJf9uEyBlCzLDUPmnfbB6W4TC_pKH1Dvkox1cjGXXcD7fFWKXmoqckn1JoJ5NA_bwBc7phbokgMu3PI25dcIh2jvWf3oe_2pi7cZL3NqlJtQbaFteFl0BQuvI_hmXD_7","width":6016}],"place_id":"ChIJJ-i7gS__sUARCDQDKkXtupQ","plus_code":{"compound_code":"C4FF+MP Bucharest","global_code":"8GP8C4FF+MP"},"rating":4.9,"reference":"ChIJJ-i7gS__sUARCDQDKkXtupQ","types":["restaurant","food","point_of_interest","establishment"],"user_ratings_total":45},{"business_status":"OPERATIONAL","formatted_address":"Strada Buzești 63-69, București 011013","geometry":{"location":{"lat":44.4500331,"lng":26.0831882},"viewport":{"northeast":{"lat":44.45134467989272,"lng":26.08466477989272},"southwest":{"lat":44.44864502010728,"lng":26.08196512010728}}},"icon":"https://maps.gstatic.com/mapfiles/place_api/icons/v1/png_71/restaurant-71.png","icon_background_color":"#FF9E67","icon_mask_base_uri":"https://maps.gstatic.com/mapfiles/place_api/icons/v2/restaurant_pinlet","name":"Rainbowls","opening_hours":{"open_now":false},"photos":[{"height":3456,"html_attributions":["<a href=\"https://maps.google.com/maps/contrib/107680442553302369120\">A Google User</a>"],"photo_reference":"AeJbb3dIWMf8nF3EcV4jK-xHjeSu6QR0fGGwY8dFx8EXlSqrXul-YEYp8o4S7WolcjL3yi-Sa5nftxGQnwfluL5yew9NZMoCCavjGJcthCLPu2cB3VO7I-YGic8f8raJtw0vWfnbMEFeflOfukqYRhAZ25uprrx6yvDZwO0oCgY8u0Zlhs_D","width":4608}],"place_id":"ChIJgT9t2nsBskARjUd6NX2XyH4","plus_code":{"compound_code":"F32M+27 Bucharest","global_code":"8GP8F32M+27"},"rating":4.8,"reference":"ChIJgT9t2nsBskARjUd6NX2XyH4","types":["restaurant","food","point_of_interest","establishment"],"user_ratings_total":45},{"business_status":"OPERATIONAL","formatted_address":"Strada Pârgarilor 17bis, București 021675","geometry":{"location":{"lat":44.45606859999999,"lng":26.1157234},"viewport":{"northeast":{"lat":44.45739262989273,"lng":26.11707082989272},"southwest":{"lat":44.45469297010729,"lng":26.11437117010728}}},"icon":"https://maps.gstatic.com/mapfiles/place_api/icons/v1/png_71/restaurant-71.png","icon_background_color":"#FF9E67","icon_mask_base_uri":"https://maps.gstatic.com/mapfiles/place_api/icons/v2/restaurant_pinlet","name":"La Baraca","opening_hours":{"open_now":true},"photos":[{"height":4160,"html_attributions":["<a href=\"https://maps.google.com/maps/contrib/117170980096551538988\">Logofetici Gabriel</a>"],"photo_reference":"AeJbb3eY0XqvFj0vThmyhdT7qx3kTf9fitH6KQxC1S9sYPXhApDnA2ym3Qg26KrQLDru6fIoq9ijePjOcu5EnOg_hpVSunEVmdFFeMU_Tz1_QxMqKo41I4xMH6z5UfrSe3YwaslGFwF6ROMXP-Iz0l6Wj4kOBoclhAHGzhVQ1dmsgkZVIcQ6","width":3120}],"place_id":"ChIJhf2X-bn4sUARPvmhpUOuwDI","plus_code":{"compound_code":"F448+C7 Bucharest","global_code":"8GP8F448+C7"},"price_level":1,"rating":4.7,"reference":"ChIJhf2X-bn4sUARPvmhpUOuwDI","types":["restaurant","food","point_of_interest","establishment"],"user_ratings_total":295},{"business_status":"OPERATIONAL","formatted_address":"Intrarea Tudor Ștefan nr 9, București 011655","geometry":{"location":{"lat":44.4594695,"lng":26.0959925},"viewport":{"northeast":{"lat":44.46081712989272,"lng":26.09734287989273},"southwest":{"lat":44.45811747010728,"lng":26.09464322010728}}},"icon":"https://maps.gstatic.com/mapfiles/place_api/icons/v1/png_71/restaurant-71.png","icon_background_color":"#FF9E67","icon_mask_base_uri":"https://maps.gstatic.com/mapfiles/place_api/icons/v2/restaurant_pinlet","name":"Pokeful","opening_hours":{"open_now":true},"photos":[{"height":3024,"html_attributions":["<a href=\"https://maps.google.com/maps/contrib/100498213427611177183\">Lucian Coman</a>"],"photo_reference":"AeJbb3cF1UL1HSE6mk5BV8j5r6Rei7wHuUZa3dwuPe7sSeNDz_o-NUkx2V7hQd3lQBnNblCC0v9iid0qYIWu2VDU4mJ_7aIqjhntSgzI-gdLX2JaUK3A6Ro4DaKBJg4FBnBSxDGuiTp1iGo4N6mgQOCIaIFdSETbGcsJT-e6zpN6_4FIlA5U","width":4032}],"place_id":"ChIJr7ZuKcn5sUAR5La_uSsc_o4","plus_code":{"compound_code":"F35W+Q9 Bucharest","global_code":"8GP8F35W+Q9"},"rating":4.7,"reference":"ChIJr7ZuKcn5sUAR5La_uSsc_o4","types":["restaurant","food","point_of_interest","establishment"],"user_ratings_total":63},{"business_status":"OPERATIONAL","formatted_address":"Strada General Eremia Grigorescu 10, București 030167","geometry":{"location":{"lat":44.4446799,"lng":26.1025052},"viewport":{"northeast":{"lat":44.44599577989273,"lng":26.10382517989272},"southwest":{"lat":44.44329612010728,"lng":26.10112552010728}}},"icon":"https://maps.gstatic.com/mapfiles/place_api/icons/v1/png_71/restaurant-71.png","icon_background_color":"#FF9E67","icon_mask_base_uri":"https://maps.gstatic.com/mapfiles/place_api/icons/v2/restaurant_pinlet","name":"POINT","opening_hours":{"open_now":true},"photos":[{"height":947,"html_attributions":["<a href=\"https://maps.google.com/maps/contrib/104815002024801455967\">A Google User</a>"],"photo_reference":"AeJbb3fpcMQHusGypiY5ozEULBFXThLa9Pm4eP5vF0UpdwXmX6VoE12MmlG16W3tIk7R3Gua0dMMpJTMb_iGmz3R65kW7TB7eJ1FE2DnF8mRliLUBn2sOX5qCACUQ8MtF1nQf824-JWx6bfnnYjoqCC6W3PRludHWVrmV4jPwhk0GCwctQmE","width":1920}],"place_id":"ChIJLfCWGUz_sUARpjMTZcdoCP4","plus_code":{"compound_code":"C4V3+V2 Bucharest","global_code":"8GP8C4V3+V2"},"rating":4.6,"reference":"ChIJLfCWGUz_sUARpjMTZcdoCP4","types":["restaurant","bar","food","point_of_interest","establishment"],"user_ratings_total":733},{"business_status":"OPERATIONAL","formatted_address":"Strada Vasile Lascăr 59, București 020493","geometry":{"location":{"lat":44.4424456,"lng":26.1094217},"viewport":{"northeast":{"lat":44.44370097989272,"lng":26.11082497989272},"southwest":{"lat":44.44100132010728,"lng":26.10812532010728}}},"icon":"https://maps.gstatic.com/mapfiles/place_api/icons/v1/png_71/restaurant-71.png","icon_background_color":"#FF9E67","icon_mask_base_uri":"https://maps.gstatic.com/mapfiles/place_api/icons/v2/restaurant_pinlet","name":"ZenSushi Sarroglia","opening_hours":{"open_now":true},"photos":[{"height":2268,"html_attributions":["<a href=\"https://maps.google.com/maps/contrib/103262926365982209754\">Alexandru Popescu</a>"],"photo_reference":"AeJbb3e5reuW_nPhGw9cfvLSmj6QNVdwOXlGwlqJ51PdfA7EpGAaTJ2Xev8qNy3iySdiUBOc250IUZ83juladPDJEOdVLJkmA66U5vc6rbw2SD6liFSRQsvUHyVqYda0nmXomCWEB8tE9EiUbfPF-tegMI_QI3lnG5babTng3ZzMqxikt8Ij","width":4032}],"place_id":"ChIJ5R-0ATb_sUAR0jhFMx47JZo","plus_code":{"compound_code":"C4R5+XQ Bucharest","global_code":"8GP8C4R5+XQ"},"price_level":3,"rating":4.6,"reference":"ChIJ5R-0ATb_sUAR0jhFMx47JZo","types":["restaurant","food","point_of_interest","establishment"],"user_ratings_total":556},{"business_status":"OPERATIONAL","formatted_address":"Str. Jean Louis Calderon 34, București 020934","geometry":{"location":{"lat":44.4393185,"lng":26.1051142},"viewport":{"northeast":{"lat":44.44067267989271,"lng":26.10642097989272},"southwest":{"lat":44.43797302010727,"lng":26.10372132010728}}},"icon":"https://maps.gstatic.com/mapfiles/place_api/icons/v1/png_71/restaurant-71.png","icon_background_color":"#FF9E67","icon_mask_base_uri":"https://maps.gstatic.com/mapfiles/place_api/icons/v2/restaurant_pinlet","name":"Beautyfood","opening_hours":{"open_now":true},"photos":[{"height":800,"html_attributions":["<a href=\"https://maps.google.com/maps/contrib/114959630369803306006\">A Google User</a>"],"photo_reference":"AeJbb3fH6Uwz_yVzKvqX2HgXaiI5xwIRHuhyTMDqiULzvev-rhfpj5AYki5B-Q0G59bveilCxTOwTsPwzFiqnToFxxA-EEGxMK8WW9_YoYDCVagP7v4AQr2Nc8CZrgsiGO_JX-8adDDA-fD2m2dEdE686VPqCoYnt5BrjgzDq1IwOMnuFEU3","width":800}],"place_id":"ChIJ--3RE0j_sUARY6VgM9PNZpw","plus_code":{"compound_code":"C4Q4+P2 Bucharest","global_code":"8GP8C4Q4+P2"},"price_level":2,"rating":4.6,"reference":"ChIJ--3RE0j_sUARY6VgM9PNZpw","types":["night_club","bar","restaurant","food","point_of_interest","establishment"],"user_ratings_total":501},{"business_status":"OPERATIONAL","formatted_address":"Bulevardul Ion Mihalache 20, București 011171","geometry":{"location":{"lat":44.454899,"lng":26.0817242},"viewport":{"northeast":{"lat":44.45621487989272,"lng":26.08301377989272},"southwest":{"lat":44.45351522010727,"lng":26.08031412010728}}},"icon":"https://maps.gstatic.com/mapfiles/place_api/icons/v1/png_71/restaurant-71.png","icon_background_color":"#FF9E67","icon_mask_base_uri":"https://maps.gstatic.com/mapfiles/place_api/icons/v2/restaurant_pinlet","name":"Atelierul de Tarte","opening_hours":{"open_now":true},"photos":[{"height":2268,"html_attributions":["<a href=\"https://maps.google.com/maps/contrib/107718156423582959011\">Vlad Purge</a>"],"photo_reference":"AeJbb3dRz1ufKAnXdtLxt6v1SNcPAizRn1cyfRy5HP2NJvcC9lY8VUgJ1zkgsrCBRbr1wXdYG-TC3PBqiTPg5Pyw7Bx4YQrGveiMxrbV_e-MnJyvIwzuUcrYlFVw0a96CMswA85AUZ5Dd4RefJyr1rzscC3V28CBh_hIYHZhZLgKg2OfTnuf","width":4032}],"place_id":"ChIJjQ_IEQICskARrayi_0JLnuA","plus_code":{"compound_code":"F33J+XM Bucharest","global_code":"8GP8F33J+XM"},"price_level":2,"rating":4.5,"reference":"ChIJjQ_IEQICskARrayi_0JLnuA","types":["restaurant","food","point_of_interest","establishment"],"user_ratings_total":1959},{"business_status":"OPERATIONAL","formatted_address":"Strada Dianei 9, București 020971","geometry":{"location":{"lat":44.4377463,"lng":26.1061906},"viewport":{"northeast":{"lat":44.43907857989272,"lng":26.10759137989272},"southwest":{"lat":44.43637892010727,"lng":26.10489172010728}}},"icon":"https://maps.gstatic.com/mapfiles/place_api/icons/v1/png_71/restaurant-71.png","icon_background_color":"#FF9E67","icon_mask_base_uri":"https://maps.gstatic.com/mapfiles/place_api/icons/v2/restaurant_pinlet","name":"Kane","opening_hours":{"open_now":false},"photos":[{"height":3024,"html_attributions":["<a href=\"https://maps.google.com/maps/contrib/113592889921571241235\">raiser costin</a>"],"photo_reference":"AeJbb3cx4VXOjrURF7vGv_BAqtVLeHNg2bJ5HLpqPDDbfr04bnEeoa9rCU7yEyOfMuDSHSEt4MgPavZqYyX-gH18nRj1lYVnCcgBhKW6aJsLTYzCcQGtS9ivzcHiILTo8DXDtWMFizNAUnD6Gk9olFpbRKAz3BN4WR5SrqFykyzXFcEWGQ8","width":5376}],"place_id":"ChIJP03LRrL4sUARQXXlq_0r4E8","plus_code":{"compound_code":"C4Q4+3F Bucharest","global_code":"8GP8C4Q4+3F"},"price_level":3,"rating":4.5,"reference":"ChIJP03LRrL4sUARQXXlq_0r4E8","types":["restaurant","food","point_of_interest","establishment"],"user_ratings_total":479},{"business_status":"OPERATIONAL","formatted_address":"Calea 13 Septembrie 90, București 050726","geometry":{"location":{"lat":44.4256474,"lng":26.0769546},"viewport":{"northeast":{"lat":44.42695887989272,"lng":26.07832642989272},"southwest":{"lat":44.42425922010728,"lng":26.07562677010728}}},"icon":"https://maps.gstatic.com/mapfiles/place_api/icons/v1/png_71/restaurant-71.png","icon_background_color":"#FF9E67","icon_mask_base_uri":"https://maps.gstatic.com/mapfiles/place_api/icons/v2/restaurant_pinlet","name":"CUCINA","opening_hours":{"open_now":true},"photos":[{"height":722,"html_attributions":["<a href=\"https://maps.google.com/maps/contrib/114472528873604965415\">A Google User</a>"],"photo_reference":"AeJbb3cnk594d4LDaT3qnpJGkkTHbOX07h_o_N9IKeH9_HiZ_KNYJuvT0JxuO2BzVTUF0BgWFRrthK-cjsMVl4gfPTsb_9J93FBD-zQum-1bHP8UfEyCKwqZ-uvbqWXMOQ9Su6QxCqFlwyPri648agB8apwiSFGTO9DEtU9v5--cnNe6bhE4","width":960}],"place_id":"ChIJyx9Cq3r_sUARUtoOuz6dsvY","plus_code":{"compound_code":"C3GG+7Q Bucharest","global_code":"8GP8C3GG+7Q"},"rating":4.5,"reference":"ChIJyx9Cq3r_sUARUtoOuz6dsvY","types":["restaurant","food","point_of_interest","establishment"],"user_ratings_total":217},{"business_status":"OPERATIONAL","formatted_address":"Strada Ion Brezoianu 24, București 030167","geometry":{"location":{"lat":44.43582869999999,"lng":26.0949824},"viewport":{"northeast":{"lat":44.43716857989272,"lng":26.09620467989272},"southwest":{"lat":44.43446892010727,"lng":26.09350502010728}}},"icon":"https://maps.gstatic.com/mapfiles/place_api/icons/v1/png_71/restaurant-71.png","icon_background_color":"#FF9E67","icon_mask_base_uri":"https://maps.gstatic.com/mapfiles/place_api/icons/v2/restaurant_pinlet","name":"Poke House - Bucharest","opening_hours":{"open_now":true},"photos":[{"height":500,"html_attributions":["<a href=\"https://maps.google.com/maps/contrib/108141553988857334396\">A Google User</a>"],"photo_reference":"AeJbb3cGxvL3XqoFdiWvxjgxks0fXyctQMiXYrYIxv_OlRwv3q74Ik2p1IT7GDISHKS4dKzJjRsHlYv9xM_0U8sESm_CtDHbRpRZNcQBhr3b--gDb2CAlwIC8pUUPmRHZhpiLtxAueq-YL07R4MpWci8pkC2mFW0VK7O0zKyvZSU94ZSfV-f","width":500}],"place_id":"ChIJ4x4V-rT_sUAR9s5koVwocBc","plus_code":{"compound_code":"C3PV+8X Bucharest","global_code":"8GP8C3PV+8X"},"rating":4.5,"reference":"ChIJ4x4V-rT_sUAR9s5koVwocBc","types":["restaurant","food","point_of_interest","establishment"],"user_ratings_total":68},{"business_status":"OPERATIONAL","formatted_address":"Bulevardul Pache Protopopescu 51, București 030167","geometry":{"location":{"lat":44.4398158,"lng":26.1238001},"viewport":{"northeast":{"lat":44.44105012989273,"lng":26.12523287989272},"southwest":{"lat":44.43835047010728,"lng":26.12253322010728}}},"icon":"https://maps.gstatic.com/mapfiles/place_api/icons/v1/png_71/restaurant-71.png","icon_background_color":"#FF9E67","icon_mask_base_uri":"https://maps.gstatic.com/mapfiles/place_api/icons/v2/restaurant_pinlet","name":"Hanu' Berarilor Casa Elena Lupescu","opening_hours":{"open_now":true},"photos":[{"height":3024,"html_attributions":["<a href=\"https://maps.google.com/maps/contrib/103525328451378555510\">dan nicolae rahau</a>"],"photo_reference":"AeJbb3fUjMzpbVpI6tUug0YvOoHHwxG1XLeNC7smAmeasBx7clP1VowR7UqH8yDY0kMe2jN6ao617vQYb0pXmGmaYDZpkt9d4BwmEr0_BTM96ev8iwgC-4fN-bET6ubXdJv6Oo0xqojOj-aTmEHcPJKbX4PS9FBh41FLOF5ZDyeRUoQjuLO3","width":4032}],"place_id":"ChIJ5Yqa7i3_sUARWMIMRKUBTRM","plus_code":{"compound_code":"C4QF+XG Bucharest","global_code":"8GP8C4QF+XG"},"price_level":2,"rating":4.4,"reference":"ChIJ5Yqa7i3_sUARWMIMRKUBTRM","types":["restaurant","food","point_of_interest","establishment"],"user_ratings_total":4597},{"business_status":"OPERATIONAL","formatted_address":"Bulevardul Doina Cornea 4, București 061344","geometry":{"location":{"lat":44.4307313,"lng":26.0532631},"viewport":{"northeast":{"lat":44.43264702989272,"lng":26.05477397989272},"southwest":{"lat":44.42994737010728,"lng":26.05207432010728}}},"icon":"https://maps.gstatic.com/mapfiles/place_api/icons/v1/png_71/restaurant-71.png","icon_background_color":"#FF9E67","icon_mask_base_uri":"https://maps.gstatic.com/mapfiles/place_api/icons/v2/restaurant_pinlet","name":"Wasabi Running Sushi","opening_hours":{"open_now":true},"photos":[{"height":3024,"html_attributions":["<a href=\"https://maps.google.com/maps/contrib/111704608089274009327\">giorgia28</a>"],"photo_reference":"AeJbb3dZYK1lDvad-4Hc04lYXp0Y9EWeBo3bri2_Wej80WMMf8A0s97J_kF-rotTfi6Yebe34Ec_qqa_UIS-Juiv-Xbo4_Xb11DO1ktT4pTTMhq7lN-C5xIOhQzFzA_hC3fdia__7ulAWTprMfkmEv-V8T7J7jWG9zAjkJNmMMsP4qleQIp1","width":4032}],"place_id":"ChIJ5zAMctABskARR7kw9xVFz0g","plus_code":{"compound_code":"C3J3+78 Bucharest","global_code":"8GP8C3J3+78"},"rating":4.4,"reference":"ChIJ5zAMctABskARR7kw9xVFz0g","types":["restaurant","food","point_of_interest","establishment"],"user_ratings_total":929},{"business_status":"OPERATIONAL","formatted_address":"Str. D. I. Mendeleev 5, București 030167","geometry":{"location":{"lat":44.4432217,"lng":26.0965384},"viewport":{"northeast":{"lat":44.44457227989272,"lng":26.09792942989272},"southwest":{"lat":44.44187262010728,"lng":26.09522977010728}}},"icon":"https://maps.gstatic.com/mapfiles/place_api/icons/v1/png_71/bar-71.png","icon_background_color":"#FF9E67","icon_mask_base_uri":"https://maps.gstatic.com/mapfiles/place_api/icons/v2/bar_pinlet","name":"Ever After","opening_hours":{"open_now":true},"photos":[{"height":3648,"html_attributions":["<a href=\"https://maps.google.com/maps/contrib/107564050892194742643\">Marius Comper</a>"],"photo_reference":"AeJbb3dOSpAcV9Nl38inVYrtLdALGMLVxl63k2wGnwpn-j3w_iD_pZJT8DrOqUxxn7mN2oTiMlBMeCyPQk-dXD7zsssVyKqBf_MPhlkWyGRG-N-X9W29TiHUj5WI5YUQivpqmutfdSkEtNLD-LEYHalgp6aV-8l_3CKfl5Tt5k5-WmzcP4JW","width":2736}],"place_id":"ChIJ0ZFVJP3_sUAR_ybWd23XBmQ","plus_code":{"compound_code":"C3VW+7J Bucharest","global_code":"8GP8C3VW+7J"},"rating":4.4,"reference":"ChIJ0ZFVJP3_sUAR_ybWd23XBmQ","types":["bar","restaurant","food","point_of_interest","establishment"],"user_ratings_total":441},{"business_status":"OPERATIONAL","formatted_address":"Strada Postelnicului 12 Parter, București 011375","geometry":{"location":{"lat":44.4595024,"lng":26.0777151},"viewport":{"northeast":{"lat":44.46090267989271,"lng":26.07901582989273},"southwest":{"lat":44.45820302010727,"lng":26.07631617010728}}},"icon":"https://maps.gstatic.com/mapfiles/place_api/icons/v1/png_71/restaurant-71.png","icon_background_color":"#FF9E67","icon_mask_base_uri":"https://maps.gstatic.com/mapfiles/place_api/icons/v2/restaurant_pinlet","name":"Avocadoo 2","opening_hours":{"open_now":true},"photos":[{"height":4032,"html_attributions":["<a href=\"https://maps.google.com/maps/contrib/104887655737907537265\">Cristina Bratu</a>"],"photo_reference":"AeJbb3fHwYVgCTcXqfxTKJpSzz3c-dY2UBQ04TaSXjF5Ay2a58M4e9iFo5r7ZRvnu2yvPr1V3S7PdLoooViLMJF5LBmMejyOD9vMGpg5j8AT6vJEFJaEBvm_BXWMHixbZRgSA04eUN_Jk2FKXa2DqsiwM3QDuoDEWYOsGoU26lGrxkBCDkOQ","width":3024}],"place_id":"ChIJTTV21okDskARt1z7hjTh-WE","plus_code":{"compound_code":"F35H+R3 Bucharest","global_code":"8GP8F35H+R3"},"rating":4.4,"reference":"ChIJTTV21okDskARt1z7hjTh-WE","types":["restaurant","food","point_of_interest","establishment"],"user_ratings_total":196},{"business_status":"OPERATIONAL","formatted_address":"Str. Franceză 62-64, București 030106","geometry":{"location":{"lat":44.4297202,"lng":26.1023053},"viewport":{"northeast":{"lat":44.43081492989272,"lng":26.10344032989272},"southwest":{"lat":44.42811527010728,"lng":26.10074067010727}}},"icon":"https://maps.gstatic.com/mapfiles/place_api/icons/v1/png_71/restaurant-71.png","icon_background_color":"#FF9E67","icon_mask_base_uri":"https://maps.gstatic.com/mapfiles/place_api/icons/v2/restaurant_pinlet","name":"Restaurant Hanu' lui Manuc","opening_hours":{"open_now":true},"photos":[{"height":1536,"html_attributions":["<a href=\"https://maps.google.com/maps/contrib/118071075366601648105\">Peter Svaral</a>"],"photo_reference":"AeJbb3dZ4KPlutQ0moUvUVM7qydA1Em1yinurOuwmdrKEhLXGDCm5_z4Q78nz9CW--6z3ZaJ3m8CB6A7fB8NcFCM1oBjjAkmmTuwOMPNcRFzuZd5dCMiQKnjdJykB0LBi4MTHxIFLAo1Tzv92Y3acCwVyNHwUDqT1Mrot3fgyIEiGZIVmSxT","width":2048}],"place_id":"ChIJtS8YJz7_sUAR4v59lajuRNY","plus_code":{"compound_code":"C4H2+VW Bucharest","global_code":"8GP8C4H2+VW"},"price_level":2,"rating":4.3,"reference":"ChIJtS8YJz7_sUAR4v59lajuRNY","types":["restaurant","food","point_of_interest","establishment"],"user_ratings_total":11832},{"business_status":"OPERATIONAL","formatted_address":"Aleea Pescăruș 1, București 011851","geometry":{"location":{"lat":44.4726024,"lng":26.0855252},"viewport":{"northeast":{"lat":44.47392842989272,"lng":26.08687777989272},"southwest":{"lat":44.47122877010728,"lng":26.08417812010728}}},"icon":"https://maps.gstatic.com/mapfiles/place_api/icons/v1/png_71/restaurant-71.png","icon_background_color":"#FF9E67","icon_mask_base_uri":"https://maps.gstatic.com/mapfiles/place_api/icons/v2/restaurant_pinlet","name":"Restaurant Pescăruș","opening_hours":{"open_now":true},"photos":[{"height":2268,"html_attributions":["<a href=\"https://maps.google.com/maps/contrib/101818745547091169118\">Dan Tonescu</a>"],"photo_reference":"AeJbb3dUXIpBI60MkxcXyz9IMFgb0VILoI8woqhKi_PcLxU-dA5UYx_zwwy7yvHLVjBp60RogtluYbhX1dq8_A9oazlPyZMTNLz_nBSurgMUunjysaK-JBTIc4BWHQQu-lgTxlY_S_NWyDbZhr3WYzR7h9vpsIPtY9u5exaUojyMBzujeZPc","width":4032}],"place_id":"ChIJP9EXURMCskAR2fnExpIWHkw","plus_code":{"compound_code":"F3FP+26 Bucharest","global_code":"8GP8F3FP+26"},"price_level":2,"rating":4.3,"reference":"ChIJP9EXURMCskAR2fnExpIWHkw","types":["restaurant","food","point_of_interest","establishment"],"user_ratings_total":6068},{"business_status":"OPERATIONAL","formatted_address":"Strada Academiei 28-30, București 030167","geometry":{"location":{"lat":44.437639,"lng":26.0985585},"viewport":{"northeast":{"lat":44.43899497989272,"lng":26.09987562989272},"southwest":{"lat":44.43629532010728,"lng":26.09717597010728}}},"icon":"https://maps.gstatic.com/mapfiles/place_api/icons/v1/png_71/restaurant-71.png","icon_background_color":"#FF9E67","icon_mask_base_uri":"https://maps.gstatic.com/mapfiles/place_api/icons/v2/restaurant_pinlet","name":"Boutique du Pain Restaurant Bucuresti","opening_hours":{"open_now":true},"photos":[{"height":3024,"html_attributions":["<a href=\"https://maps.google.com/maps/contrib/102302714482720867876\">Mihai Alexis Alpoianis</a>"],"photo_reference":"AeJbb3emjb1vjdRN8FnGTYbs9kHto-N_AW7Q3WQ41qE6VLKtKUcY-fqRFIkRinsazoNvA3Fmm5KaNY395ZtWGhZvX2JclzH6HADP-rww6Kl-8gfyJpQx-oSab1J7wgKEe2uAsQ852_LA0DwufZluYNBB7F8wklCSoRAVa2SHd0lUFaaDXefq","width":4032}],"place_id":"ChIJixP5h0b_sUAR2SoWSiV8NNQ","plus_code":{"compound_code":"C3QX+3C Bucharest","global_code":"8GP8C3QX+3C"},"price_level":2,"rating":4.3,"reference":"ChIJixP5h0b_sUAR2SoWSiV8NNQ","types":["bakery","store","restaurant","food","point_of_interest","establishment"],"user_ratings_total":1195},{"business_status":"OPERATIONAL","formatted_address":"Strada George Enescu 23, București 030167","geometry":{"location":{"lat":44.4431802,"lng":26.0969824},"viewport":{"northeast":{"lat":44.44447817989272,"lng":26.09838097989272},"southwest":{"lat":44.44177852010728,"lng":26.09568132010728}}},"icon":"https://maps.gstatic.com/mapfiles/place_api/icons/v1/png_71/restaurant-71.png","icon_background_color":"#FF9E67","icon_mask_base_uri":"https://maps.gstatic.com/mapfiles/place_api/icons/v2/restaurant_pinlet","name":"Lugo | Restaurant Piata Romana | Bucuresti","opening_hours":{"open_now":true},"photos":[{"height":1139,"html_attributions":["<a href=\"https://maps.google.com/maps/contrib/100478187782934443613\">Lugo Restaurant &amp; Lounge</a>"],"photo_reference":"AeJbb3dQV0CNrJOsCVA-QBgMxkr0EGex12g-ms2ELGcJzOQ2M_3nKydOrU5Sa3V4J0Xssbkw93fi2a0cuJnBhzU1bDuQHP5crxgzsG-ihnwjAP80_k7TYy5zKM8ig_D_g-VCWYxuy0kdsDevNBamIBxaOgA2DB5TGN4DM0hN_Hfts3hnliE_","width":1582}],"place_id":"ChIJH7IKS07_sUARGX0qijPzbFo","plus_code":{"compound_code":"C3VW+7Q Bucharest","global_code":"8GP8C3VW+7Q"},"price_level":3,"rating":4.3,"reference":"ChIJH7IKS07_sUARGX0qijPzbFo","types":["restaurant","night_club","bar","food","point_of_interest","establishment"],"user_ratings_total":969},{"business_status":"OPERATIONAL","formatted_address":"Bulevardul Nicolae Bălcescu 3-5, București 030167","geometry":{"location":{"lat":44.4366706,"lng":26.1013403},"viewport":{"northeast":{"lat":44.43804027989272,"lng":26.10276397989272},"southwest":{"lat":44.43534062010728,"lng":26.10006432010728}}},"icon":"https://maps.gstatic.com/mapfiles/place_api/icons/v1/png_71/generic_business-71.png","icon_background_color":"#7B9EB0","icon_mask_base_uri":"https://maps.gstatic.com/mapfiles/place_api/icons/v2/generic_pinlet","name":"Fortuna Palace Centru","opening_hours":{"open_now":true},"photos":[{"height":1365,"html_attributions":["<a href=\"https://maps.google.com/maps/contrib/106197285167514264410\">Vitalie Teleman</a>"],"photo_reference":"AeJbb3cgo4V_uu3h381QVB3dGRSYrvAULonMGVKVEif56alHScrvnqAHh_PCXBA2qh5k7OlPhKpH8knAm1VdQvdyf6Y6cV5eAiTkcHAA0Dhy8Qgw3vJL5BawVT3PyY2dFSaT5MpYCEiYgtheNc-5yB07lfug__0AlDjVuAeXV4OvUPBUzIU","width":2048}],"place_id":"ChIJHQHnDkf_sUARWK_6MU355G4","plus_code":{"compound_code":"C4P2+MG Bucharest","global_code":"8GP8C4P2+MG"},"rating":4.3,"reference":"ChIJHQHnDkf_sUARWK_6MU355G4","types":["casino","restaurant","food","point_of_interest","establishment"],"user_ratings_total":474},{"business_status":"OPERATIONAL","formatted_address":"Calea Victoriei 23, București 030167","geometry":{"location":{"lat":44.4341398,"lng":26.0981139},"viewport":{"northeast":{"lat":44.43547682989272,"lng":26.09954557989272},"southwest":{"lat":44.43277717010728,"lng":26.09684592010728}}},"icon":"https://maps.gstatic.com/mapfiles/place_api/icons/v1/png_71/restaurant-71.png","icon_background_color":"#FF9E67","icon_mask_base_uri":"https://maps.gstatic.com/mapfiles/place_api/icons/v2/restaurant_pinlet","name":"Bread and Butter","opening_hours":{"open_now":true},"photos":[{"height":5931,"html_attributions":["<a href=\"https://maps.google.com/maps/contrib/104054850873632948904\">A Google User</a>"],"photo_reference":"AeJbb3cxzZFvmH-GH_fw_UsJpKXkafw38pcpoeV-iPnKBo47rOXA-_tuU-rOcvAVOBHaiWR8jHuIcD0Kb2NdwjqlImjX1397zKeblr9PhCuwas1XsdxBHxAcsCPMn-fYpSt4D6HItjnUQdOLzQpgnxaYLgnkN983ipITdFlt_r3qCHG5bQKV","width":3959}],"place_id":"ChIJazzSOHX_sUAResrTy2ea3Ok","plus_code":{"compound_code":"C3MX+M6 Bucharest","global_code":"8GP8C3MX+M6"},"price_level":2,"rating":4.3,"reference":"ChIJazzSOHX_sUAResrTy2ea3Ok","types":["restaurant","bakery","store","food","point_of_interest","establishment"],"user_ratings_total":412},{"business_status":"OPERATIONAL","formatted_address":"Calea Victoriei 118, București 010093","geometry":{"location":{"lat":44.442806,"lng":26.093717},"viewport":{"northeast":{"lat":44.44412197989271,"lng":26.09499147989272},"southwest":{"lat":44.44142232010727,"lng":26.09229182010727}}},"icon":"https://maps.gstatic.com/mapfiles/place_api/icons/v1/png_71/restaurant-71.png","icon_background_color":"#FF9E67","icon_mask_base_uri":"https://maps.gstatic.com/mapfiles/place_api/icons/v2/restaurant_pinlet","name":"JAPANOS ATHENAEUM","opening_hours":{"open_now":true},"photos":[{"height":3384,"html_attributions":["<a href=\"https://maps.google.com/maps/contrib/112719335091403060664\">Dan Leal</a>"],"photo_reference":"AeJbb3fgkToTAiKJcA2TxgcHKRFYCE_oIgmY3yPB6dJYCGJbYsYgykmBdxBe2uYOtozZt5xTxfLzkBpeEt7RMygqLcPTGSUfobnSVYOcBRXTW2boDmIStl4Ioaa0GT4nEj5nOriR7sh4v62TgVqQGuWFA0Fm7LWvgDLom3QgTRO5HpqGHIDb","width":6016}],"place_id":"ChIJxeAsp-z_sUARBrNVDWRSKaI","plus_code":{"compound_code":"C3VV+4F Bucharest","global_code":"8GP8C3VV+4F"},"rating":4.3,"reference":"ChIJxeAsp-z_sUARBrNVDWRSKaI","types":["restaurant","food","point_of_interest","establishment"],"user_ratings_total":169},{"business_status":"OPERATIONAL","formatted_address":"Bulevardul Aviatorilor 8, București 011861","geometry":{"location":{"lat":44.45420379999999,"lng":26.0865425},"viewport":{"northeast":{"lat":44.45559817989272,"lng":26.08781747989272},"southwest":{"lat":44.45289852010728,"lng":26.08511782010728}}},"icon":"https://maps.gstatic.com/mapfiles/place_api/icons/v1/png_71/restaurant-71.png","icon_background_color":"#FF9E67","icon_mask_base_uri":"https://maps.gstatic.com/mapfiles/place_api/icons/v2/restaurant_pinlet","name":"Japanos Victoriei","opening_hours":{"open_now":true},"photos":[{"height":2250,"html_attributions":["<a href=\"https://maps.google.com/maps/contrib/106645387420812228044\">sun4ice</a>"],"photo_reference":"AeJbb3fOUpQLIj869z0kvSogjVhA3-hnoCRIcWGXBvE3jLo1eSZNVaaqzfc1Rz70cw6iZtrNu_yKE4CbMBWZ-8e5kpNkc79B6XYeB_RUfIl-sYFYjGkJphWUqrd-yLydYx45QdnGLB82yC5JczcUp4CrR_a4VsVpMo-0BoCJEIbW5TUH3KIV","width":4000}],"place_id":"ChIJp2UUNgACskARMipN3hwIIEU","plus_code":{"compound_code":"F33P+MJ Bucharest","global_code":"8GP8F33P+MJ"},"price_level":2,"rating":4.2,"reference":"ChIJp2UUNgACskARMipN3hwIIEU","types":["restaurant","food","point_of_interest","establishment"],"user_ratings_total":853},{"business_status":"OPERATIONAL","formatted_address":"Bulevardul Iuliu Maniu 19, București 061344","geometry":{"location":{"lat":44.4332674,"lng":26.0360573},"viewport":{"northeast":{"lat":44.43481882989272,"lng":26.03742412989272},"southwest":{"lat":44.43211917010728,"lng":26.03472447010728}}},"icon":"https://maps.gstatic.com/mapfiles/place_api/icons/v1/png_71/restaurant-71.png","icon_background_color":"#FF9E67","icon_mask_base_uri":"https://maps.gstatic.com/mapfiles/place_api/icons/v2/restaurant_pinlet","name":"Sushi Master Lujerului","opening_hours":{"open_now":true},"photos":[{"height":1152,"html_attributions":["<a href=\"https://maps.google.com/maps/contrib/108632595177293737877\">A Google User</a>"],"photo_reference":"AeJbb3cbQOqxiiYasYNvwugeZ5ZYsAA_vWroC5QDfDdT2s9Ozy8aHLeLKDcD8Tt_Js2byxL2IZ0GhfUWNPMzg-v9ipZ8MTqRmQzM2JJ6VdEIxt26ePu7-c2bEEN0y0yL3zcRDjP0kQvLgkTgwGaftZfugOpEE3SZUofwEi8e3Hrrl7SlWBvA","width":2024}],"place_id":"ChIJjVoBOj8BskAREQhGEX3qceo","plus_code":{"compound_code":"C2MP+8C Bucharest","global_code":"8GP8C2MP+8C"},"rating":4.2,"reference":"ChIJjVoBOj8BskAREQhGEX3qceo","types":["meal_takeaway","restaurant","food","point_of_interest","establishment"],"user_ratings_total":75},{"business_status":"OPERATIONAL","formatted_address":"Strada Episcopiei 9, București 030167","geometry":{"location":{"lat":44.4424649,"lng":26.0969604},"viewport":{"northeast":{"lat":44.44361797989272,"lng":26.09849382989272},"southwest":{"lat":44.44091832010728,"lng":26.09579417010728}}},"icon":"https://maps.gstatic.com/mapfiles/place_api/icons/v1/png_71/restaurant-71.png","icon_background_color":"#FF9E67","icon_mask_base_uri":"https://maps.gstatic.com/mapfiles/place_api/icons/v2/restaurant_pinlet","name":"La Mama","opening_hours":{"open_now":true},"photos":[{"height":3024,"html_attributions":["<a href=\"https://maps.google.com/maps/contrib/113314799275374753062\">Wayne Whitling</a>"],"photo_reference":"AeJbb3fXZ2Uk18oYdQqW_NzFWtIHJ9mGTw-fDk38DkFAgSEZVehCvRcyREZGMBurBDlhFm_2QYFTbe-8PQkyYRdQosizDIsj1dgYOeDtAoFciC7SWCzRRpwEXGhp4JcxY-OHuzeAwfpQcOBMSsJVAz5EsOasU6VYms2LZ7S0KlIgTf1KtnJ6","width":4032}],"place_id":"ChIJQeldn0__sUARiUDrNpK4isI","plus_code":{"compound_code":"C3RW+XQ Bucharest","global_code":"8GP8C3RW+XQ"},"price_level":2,"rating":4.1,"reference":"ChIJQeldn0__sUARiUDrNpK4isI","types":["restaurant","food","point_of_interest","establishment"],"user_ratings_total":4772},{"business_status":"OPERATIONAL","formatted_address":"Strada Gara Herăstrău 2, București 020334","geometry":{"location":{"lat":44.4765726,"lng":26.1081096},"viewport":{"northeast":{"lat":44.47794792989271,"lng":26.10955472989272},"southwest":{"lat":44.47524827010727,"lng":26.10685507010728}}},"icon":"https://maps.gstatic.com/mapfiles/place_api/icons/v1/png_71/restaurant-71.png","icon_background_color":"#FF9E67","icon_mask_base_uri":"https://maps.gstatic.com/mapfiles/place_api/icons/v2/restaurant_pinlet","name":"Godai","opening_hours":{"open_now":true},"photos":[{"height":4928,"html_attributions":["<a href=\"https://maps.google.com/maps/contrib/106870091129672850524\">A Google User</a>"],"photo_reference":"AeJbb3fkjf8isxUYVh6cSp4w_DMy3gCiDCIxW-FwbCckmPxPg7RbwA1Yb94I_uZ-y1uEOzb89fCj1FzRAnguy4VcbfIr7WkNO3ofdLSE_TDLdSRYBqa1VjP3lN1hKwpd85i6yenwy9fDYb_K4VMORzezZROVlpOyI4M3ybecVWUoWjUnn3wu","width":3280}],"place_id":"ChIJrbOPFiMDskARhYcmCgUWwwo","plus_code":{"compound_code":"F4G5+J6 Bucharest","global_code":"8GP8F4G5+J6"},"rating":4,"reference":"ChIJrbOPFiMDskARhYcmCgUWwwo","types":["restaurant","food","point_of_interest","establishment"],"user_ratings_total":490},{"business_status":"OPERATIONAL","formatted_address":"Calea Vitan 17A, București 031297","geometry":{"location":{"lat":44.4228336,"lng":26.1239661},"viewport":{"northeast":{"lat":44.42403292989273,"lng":26.12538077989272},"southwest":{"lat":44.42133327010728,"lng":26.12268112010728}}},"icon":"https://maps.gstatic.com/mapfiles/place_api/icons/v1/png_71/restaurant-71.png","icon_background_color":"#FF9E67","icon_mask_base_uri":"https://maps.gstatic.com/mapfiles/place_api/icons/v2/restaurant_pinlet","name":"King Rolls Vitan","opening_hours":{"open_now":true},"photos":[{"height":1350,"html_attributions":["<a href=\"https://maps.google.com/maps/contrib/109631397485484868306\">A Google User</a>"],"photo_reference":"AeJbb3fcX6U6rh0DG0teMNwFQJa6pogWpg-BNx8Vg6VOoVhmbyD8kif5eWd_fSxUQbTKa18Zx740BuKTmMMKFm4xVixzXGP0ppWxmPhqHQF3A6Y_WfsGxn3B7jrP6zGVDmLv1IJDAwvwSsAxEr6g3WAMLFdbw5N577CpVM8f0Fdvi82Ovug0","width":1080}],"place_id":"ChIJY_ccQuD-sUAR_MaXRY43OhU","plus_code":{"compound_code":"C4FF+4H Bucharest","global_code":"8GP8C4FF+4H"},"price_level":2,"rating":4,"reference":"ChIJY_ccQuD-sUAR_MaXRY43OhU","types":["restaurant","food","point_of_interest","establishment"],"user_ratings_total":487},{"business_status":"OPERATIONAL","formatted_address":"Shopping City, Soseaua Bucuresti Ploiesti. 42D Parter, zona food court, Baneasa 013685","geometry":{"location":{"lat":44.5066205,"lng":26.0901382},"viewport":{"northeast":{"lat":44.50820242989272,"lng":26.09171252989272},"southwest":{"lat":44.50550277010728,"lng":26.08901287010728}}},"icon":"https://maps.gstatic.com/mapfiles/place_api/icons/v1/png_71/restaurant-71.png","icon_background_color":"#FF9E67","icon_mask_base_uri":"https://maps.gstatic.com/mapfiles/place_api/icons/v2/restaurant_pinlet","name":"Avocadoo","opening_hours":{"open_now":true},"photos":[{"height":4032,"html_attributions":["<a href=\"https://maps.google.com/maps/contrib/115040997743580170404\">Denise Borali</a>"],"photo_reference":"AeJbb3epHROZ6tkmM_eRT68cSZU524zOzTkrv6F3IEV8dy8QD_aOPnEhBg434Y1-UEmAsrYu0Y6bBNr9gpHUEyySVNBlzrlz-_fHsrKtyya4SQnCSWW_RnfmlCGjc5iqNvFN07uzkhWJtzSqFUuYZppDTjXNdIhINuDakn8btHF7dVLESBuj","width":3024}],"place_id":"ChIJMyEGSbIDskARIXLfNMC6Vv0","plus_code":{"compound_code":"G34R+J3 Bucharest","global_code":"8GP8G34R+J3"},"rating":4,"reference":"ChIJMyEGSbIDskARIXLfNMC6Vv0","types":["restaurant","food","point_of_interest","establishment"],"user_ratings_total":101},{"business_status":"OPERATIONAL","formatted_address":"BD. Timisoara nr 4a, Incinta Afi PArk, București 005544","geometry":{"location":{"lat":44.4288288,"lng":26.0527037},"viewport":{"northeast":{"lat":44.43017862989272,"lng":26.05405352989272},"southwest":{"lat":44.42747897010727,"lng":26.05135387010728}}},"icon":"https://maps.gstatic.com/mapfiles/place_api/icons/v1/png_71/restaurant-71.png","icon_background_color":"#FF9E67","icon_mask_base_uri":"https://maps.gstatic.com/mapfiles/place_api/icons/v2/restaurant_pinlet","name":"King Rolls Afi","opening_hours":{"open_now":true},"photos":[{"height":1980,"html_attributions":["<a href=\"https://maps.google.com/maps/contrib/100953166962831173719\">A Google User</a>"],"photo_reference":"AeJbb3eBzOvmJ8DqASawhBiIUaNB8D6vcyjzxU53aqgucz97Y-bXajM09QWf5JI783odQSwbSlGwsFZYVK9G4-uVmik9qZCXmCUE2y6bYN9MrOuV7YRj5uenOZ2jJzCIHW8fFnUOANIwHiAaRblCCPNO4QhuqIO3Wrj20oEhMOXjqqV54AwL","width":1980}],"place_id":"ChIJZ0-0WmMBskARYaCZnY1csfU","plus_code":{"compound_code":"C3H3+G3 Bucharest","global_code":"8GP8C3H3+G3"},"rating":3.8,"reference":"ChIJZ0-0WmMBskARYaCZnY1csfU","types":["restaurant","food","point_of_interest","establishment"],"user_ratings_total":149}]