[{"business_status":"OPERATIONAL","formatted_address":"Olpe 14, 44135 Dortmund","geometry":{"location":{"lat":51.5126961,"lng":7.4700984},"viewport":{"northeast":{"lat":51.51403567989272,"lng":7.47145062989272},"southwest":{"lat":51.51133602010727,"lng":7.468750970107276}}},"icon":"https://maps.gstatic.com/mapfiles/place_api/icons/v1/png_71/restaurant-71.png","icon_background_color":"#FF9E67","icon_mask_base_uri":"https://maps.gstatic.com/mapfiles/place_api/icons/v2/restaurant_pinlet","name":"Restaurant Namu","opening_hours":{"open_now":true},"photos":[{"height":2976,"html_attributions":["<a href=\"https://maps.google.com/maps/contrib/117648580968221885723\">Nachiket Vartak</a>"],"photo_reference":"AeJbb3eha-Hw7ywpoa3jaK2iJodut7pmn30RbtsHo1_tKpCp7lAZ-eKOS6ctZ6DrJvflQe4AIHHbq4rNJVcS1GUZOfZ_8ilb5ehiksMHUib3H7e5Ed4bnHGeAEMqwzbeqCy9mbCY1tAp5By8MwaRoeUWUfLBV-iQoTHs0SKtvG1i58gQDChP","width":3968}],"place_id":"ChIJyaO74V4XuUcRUW4yUe3USac","plus_code":{"compound_code":"GF7C+42 Dortmund","global_code":"9F39GF7C+42"},"price_level":2,"rating":4.7,"reference":"ChIJyaO74V4XuUcRUW4yUe3USac","types":["restaurant","food","point_of_interest","establishment"],"user_ratings_total":904},{"business_status":"OPERATIONAL","formatted_address":"Rosemeyerstraße 2-4, 44139 Dortmund","geometry":{"location":{"lat":51.494629,"lng":7.441820999999999},"viewport":{"northeast":{"lat":51.49614007989273,"lng":7.443169929892723},"southwest":{"lat":51.49344042010728,"lng":7.440470270107279}}},"icon":"https://maps.gstatic.com/mapfiles/place_api/icons/v1/png_71/restaurant-71.png","icon_background_color":"#FF9E67","icon_mask_base_uri":"https://maps.gstatic.com/mapfiles/place_api/icons/v2/restaurant_pinlet","name":"Steakhouse Rodizio","opening_hours":{"open_now":true},"photos":[{"height":2976,"html_attributions":["<a href=\"https://maps.google.com/maps/contrib/102908946779539131269\">Ivonne Lelonek</a>"],"photo_reference":"AeJbb3fHSGs8aZhilBKbj0tqNsVBOToPqpFVMFLlA6WIbC1sF7yP1mEiqAnXIUQ7z29Xvijycnnr4RZVz5N0w4pxbs3AuneQW74pPso0ef_IKCq5ovLmJMuwcmMHsRe4WDA0_6W2k3rwLyQp9br_5iXu7mInleWDl9Tefe5jsnX_PjujMofs","width":3968}],"place_id":"ChIJTQ_2HcwZuUcRYtTTZ2nFxcw","plus_code":{"compound_code":"FCVR+VP Dortmund","global_code":"9F39FCVR+VP"},"price_level":3,"rating":4.5,"reference":"ChIJTQ_2HcwZuUcRYtTTZ2nFxcw","types":["meal_takeaway","bar","restaurant","food","point_of_interest","establishment"],"user_ratings_total":2476},{"business_status":"OPERATIONAL","formatted_address":"Münsterstraße 109, 44145 Dortmund","geometry":{"location":{"lat":51.5252305,"lng":7.460960800000001},"viewport":{"northeast":{"lat":51.52653997989272,"lng":7.462270729892722},"southwest":{"lat":51.52384032010728,"lng":7.459571070107279}}},"icon":"https://maps.gstatic.com/mapfiles/place_api/icons/v1/png_71/restaurant-71.png","icon_background_color":"#FF9E67","icon_mask_base_uri":"https://maps.gstatic.com/mapfiles/place_api/icons/v2/restaurant_pinlet","name":"Churrasco Grill","opening_hours":{"open_now":false},"photos":[{"height":3120,"html_attributions":["<a href=\"https://maps.google.com/maps/contrib/109807157281611118064\">Erkan Tabakoglu</a>"],"photo_reference":"AeJbb3eP45PwgSpsbxDcxGiuknFb_ggcRXVqTvTTntpnrk1pdjZrb_E_dCGnK8VsgVD3T--Gmw0yei5V5IN5qtHFhzwjELdW1cttZeQa2hTmFQg4POqEFy4MTHvL90jsphw4UCDkqX_PhqzeUtb7HUlI8qIKIK4u2KK5H2IScuMZcF61FD0L","width":4160}],"place_id":"ChIJMTy9ffkZuUcRMMs4mE1tQVc","plus_code":{"compound_code":"GFG6+39 Dortmund","global_code":"9F39GFG6+39"},"price_level":1,"rating":4.4,"reference":"ChIJMTy9ffkZuUcRMMs4mE1tQVc","types":["restaurant","food","point_of_interest","establishment"],"user_ratings_total":550},{"business_status":"OPERATIONAL","formatted_address":"Kortumstraße 1, 44787 Bochum","geometry":{"location":{"lat":51.4760182,"lng":7.216002},"viewport":{"northeast":{"lat":51.47721402989272,"lng":7.21746927989272},"southwest":{"lat":51.47451437010728,"lng":7.214769620107276}}},"icon":"https://maps.gstatic.com/mapfiles/place_api/icons/v1/png_71/restaurant-71.png","icon_background_color":"#FF9E67","icon_mask_base_uri":"https://maps.gstatic.com/mapfiles/place_api/icons/v2/restaurant_pinlet","name":"max Frituur","opening_hours":{"open_now":true},"photos":[{"height":2304,"html_attributions":["<a href=\"https://maps.google.com/maps/contrib/115405140858181491479\">Andre Schaefer</a>"],"photo_reference":"AeJbb3fYZ41PCM_Hf2ZKV-vgJ-U-V5_vB962l74Wm3dpGrXnesONj63zahyouG6y8hhYMwDp1dORmyMPz0dCadgdXXBOfNhUIFk_UkFyPDX9VOIqL0bmyL1JjDKGWt7roAKqJgYuvU-6PxL3R2RIwpS_RpkqOZHqJnDOcVrozq0npxO-uGM9","width":4096}],"place_id":"ChIJQ6lrExPguEcRIi-1QPGwd_c","plus_code":{"compound_code":"F6G8+CC Bochum","global_code":"9F39F6G8+CC"},"rating":4.3,"reference":"ChIJQ6lrExPguEcRIi-1QPGwd_c","types":["meal_takeaway","restaurant","food","point_of_interest","establishment"],"user_ratings_total":634},{"business_status":"OPERATIONAL","formatted_address":"Thier-Galerie, Westenhellweg 102-106, 44137 Dortmund","geometry":{"location":{"lat":51.5128607,"lng":7.459335599999999},"viewport":{"northeast":{"lat":51.51444042989272,"lng":7.460789579892722},"southwest":{"lat":51.51174077010728,"lng":7.458089920107279}}},"icon":"https://maps.gstatic.com/mapfiles/place_api/icons/v1/png_71/restaurant-71.png","icon_background_color":"#FF9E67","icon_mask_base_uri":"https://maps.gstatic.com/mapfiles/place_api/icons/v2/restaurant_pinlet","name":"Açaí Verão Dortmund","opening_hours":{"open_now":true},"photos":[{"height":899,"html_attributions":["<a href=\"https://maps.google.com/maps/contrib/118207922534697020671\">A Google User</a>"],"photo_reference":"AeJbb3fVNJ0BcoHSttgAT2kqOfWW57dM8loB83zR9--fIisNotGWzvV_S1IsA1Fx5AlqbKqK9kKDMGfGRjsJPmU8rXeWDCwLVWjM7L99_pfx9tlzYAr-eNznfUMGdHupjLAw9ZxVVzorjWQcPZAC24F28no9araPGk_RRwBD-PDG809UD-Ut","width":1599}],"place_id":"ChIJo2k8s9cZuUcRR-SnHTzDZKY","plus_code":{"compound_code":"GF75+4P Dortmund","global_code":"9F39GF75+4P"},"rating":4.1,"reference":"ChIJo2k8s9cZuUcRR-SnHTzDZKY","types":["restaurant","food","point_of_interest","establishment"],"user_ratings_total":15},{"business_status":"OPERATIONAL","formatted_address":"Balkenstraße 4-6, 44137 Dortmund","geometry":{"location":{"lat":51.5128656,"lng":7.466177000000001},"viewport":{"northeast":{"lat":51.51422257989272,"lng":7.467433229892721},"southwest":{"lat":51.51152292010728,"lng":7.464733570107277}}},"icon":"https://maps.gstatic.com/mapfiles/place_api/icons/v1/png_71/restaurant-71.png","icon_background_color":"#FF9E67","icon_mask_base_uri":"https://maps.gstatic.com/mapfiles/place_api/icons/v2/restaurant_pinlet","name":"Maredo","opening_hours":{"open_now":true},"photos":[{"height":1280,"html_attributions":["<a href=\"https://maps.google.com/maps/contrib/108626811987357269514\">Maredo</a>"],"photo_reference":"AeJbb3dA6FhjFBxMfuK2J3YjVq0p7pwxI1deX4MLeAqR83aGF_JUkM5ERbbbKs_ChxBOxEL3EEyWbppSJ6oIuHZUoTp4OHyFO5vAcUB565IbXFOiS8UwMANmbfMBlwdUs40HrVxAVqB3JosDmgrFLXlVcSvfh1WodGTBK87njNdw3z5iM0SB","width":1920}],"place_id":"ChIJQxkx2uEZuUcRmG-dEGH-9Z4","plus_code":{"compound_code":"GF78+4F Dortmund","global_code":"9F39GF78+4F"},"price_level":2,"rating":4,"reference":"ChIJQxkx2uEZuUcRmG-dEGH-9Z4","types":["restaurant","food","point_of_interest","establishment"],"user_ratings_total":1408}]