[{"business_status":"OPERATIONAL","formatted_address":"Hauptstraße 38, 58313 Herdecke","geometry":{"location":{"lat":51.3992835,"lng":7.431538900000001},"viewport":{"northeast":{"lat":51.40058472989271,"lng":7.432831479892722},"southwest":{"lat":51.39788507010727,"lng":7.430131820107278}}},"icon":"https://maps.gstatic.com/mapfiles/place_api/icons/v1/png_71/bar-71.png","icon_background_color":"#FF9E67","icon_mask_base_uri":"https://maps.gstatic.com/mapfiles/place_api/icons/v2/bar_pinlet","name":"The Shakespeare · an English Pub in Herdecke","opening_hours":{"open_now":false},"photos":[{"height":2448,"html_attributions":["<a href=\"https://maps.google.com/maps/contrib/112019018663744434266\">A Google User</a>"],"photo_reference":"AeJbb3cHFHkLcrqIrBa8GawN_x5FhPSH-8n-cm2daD2Kx8dFAMBu5nRyzEEla_3UxBF5mdIVMfnSCkScftyViVHiXTOmiSGJ2NZqcg29mjtDGkotHoAw6nJTLzQWgn1eaHnkzKb1tXt0aMnMDfukgbGyp47RRV6G9dD6DdfCBcRfxU0i5DOO","width":3264}],"place_id":"ChIJ26CqGC0juUcRO3xfLZRl7lI","plus_code":{"compound_code":"9CXJ+PJ Herdecke","global_code":"9F399CXJ+PJ"},"price_level":2,"rating":4.6,"reference":"ChIJ26CqGC0juUcRO3xfLZRl7lI","types":["bar","restaurant","food","point_of_interest","establishment"],"user_ratings_total":449},{"business_status":"OPERATIONAL","formatted_address":"Kurler Str. 174, 44319 Dortmund","geometry":{"location":{"lat":51.5603146,"lng":7.579776799999999},"viewport":{"northeast":{"lat":51.56167192989273,"lng":7.581185079892723},"southwest":{"lat":51.55897227010728,"lng":7.578485420107279}}},"icon":"https://maps.gstatic.com/mapfiles/place_api/icons/v1/png_71/cafe-71.png","icon_background_color":"#FF9E67","icon_mask_base_uri":"https://maps.gstatic.com/mapfiles/place_api/icons/v2/cafe_pinlet","name":"Victoria’s Cottage Café","opening_hours":{"open_now":false},"photos":[{"height":5333,"html_attributions":["<a href=\"https://maps.google.com/maps/contrib/104424218081928252058\">Eric Walker</a>"],"photo_reference":"AeJbb3eaG390VihOyH9Qh-qgq8Xg14IBHs52B3dqdqX07veT67vmhmbbRXBGw3zSDuxQ3wizwMXlHKBbpELDoF1BfXSu-gD3BWJ7Mpy4ZTJfT7adcBi64nFkaNFui63Kc8i-ZLrtecQxA4E8Wr6L1JvySrNkoZ-xPZ82eO0DVlu63I913a96","width":3000}],"place_id":"ChIJV4LxXnkRuUcRpanoVAC41Mw","plus_code":{"compound_code":"HH6H+4V Dortmund","global_code":"9F39HH6H+4V"},"price_level":2,"rating":4.5,"reference":"ChIJV4LxXnkRuUcRpanoVAC41Mw","types":["cafe","restaurant","food","store","point_of_interest","establishment"],"user_ratings_total":162}]