[{"business_status":"OPERATIONAL","formatted_address":"Frohlinder Str. 12A, 44379 Dortmund","geometry":{"location":{"lat":51.52283019999999,"lng":7.3700184},"viewport":{"northeast":{"lat":51.52421247989273,"lng":7.371679229892724},"southwest":{"lat":51.52151282010728,"lng":7.36897957010728}}},"icon":"https://maps.gstatic.com/mapfiles/place_api/icons/v1/png_71/restaurant-71.png","icon_background_color":"#FF9E67","icon_mask_base_uri":"https://maps.gstatic.com/mapfiles/place_api/icons/v2/restaurant_pinlet","name":"Asia Express Lucky Wok","opening_hours":{"open_now":false},"photos":[{"height":1000,"html_attributions":["<a href=\"https://maps.google.com/maps/contrib/110509512523048250186\">Asia Express Lucky Wok</a>"],"photo_reference":"AeJbb3eT23zEW_wfUbcN-JSkudaLoo9GEC7sVmlgnwBAqjGEsMc2ZtdmMpFRCdeIsBTyJAoJkz-kVmu2ogM4opnS06KA2Fkh--BVIKKf8kkBq4_oPl1LnthYODkt1R0J4fm_KcV6dCLpjPfHav7nnV6sb6LzYWqD-AQwKpiMOdOTibuqXYya","width":1000}],"place_id":"ChIJiW5bWU4ZuUcRDFNkpSpxiuE","plus_code":{"compound_code":"G9FC+42 Dortmund","global_code":"9F39G9FC+42"},"rating":4.9,"reference":"ChIJiW5bWU4ZuUcRDFNkpSpxiuE","types":["restaurant","point_of_interest","food","establishment"],"user_ratings_total":109},{"business_status":"OPERATIONAL","formatted_address":"Tigg 9, 45711 Datteln","geometry":{"location":{"lat":51.6539576,"lng":7.3448485},"viewport":{"northeast":{"lat":51.65532897989272,"lng":7.346106529892724},"southwest":{"lat":51.65262932010727,"lng":7.34340687010728}}},"icon":"https://maps.gstatic.com/mapfiles/place_api/icons/v1/png_71/restaurant-71.png","icon_background_color":"#FF9E67","icon_mask_base_uri":"https://maps.gstatic.com/mapfiles/place_api/icons/v2/restaurant_pinlet","name":"Thai Smile","opening_hours":{"open_now":true},"photos":[{"height":1536,"html_attributions":["<a href=\"https://maps.google.com/maps/contrib/108943721677671757840\">A Google User</a>"],"photo_reference":"AeJbb3f_9MVVuaFpyFBMU5V5aoitwj0c25btQmJvpG3Hr0WBEFi19GwkbV_LfDfh-Y_o4Wp3RAA4r8EGUMdjSut7Pd7-dweMO0zW16HECeJoctL75TK0OlCpB0obUycLC0SuyACl2_7fI-nTEND77gv4EQ9Jp2YOVH7v8lSzXx1ns8b2NRb3","width":2048}],"place_id":"ChIJu1HH14MDuUcRynMhJAgEDms","plus_code":{"compound_code":"M83V+HW Datteln","global_code":"9F39M83V+HW"},"rating":4.9,"reference":"ChIJu1HH14MDuUcRynMhJAgEDms","types":["restaurant","food","point_of_interest","establishment"],"user_ratings_total":102},{"business_status":"OPERATIONAL","formatted_address":"Bochumer Str. 108, 45661 Recklinghausen","geometry":{"location":{"lat":51.5744346,"lng":7.2125527},"viewport":{"northeast":{"lat":51.57578372989272,"lng":7.213963579892721},"southwest":{"lat":51.57308407010727,"lng":7.211263920107277}}},"icon":"https://maps.gstatic.com/mapfiles/place_api/icons/v1/png_71/restaurant-71.png","icon_background_color":"#FF9E67","icon_mask_base_uri":"https://maps.gstatic.com/mapfiles/place_api/icons/v2/restaurant_pinlet","name":"Nom Nom Recklinghausen","opening_hours":{"open_now":true},"photos":[{"height":3024,"html_attributions":["<a href=\"https://maps.google.com/maps/contrib/104459258244129250218\">Pedro Aleman</a>"],"photo_reference":"AeJbb3evfUxozSqvTKTACk_put-Ar16ST2i9HNSRNJfHRgQEWgo60Zuk2uYF-iW8OLbQCanWJorU9NaOUsDkGNHNr33ctMqtBfycMWZMxjFp1sI1dgkV4HZ9WHujm0euAIK-QqYR-XVGQMKLGlmK9UPbWhmeIIoO4JMSIlFhGVEHsFrebQdh","width":3024}],"place_id":"ChIJEx5cy0ziuEcRRgI4wq8Wjj4","plus_code":{"compound_code":"H6F6+QX Recklinghausen","global_code":"9F39H6F6+QX"},"price_level":1,"rating":4.8,"reference":"ChIJEx5cy0ziuEcRRgI4wq8Wjj4","types":["meal_takeaway","restaurant","point_of_interest","food","establishment"],"user_ratings_total":471},{"business_status":"OPERATIONAL","formatted_address":"Münsterstraße 22, 44534 Lünen","geometry":{"location":{"lat":51.61701100000001,"lng":7.525494999999999},"viewport":{"northeast":{"lat":51.61843892989272,"lng":7.526748029892722},"southwest":{"lat":51.61573927010728,"lng":7.524048370107277}}},"icon":"https://maps.gstatic.com/mapfiles/place_api/icons/v1/png_71/restaurant-71.png","icon_background_color":"#FF9E67","icon_mask_base_uri":"https://maps.gstatic.com/mapfiles/place_api/icons/v2/restaurant_pinlet","name":"Bach Tra Cuisine","opening_hours":{"open_now":true},"photos":[{"height":2235,"html_attributions":["<a href=\"https://maps.google.com/maps/contrib/116538014663269788020\">A Google User</a>"],"photo_reference":"AeJbb3c42Av7-90zlpz1HIBywi-IGRImf-7fUn1BkZajgfIiexnyf5PIS_GnsUXe-20nerlIUQAcbvvuPUKYMxPWCFJalDwv6_WfH5L6He2G06OeC7BAZr8cOO0ou59jEdu0dmq1nzetqza3IfIXLgp9SdB4cyGuBpuY_UcoQHZvd5Th8mTZ","width":1702}],"place_id":"ChIJF9Bo4bQPuUcRRsTc998gZRE","plus_code":{"compound_code":"JG8G+R5 Lünen","global_code":"9F39JG8G+R5"},"price_level":2,"rating":4.8,"reference":"ChIJF9Bo4bQPuUcRRsTc998gZRE","types":["restaurant","food","point_of_interest","establishment"],"user_ratings_total":266},{"business_status":"OPERATIONAL","formatted_address":"Kortumstraße 36, 44787 Bochum","geometry":{"location":{"lat":51.4782064,"lng":7.217048699999999},"viewport":{"northeast":{"lat":51.47975872989272,"lng":7.218298829892723},"southwest":{"lat":51.47705907010728,"lng":7.215599170107279}}},"icon":"https://maps.gstatic.com/mapfiles/place_api/icons/v1/png_71/restaurant-71.png","icon_background_color":"#FF9E67","icon_mask_base_uri":"https://maps.gstatic.com/mapfiles/place_api/icons/v2/restaurant_pinlet","name":"Wok‘ n Roll Bochum","opening_hours":{"open_now":true},"photos":[{"height":3024,"html_attributions":["<a href=\"https://maps.google.com/maps/contrib/103913456029730949400\">neerajamk07</a>"],"photo_reference":"AeJbb3fgnUpVQzOTYQjb58MWZ5ddxbzTAxaqyh8riivJGpJubVpuvMj4bBk0j3_P733tfOxHSRQMj5dneHxhAmAKx6iWm1i0CaYEEahzjvpQ0gKpQ5TlUSrg_7arig87eAipH2rVt_NzsDl8tVkUh7GmjhDqXmOs_mnaEWh6v1Ha8A5zl5fC","width":4032}],"place_id":"ChIJRxsVnRTguEcRHSAS_NtMpFw","plus_code":{"compound_code":"F6H8+7R Bochum","global_code":"9F39F6H8+7R"},"price_level":1,"rating":4.7,"reference":"ChIJRxsVnRTguEcRHSAS_NtMpFw","types":["restaurant","point_of_interest","food","establishment"],"user_ratings_total":828},{"business_status":"OPERATIONAL","formatted_address":"Kaiserstraße 3, 44135 Dortmund","geometry":{"location":{"lat":51.5139356,"lng":7.4732778},"viewport":{"northeast":{"lat":51.51530312989272,"lng":7.47446992989272},"southwest":{"lat":51.51260347010727,"lng":7.471770270107276}}},"icon":"https://maps.gstatic.com/mapfiles/place_api/icons/v1/png_71/restaurant-71.png","icon_background_color":"#FF9E67","icon_mask_base_uri":"https://maps.gstatic.com/mapfiles/place_api/icons/v2/restaurant_pinlet","name":"Lemongrass","opening_hours":{"open_now":true},"photos":[{"height":4032,"html_attributions":["<a href=\"https://maps.google.com/maps/contrib/114271436646790082415\">Linny Wii</a>"],"photo_reference":"AeJbb3ePUcROtj7Hjomoh_X3JhQdIq3vrbzagMzF2XTu1HXpY5s0z7_qRs7nU1ir1Nc7e-K0QgL53aS3CBi3YMWXbMJiBYe-Ux-iABVYA9myuPCzSbQDUNhbW8J_DYQ6Et7fapXFZQKROkrkpzZPa_vrD-6qHWObi4Sp5POFYcAS1mgNTmHk","width":3024}],"place_id":"ChIJey53qV4XuUcRIHhr_EoOdIM","plus_code":{"compound_code":"GF7F+H8 Dortmund","global_code":"9F39GF7F+H8"},"price_level":2,"rating":4.7,"reference":"ChIJey53qV4XuUcRIHhr_EoOdIM","types":["restaurant","food","point_of_interest","establishment"],"user_ratings_total":748},{"business_status":"OPERATIONAL","formatted_address":"Adenauerstraße 4, 59174 Kamen","geometry":{"location":{"lat":51.5937608,"lng":7.662873400000001},"viewport":{"northeast":{"lat":51.59503907989272,"lng":7.664503329892722},"southwest":{"lat":51.59233942010728,"lng":7.661803670107278}}},"icon":"https://maps.gstatic.com/mapfiles/place_api/icons/v1/png_71/restaurant-71.png","icon_background_color":"#FF9E67","icon_mask_base_uri":"https://maps.gstatic.com/mapfiles/place_api/icons/v2/restaurant_pinlet","name":"Pad Thai Kamen","opening_hours":{"open_now":false},"photos":[{"height":1600,"html_attributions":["<a href=\"https://maps.google.com/maps/contrib/107897910725210402057\">A Google User</a>"],"photo_reference":"AeJbb3fkartm5MoQvrsx7xHcpV-j-C3xfs9UCkg3I-vxEQZAsp_zxruNdNsqxpHf7DohhN16GN2lVAGUutyrQmCU-6e1sL7ITsLoA_USvtwIsbEdxTaktJ444L9yiroUbcHa4jw6UuI5zuY3qSS9ZOpkO6UiDad_eCaLDQXFO5eTwmyHhwZz","width":1200}],"place_id":"ChIJJU58lIsTuUcR0gEgPBeVhIE","plus_code":{"compound_code":"HMV7+G4 Kamen","global_code":"9F39HMV7+G4"},"rating":4.7,"reference":"ChIJJU58lIsTuUcR0gEgPBeVhIE","types":["restaurant","food","point_of_interest","establishment"],"user_ratings_total":207},{"business_status":"OPERATIONAL","formatted_address":"Lange Str. 40, 44579 Castrop-Rauxel","geometry":{"location":{"lat":51.5839929,"lng":7.3103041},"viewport":{"northeast":{"lat":51.58532257989273,"lng":7.311566729892722},"southwest":{"lat":51.58262292010728,"lng":7.308867070107278}}},"icon":"https://maps.gstatic.com/mapfiles/place_api/icons/v1/png_71/restaurant-71.png","icon_background_color":"#FF9E67","icon_mask_base_uri":"https://maps.gstatic.com/mapfiles/place_api/icons/v2/restaurant_pinlet","name":"Di An Di","opening_hours":{"open_now":true},"photos":[{"height":4000,"html_attributions":["<a href=\"https://maps.google.com/maps/contrib/105019184525998797380\">Michaela Kuhnigk</a>"],"photo_reference":"AeJbb3d6XtehZNnmdSOjUsQn60x8N20Xt5WnTq-rAhQ4C5GePGaSiL1UqnwzvzbfGK_sEyjKGgbKrQ73jtWD00lphmkxBh54nuuItClzHbmwPPhgVMfyo4mHv4fxXigVDbDOqPY1TqWGaQQNMu_-nOir9u3tFZDEUQYGBqkanHCCNduGpFmW","width":3000}],"place_id":"ChIJ03fV7JkduUcRx3SCC7J__kE","plus_code":{"compound_code":"H8M6+H4 Castrop-Rauxel","global_code":"9F39H8M6+H4"},"rating":4.7,"reference":"ChIJ03fV7JkduUcRx3SCC7J__kE","types":["restaurant","food","point_of_interest","establishment"],"user_ratings_total":153},{"business_status":"OPERATIONAL","formatted_address":"Ludwigstraße 6, 44135 Dortmund","geometry":{"location":{"lat":51.516619,"lng":7.466326999999999},"viewport":{"northeast":{"lat":51.51813942989272,"lng":7.468103879892721},"southwest":{"lat":51.51543977010728,"lng":7.465404220107277}}},"icon":"https://maps.gstatic.com/mapfiles/place_api/icons/v1/png_71/restaurant-71.png","icon_background_color":"#FF9E67","icon_mask_base_uri":"https://maps.gstatic.com/mapfiles/place_api/icons/v2/restaurant_pinlet","name":"Huong Sen - Fine Sushi & Viet Cuisine","opening_hours":{"open_now":true},"photos":[{"height":4032,"html_attributions":["<a href=\"https://maps.google.com/maps/contrib/102839752053703502420\">Truong Le</a>"],"photo_reference":"AeJbb3dcnOEvZ9XiHji8F_2rVR67wpDWUMIlOCq8wV4Pwyx_KaEdvzTBs74YdoawRDrAPtJozkENXkK8SO2v32m0Ra1jcr-mcRL8JibesSujO8nlot7FBy-zFAfsZfJ2rn55zmYeJSCmIiEjj56oT6t7Jijfemh7m_IRQKVtCPkshR7_DPMR","width":1816}],"place_id":"ChIJj31ntScZuUcR2M-ZKAt6cKM","plus_code":{"compound_code":"GF88+JG Dortmund","global_code":"9F39GF88+JG"},"rating":4.7,"reference":"ChIJj31ntScZuUcR2M-ZKAt6cKM","types":["restaurant","point_of_interest","food","establishment"],"user_ratings_total":152},{"business_status":"OPERATIONAL","formatted_address":"Stockumer Str. 215, 44225 Dortmund","geometry":{"location":{"lat":51.4821699,"lng":7.4357221},"viewport":{"northeast":{"lat":51.48345212989272,"lng":7.437061729892721},"southwest":{"lat":51.48075247010727,"lng":7.434362070107277}}},"icon":"https://maps.gstatic.com/mapfiles/place_api/icons/v1/png_71/restaurant-71.png","icon_background_color":"#FF9E67","icon_mask_base_uri":"https://maps.gstatic.com/mapfiles/place_api/icons/v2/restaurant_pinlet","name":"Anna Hoang - China Thai Bistro Spezialitäten","opening_hours":{"open_now":true},"photos":[{"height":4032,"html_attributions":["<a href=\"https://maps.google.com/maps/contrib/117653586082657098986\">Hieu Nguyen</a>"],"photo_reference":"AeJbb3fLM7cKmSBGVT7vus7LwO4FG5HxZDSR2Lw4IoHaLMMJhfkz4u9rOGk8GbxRTNPucC8T6jhpcSXMsC_YTnk0EqEKYwVi3ryY2rYnDBooAtTjdVt__zFFyu4HAnOD0u1s_GjtJD23-ug2h2-3ESor4NbOv3y_Qoqe9WBLnNMYW7xh_dgA","width":3024}],"place_id":"ChIJn7ME7_EZuUcROeG4veJss0Y","plus_code":{"compound_code":"FCJP+V7 Dortmund","global_code":"9F39FCJP+V7"},"rating":4.7,"reference":"ChIJn7ME7_EZuUcROeG4veJss0Y","types":["restaurant","food","point_of_interest","establishment"],"user_ratings_total":54},{"business_status":"OPERATIONAL","formatted_address":"Hohe Str. 13, 44139 Dortmund","geometry":{"location":{"lat":51.5083711,"lng":7.4607173},"viewport":{"northeast":{"lat":51.50969647989272,"lng":7.462194429892722},"southwest":{"lat":51.50699682010727,"lng":7.459494770107278}}},"icon":"https://maps.gstatic.com/mapfiles/place_api/icons/v1/png_71/restaurant-71.png","icon_background_color":"#FF9E67","icon_mask_base_uri":"https://maps.gstatic.com/mapfiles/place_api/icons/v2/restaurant_pinlet","name":"Tam Nag Thai","opening_hours":{"open_now":false},"photos":[{"height":2321,"html_attributions":["<a href=\"https://maps.google.com/maps/contrib/101163741351139990357\">A Google User</a>"],"photo_reference":"AeJbb3f2H4wHV9mWbKDpNVdpOP4_8jKfmoCcBKb4CxdrDxRYhAVfpEcQmBrBt79fK_JPJozmsmgI99LZNKRcHbalvYHNBkXwtQebhRpBAa0CF7vz9C_lQmcGKeKTS2aCraPBDTNbU3hwGKh4q5Xyb7pAmhqXCYRHyzvRX2KXkp_n_OliQNdS","width":4032}],"place_id":"ChIJVXJcPfkzcEERxPfBQeoKxvs","plus_code":{"compound_code":"GF56+87 Dortmund","global_code":"9F39GF56+87"},"price_level":2,"rating":4.6,"reference":"ChIJVXJcPfkzcEERxPfBQeoKxvs","types":["restaurant","food","point_of_interest","establishment"],"user_ratings_total":622},{"business_status":"OPERATIONAL","formatted_address":"Hagener Str. 22, 58642 Iserlohn","geometry":{"location":{"lat":51.3653473,"lng":7.615040100000001},"viewport":{"northeast":{"lat":51.36668552989272,"lng":7.616287129892723},"southwest":{"lat":51.36398587010728,"lng":7.613587470107279}}},"icon":"https://maps.gstatic.com/mapfiles/place_api/icons/v1/png_71/restaurant-71.png","icon_background_color":"#FF9E67","icon_mask_base_uri":"https://maps.gstatic.com/mapfiles/place_api/icons/v2/restaurant_pinlet","name":"WOK MAN Sushi & Asia Kitchen","opening_hours":{"open_now":true},"photos":[{"height":2328,"html_attributions":["<a href=\"https://maps.google.com/maps/contrib/113502225894650329606\">A Google User</a>"],"photo_reference":"AeJbb3fOTBTY7XvrXr1sHwKNvqfkuoXGQ5mh-VCWZ_OdoupF_nYLbphYqxs4LTUvS2Xas0jSLG0aoTUGiADjwkY2xPs4ckAPSMqqKqaOF3cd_vJfZPG9zkVclk9wf7vhRUkMB59tk5azEo-XrKHLsSF30yqs55R0vLWX3voEcX7c9lug2vMJ","width":3264}],"place_id":"ChIJ23RthTg_uUcR2c3E8zM5F6g","plus_code":{"compound_code":"9J88+42 Iserlohn","global_code":"9F399J88+42"},"rating":4.6,"reference":"ChIJ23RthTg_uUcR2c3E8zM5F6g","types":["restaurant","point_of_interest","food","establishment"],"user_ratings_total":261},{"business_status":"OPERATIONAL","formatted_address":"Untere Marktstraße 9, 44787 Bochum","geometry":{"location":{"lat":51.48227319999999,"lng":7.219783499999999},"viewport":{"northeast":{"lat":51.48362732989273,"lng":7.22113817989272},"southwest":{"lat":51.48092767010728,"lng":7.218438520107276}}},"icon":"https://maps.gstatic.com/mapfiles/place_api/icons/v1/png_71/restaurant-71.png","icon_background_color":"#FF9E67","icon_mask_base_uri":"https://maps.gstatic.com/mapfiles/place_api/icons/v2/restaurant_pinlet","name":"Bat Viet","opening_hours":{"open_now":true},"photos":[{"height":4608,"html_attributions":["<a href=\"https://maps.google.com/maps/contrib/112496755953969805196\">MSdiebin</a>"],"photo_reference":"AeJbb3d9OkXOuE9iYFouwzxFCNQUsy1wxQC_Nii7dMjbW36Hfmw2zltJQh32g_LSGOe2HKYmSD5dWtpQ_J1MhzQWmul66fST1xqdLpwKQukHO5OAYUOqkZwj495kmvamIM8eaT5RqtjHY0n_pAUvpKWAZKtxu2puhlVXoDeY5HY8PFalcDb5","width":3456}],"place_id":"ChIJXWABhhXguEcRrMmoqZ_7OJI","plus_code":{"compound_code":"F6J9+WW Bochum","global_code":"9F39F6J9+WW"},"price_level":1,"rating":4.6,"reference":"ChIJXWABhhXguEcRrMmoqZ_7OJI","types":["restaurant","food","point_of_interest","establishment"],"user_ratings_total":256},{"business_status":"OPERATIONAL","formatted_address":"Elberfelder Str. 92, 58095 Hagen","geometry":{"location":{"lat":51.35976369999999,"lng":7.4621272},"viewport":{"northeast":{"lat":51.36106607989272,"lng":7.463487229892722},"southwest":{"lat":51.35836642010727,"lng":7.460787570107279}}},"icon":"https://maps.gstatic.com/mapfiles/place_api/icons/v1/png_71/restaurant-71.png","icon_background_color":"#FF9E67","icon_mask_base_uri":"https://maps.gstatic.com/mapfiles/place_api/icons/v2/restaurant_pinlet","name":"Vimix vietnamesische Cuisine","opening_hours":{"open_now":true},"photos":[{"height":3024,"html_attributions":["<a href=\"https://maps.google.com/maps/contrib/117214160420461244207\">Jack Li</a>"],"photo_reference":"AeJbb3dN-K2kJ3L8Wh3ryGTJNH_gd0fxBqRgkkMlarldlpsYgnKFUb6BbWrfvpZIgrYVauNYVf2COnIzKAAGI6aijgON83O5j05bcPE-FLDqCO4zZX_kG33BPxfgszKXW-7r9ujMQRPxB71UZqFaucAqfIrPp2dqsMhew-z-WUE-ENKhTEJN","width":4032}],"place_id":"ChIJSTdwCeM7uUcRveTFqZkBBTw","plus_code":{"compound_code":"9F56+WV Hagen","global_code":"9F399F56+WV"},"rating":4.6,"reference":"ChIJSTdwCeM7uUcRveTFqZkBBTw","types":["restaurant","point_of_interest","food","establishment"],"user_ratings_total":201},{"business_status":"OPERATIONAL","formatted_address":"Kortumstraße 140, 44787 Bochum","geometry":{"location":{"lat":51.4847386,"lng":7.2193009},"viewport":{"northeast":{"lat":51.48620287989272,"lng":7.220631229892721},"southwest":{"lat":51.48350322010728,"lng":7.217931570107277}}},"icon":"https://maps.gstatic.com/mapfiles/place_api/icons/v1/png_71/restaurant-71.png","icon_background_color":"#FF9E67","icon_mask_base_uri":"https://maps.gstatic.com/mapfiles/place_api/icons/v2/restaurant_pinlet","name":"Hanoi October","opening_hours":{"open_now":true},"photos":[{"height":1948,"html_attributions":["<a href=\"https://maps.google.com/maps/contrib/106485523031940855277\">Minh Duc Ngo</a>"],"photo_reference":"AeJbb3eQ-ObKOx-UAmiytb0m-NHP62wJRbwOkz4ZDMOJXYQIPJUJB-D8P5IvYcwfVOzAXAAjUrY8nQeE6vdk4bEgaHlLKQD6AMe13V_6Y8ddOh-I-x1fzNOCpYaONFiHS2zu-xANElu4-xpwHamGyXUYIF87UHQ5beK25LwhTl5P6j_XU-3K","width":3462}],"place_id":"ChIJPbb5V-zhuEcR2WTl-JTlEvo","plus_code":{"compound_code":"F6M9+VP Bochum","global_code":"9F39F6M9+VP"},"rating":4.6,"reference":"ChIJPbb5V-zhuEcR2WTl-JTlEvo","types":["restaurant","point_of_interest","food","establishment"],"user_ratings_total":167},{"business_status":"OPERATIONAL","formatted_address":"Schützenstraße 30, 44147 Dortmund","geometry":{"location":{"lat":51.5204457,"lng":7.453042399999999},"viewport":{"northeast":{"lat":51.52181017989273,"lng":7.454509029892721},"southwest":{"lat":51.51911052010728,"lng":7.451809370107277}}},"icon":"https://maps.gstatic.com/mapfiles/place_api/icons/v1/png_71/restaurant-71.png","icon_background_color":"#FF9E67","icon_mask_base_uri":"https://maps.gstatic.com/mapfiles/place_api/icons/v2/restaurant_pinlet","name":"Asian Vietnam Thai Imbiss","opening_hours":{"open_now":true},"photos":[{"height":4608,"html_attributions":["<a href=\"https://maps.google.com/maps/contrib/101793286874670813829\">A Google User</a>"],"photo_reference":"AeJbb3euu_nidJOwArX9Vkk1h2y728J-tl8BoQ1ebVShOBoPCw-nTEceBpdwBcaekKN_SYiRohv--5S4TDzBV6z05cCDPm6Mmw9JjCJx2AMsZWc9ZKyhiQ1ndIGxtklwPB8gKOPRELG1p7vwX6DUcsqJGQaFW15dez1JZFXDvBKM9cULzNLA","width":3456}],"place_id":"ChIJVc7A3u8ZuUcRq18dxaD0Spc","plus_code":{"compound_code":"GFC3+56 Dortmund","global_code":"9F39GFC3+56"},"price_level":1,"rating":4.6,"reference":"ChIJVc7A3u8ZuUcRq18dxaD0Spc","types":["meal_takeaway","restaurant","food","point_of_interest","establishment"],"user_ratings_total":156},{"business_status":"OPERATIONAL","formatted_address":"Brüderstraße 8, 44787 Bochum","geometry":{"location":{"lat":51.4779969,"lng":7.2175639},"viewport":{"northeast":{"lat":51.47932607989272,"lng":7.218952679892723},"southwest":{"lat":51.47662642010727,"lng":7.216253020107279}}},"icon":"https://maps.gstatic.com/mapfiles/place_api/icons/v1/png_71/restaurant-71.png","icon_background_color":"#FF9E67","icon_mask_base_uri":"https://maps.gstatic.com/mapfiles/place_api/icons/v2/restaurant_pinlet","name":"Hatoky Restaurant","opening_hours":{"open_now":true},"photos":[{"height":2448,"html_attributions":["<a href=\"https://maps.google.com/maps/contrib/107336278086892206700\">Hatoky Restaurant</a>"],"photo_reference":"AeJbb3edrDvYBBKPyBS5QW7JaGZXxyPrIXrp0MwbZY0njlzFdYn91ypDZKhwjETh9NL-q238CUxbLAsfsVSw7AE9yAiLmE_9VfGOJP0mYg3XRA7P8GMkk6lHAcFF1eUdO-hXhlsO5QJrx7uVCNXit698IFrmih_E3FJWD1jQsiw8SVR1RZCz","width":3264}],"place_id":"ChIJJ9eOiBTguEcRjEAx9jkMiKs","plus_code":{"compound_code":"F6H9+52 Bochum","global_code":"9F39F6H9+52"},"price_level":2,"rating":4.5,"reference":"ChIJJ9eOiBTguEcRjEAx9jkMiKs","types":["restaurant","food","point_of_interest","establishment"],"user_ratings_total":1043},{"business_status":"OPERATIONAL","formatted_address":"Brüderstraße 5, 44787 Bochum","geometry":{"location":{"lat":51.4780288,"lng":7.217975899999999},"viewport":{"northeast":{"lat":51.47941037989272,"lng":7.219261579892723},"southwest":{"lat":51.47671072010728,"lng":7.216561920107279}}},"icon":"https://maps.gstatic.com/mapfiles/place_api/icons/v1/png_71/restaurant-71.png","icon_background_color":"#FF9E67","icon_mask_base_uri":"https://maps.gstatic.com/mapfiles/place_api/icons/v2/restaurant_pinlet","name":"NhyStar Restaurant","opening_hours":{"open_now":true},"photos":[{"height":1080,"html_attributions":["<a href=\"https://maps.google.com/maps/contrib/104434688799394579726\">A Google User</a>"],"photo_reference":"AeJbb3dmqcF3DWg8PI_G0Ilzwz_DTiUhMywjJdeChkt7Kx6Io8DuBR0LZponroRIYRhkbcdsa_faFWn7TosZDDQ3sBoVPLdZ6IVbfRPaDpOR2ktCueupKbxP8dUH8DdPgZ1DKp4fvawsfa63K2cYuXPSZKFZL3vsMrrYOAKys1BMHsplJUeF","width":1440}],"place_id":"ChIJIxfafBTguEcRQvQzZicnQ6k","plus_code":{"compound_code":"F6H9+65 Bochum","global_code":"9F39F6H9+65"},"price_level":2,"rating":4.5,"reference":"ChIJIxfafBTguEcRQvQzZicnQ6k","types":["restaurant","food","point_of_interest","establishment"],"user_ratings_total":838},{"business_status":"OPERATIONAL","formatted_address":"Erlenbachstraße 55, 44269 Dortmund","geometry":{"location":{"lat":51.4875194,"lng":7.542129900000001},"viewport":{"northeast":{"lat":51.48886432989272,"lng":7.543523929892722},"southwest":{"lat":51.48616467010728,"lng":7.540824270107279}}},"icon":"https://maps.gstatic.com/mapfiles/place_api/icons/v1/png_71/restaurant-71.png","icon_background_color":"#FF9E67","icon_mask_base_uri":"https://maps.gstatic.com/mapfiles/place_api/icons/v2/restaurant_pinlet","name":"Thai Spezialitäten Warin","opening_hours":{"open_now":false},"photos":[{"height":3024,"html_attributions":["<a href=\"https://maps.google.com/maps/contrib/100296489696538578389\">Bernd Schmiedinghoff</a>"],"photo_reference":"AeJbb3eGHSWKbima8fmJwxAUcf0buJpTaq0FKwTylIc9kcxzaXHEzRDWYfeEmBSGGoMByOowiH09L5NNljwrEO9DId1qgrLANIiDrByUWPxmFOUlI8jwzgKHsc3OSXQOLhr4vTuL5w8u2juTkUGzE8wIR6kL2DO19i5ix8CXNw5oYrh-XNES","width":4032}],"place_id":"ChIJjyrwShgUuUcRl5OWPD0p9YE","plus_code":{"compound_code":"FGQR+2Q Dortmund","global_code":"9F39FGQR+2Q"},"price_level":1,"rating":4.5,"reference":"ChIJjyrwShgUuUcRl5OWPD0p9YE","types":["meal_takeaway","restaurant","food","point_of_interest","establishment"],"user_ratings_total":272},{"business_status":"OPERATIONAL","formatted_address":"Am Markt 2, 44575 Castrop-Rauxel","geometry":{"location":{"lat":51.5481332,"lng":7.3108023},"viewport":{"northeast":{"lat":51.54940252989272,"lng":7.312319079892722},"southwest":{"lat":51.54670287010727,"lng":7.309619420107278}}},"icon":"https://maps.gstatic.com/mapfiles/place_api/icons/v1/png_71/restaurant-71.png","icon_background_color":"#FF9E67","icon_mask_base_uri":"https://maps.gstatic.com/mapfiles/place_api/icons/v2/restaurant_pinlet","name":"ASIA BISTRO PANDA","opening_hours":{"open_now":true},"photos":[{"height":2934,"html_attributions":["<a href=\"https://maps.google.com/maps/contrib/109338408157483037813\">Viet Ha Bui</a>"],"photo_reference":"AeJbb3d7-qZdFsWc99B9VMt4WJmi4GOsEeTGuA6iLJkZpNPY-LijfiSn-bHweqtSvsSAeJhU_kk7ry9ggESFRIKhNoPDVl0iwUpyyMLax9Oqv2r54fxy9QNyxB--Ctr6IuUea_7MNB9wc6BfJtM8dzgrZzqJGTElp_ZK3l25rC0JWTITk9L3","width":3514}],"place_id":"ChIJY7ZxAtMduUcRAWHGrIBjegM","plus_code":{"compound_code":"G8X6+78 Castrop-Rauxel","global_code":"9F39G8X6+78"},"price_level":1,"rating":4.5,"reference":"ChIJY7ZxAtMduUcRAWHGrIBjegM","types":["restaurant","point_of_interest","food","establishment"],"user_ratings_total":213},{"business_status":"OPERATIONAL","formatted_address":"Harkortstraße 42, 44225 Dortmund","geometry":{"location":{"lat":51.47562370000001,"lng":7.441530500000001},"viewport":{"northeast":{"lat":51.47700927989271,"lng":7.442876479892721},"southwest":{"lat":51.47430962010727,"lng":7.440176820107277}}},"icon":"https://maps.gstatic.com/mapfiles/place_api/icons/v1/png_71/restaurant-71.png","icon_background_color":"#FF9E67","icon_mask_base_uri":"https://maps.gstatic.com/mapfiles/place_api/icons/v2/restaurant_pinlet","name":"ASIA IMBISS ANH TAI","opening_hours":{"open_now":true},"photos":[{"height":2988,"html_attributions":["<a href=\"https://maps.google.com/maps/contrib/110249207542035860996\">Uwe P.</a>"],"photo_reference":"AeJbb3csHxL86nbI-7nuLhhRLPdHR4BLTHOWBamPu6jpbASTydKG1wYNMzqcxpt0g3dJQmi0JJpOOnRudrMkoq8hQdpyYwlqa1WF8yuA54Nw8I7i6-1daf-LJ0mtaxO2ZX6DvWRuYMWVPa2NBj37ZuvuzJ-wZueB9jFXN0sXt2dACf1zGGjr","width":5312}],"place_id":"ChIJA9VWPDsYuUcReunac4iuGf8","plus_code":{"compound_code":"FCGR+6J Dortmund","global_code":"9F39FCGR+6J"},"price_level":1,"rating":4.5,"reference":"ChIJA9VWPDsYuUcReunac4iuGf8","types":["restaurant","food","point_of_interest","establishment"],"user_ratings_total":200},{"business_status":"OPERATIONAL","formatted_address":"Altenhöfener Str. 36, 44623 Herne","geometry":{"location":{"lat":51.5322548,"lng":7.2275527},"viewport":{"northeast":{"lat":51.53359397989272,"lng":7.228946529892721},"southwest":{"lat":51.53089432010727,"lng":7.226246870107278}}},"icon":"https://maps.gstatic.com/mapfiles/place_api/icons/v1/png_71/restaurant-71.png","icon_background_color":"#FF9E67","icon_mask_base_uri":"https://maps.gstatic.com/mapfiles/place_api/icons/v2/restaurant_pinlet","name":"Asia Points","opening_hours":{"open_now":false},"photos":[{"height":3456,"html_attributions":["<a href=\"https://maps.google.com/maps/contrib/111440382410831042555\">Asia Points</a>"],"photo_reference":"AeJbb3cLMoFvxxyNTMfFgfbBKNi06-ljuaxQqTfGLoAxFmVkyCiz8KNo_YLo15tNXmDt_lsE5Sj44mnfa_gDWfk_huAA95r2OaHnT_33x6pD4IUQVzIo_dNy7-UksWlwLzFGG_J3_ZI3tltDEKkcvIJW_xJ-czpVqLNS8VxWWZDlCgsrdtun","width":4608}],"place_id":"ChIJiX5Z2JLhuEcRrkbzPVjs_lM","plus_code":{"compound_code":"G6JG+WX Herne","global_code":"9F39G6JG+WX"},"price_level":1,"rating":4.5,"reference":"ChIJiX5Z2JLhuEcRrkbzPVjs_lM","types":["meal_takeaway","restaurant","point_of_interest","food","establishment"],"user_ratings_total":50},{"business_status":"OPERATIONAL","formatted_address":"Am Einkaufszentrum 1, 44791 Bochum","geometry":{"location":{"lat":51.4944231,"lng":7.282317499999999},"viewport":{"northeast":{"lat":51.49568852989272,"lng":7.283647900000003},"southwest":{"lat":51.49298887010728,"lng":7.278789500000001}}},"icon":"https://maps.gstatic.com/mapfiles/place_api/icons/v1/png_71/restaurant-71.png","icon_background_color":"#FF9E67","icon_mask_base_uri":"https://maps.gstatic.com/mapfiles/place_api/icons/v2/restaurant_pinlet","name":"3CO","opening_hours":{"open_now":true},"photos":[{"height":3024,"html_attributions":["<a href=\"https://maps.google.com/maps/contrib/102501644366439984761\">Robert Jarosz</a>"],"photo_reference":"AeJbb3cOu8D_KaKnOvgXMRfrjDrOcz6mrhq9ST-DnjQy2Vjw1VI9RyCzF7Tn-0NJwni3a7UjLJ17-CWEQIXPoxApPc2kcfdX9fd9HxtmyWVMhaNhAK41gLqPQdswC8d3LP98_PjtbnOph9mPb-Rjz9HNHisPb8qMA4v1OlNysPPBxUf5I1Ff","width":4032}],"place_id":"ChIJRY3Wf7EfuUcRrz6IiziZ-6k","plus_code":{"compound_code":"F7VJ+QW Bochum","global_code":"9F39F7VJ+QW"},"rating":4.4,"reference":"ChIJRY3Wf7EfuUcRrz6IiziZ-6k","types":["restaurant","food","point_of_interest","establishment"],"user_ratings_total":272},{"business_status":"OPERATIONAL","formatted_address":"Körner Hellweg 124, 44143 Dortmund","geometry":{"location":{"lat":51.517261,"lng":7.510368600000001},"viewport":{"northeast":{"lat":51.51859017989273,"lng":7.511618429892721},"southwest":{"lat":51.51589052010728,"lng":7.508918770107277}}},"icon":"https://maps.gstatic.com/mapfiles/place_api/icons/v1/png_71/restaurant-71.png","icon_background_color":"#FF9E67","icon_mask_base_uri":"https://maps.gstatic.com/mapfiles/place_api/icons/v2/restaurant_pinlet","name":"Thien an","opening_hours":{"open_now":true},"photos":[{"height":3000,"html_attributions":["<a href=\"https://maps.google.com/maps/contrib/114233372827249231222\">Sutthirada Pittayawiwatkul</a>"],"photo_reference":"AeJbb3eEOvmQhfFElkrNgvJWw1MkS5TZHLoh15fM2NzxAsXWUNFrvuLd1DOGv0mVm0gDRuLQjRKvKhwaFhlGTF4PI3kcjbktvQc603q3O58jnd_3n-M8_o9LkG5bS-c0ocRyVl0RTq9Q5t5nW8Ky38x1lRmUzGHL2VR32mymI0M0wJJqISlY","width":3000}],"place_id":"ChIJ4bCqiy8XuUcRGB_Gijw-u2s","plus_code":{"compound_code":"GG86+W5 Dortmund","global_code":"9F39GG86+W5"},"price_level":1,"rating":4.4,"reference":"ChIJ4bCqiy8XuUcRGB_Gijw-u2s","types":["restaurant","food","point_of_interest","establishment"],"user_ratings_total":263},{"business_status":"OPERATIONAL","formatted_address":"Kortumstraße 29, 44787 Bochum","geometry":{"location":{"lat":51.4778031,"lng":7.216591600000001},"viewport":{"northeast":{"lat":51.47898062989272,"lng":7.218040279892723},"southwest":{"lat":51.47628097010728,"lng":7.215340620107279}}},"icon":"https://maps.gstatic.com/mapfiles/place_api/icons/v1/png_71/restaurant-71.png","icon_background_color":"#FF9E67","icon_mask_base_uri":"https://maps.gstatic.com/mapfiles/place_api/icons/v2/restaurant_pinlet","name":"Citana Restaurant","opening_hours":{"open_now":true},"photos":[{"height":3024,"html_attributions":["<a href=\"https://maps.google.com/maps/contrib/118035225448585407307\">Jaques Pruis</a>"],"photo_reference":"AeJbb3cjr0P2d6D7jkj4PEjQdk0sj1sf6mDtWswslK_HREeuIdRLPUu6h5JzH88TUCdUPN6KcOyMP-QAkmxrLU7wM_99fJ-bvFBaN_c7KtusOquTQH9GCE7JVZdnHiWtbVUpdkfYk580eL28cXGPNxMgCBWG2J9Agcwh-9h9RO9VYkETt0WG","width":4032}],"place_id":"ChIJAQZFMHThuEcRyL2STyvT8Ss","plus_code":{"compound_code":"F6H8+4J Bochum","global_code":"9F39F6H8+4J"},"rating":4.4,"reference":"ChIJAQZFMHThuEcRyL2STyvT8Ss","types":["meal_takeaway","restaurant","food","point_of_interest","establishment"],"user_ratings_total":213},{"business_status":"OPERATIONAL","formatted_address":"Hohe Str. 46, 44139 Dortmund","geometry":{"location":{"lat":51.505707,"lng":7.460313999999999},"viewport":{"northeast":{"lat":51.50708447989272,"lng":7.461585529892722},"southwest":{"lat":51.50438482010728,"lng":7.458885870107278}}},"icon":"https://maps.gstatic.com/mapfiles/place_api/icons/v1/png_71/restaurant-71.png","icon_background_color":"#FF9E67","icon_mask_base_uri":"https://maps.gstatic.com/mapfiles/place_api/icons/v2/restaurant_pinlet","name":"Aroy Dee - Original Thai Imbiss","opening_hours":{"open_now":false},"photos":[{"height":3024,"html_attributions":["<a href=\"https://maps.google.com/maps/contrib/101994570688219760609\">Andre Kulinna</a>"],"photo_reference":"AeJbb3d8WXcJTtt8B-ijHWN0Huvpt2ejUh1CegmSp-eU-wIcT4L8G6tld30BCmppnyalVmUxRfcIqxa92KW7PCv8UQoHCydmY-9yavNGhluoe2wJ-4ndTGBnNDBwvPzLByCSZ4QJQTsMwPX5xZ-IaDCXuLmL4xCqkRU83fBdbokKR5X5kDuh","width":4032}],"place_id":"ChIJp4Hp0wkZuUcR2en0p5EPWfY","plus_code":{"compound_code":"GF46+74 Dortmund","global_code":"9F39GF46+74"},"rating":4.4,"reference":"ChIJp4Hp0wkZuUcR2en0p5EPWfY","types":["restaurant","food","point_of_interest","establishment"],"user_ratings_total":84},{"business_status":"OPERATIONAL","formatted_address":"Rheinische Str. 35, 44137 Dortmund","geometry":{"location":{"lat":51.5135162,"lng":7.450867799999999},"viewport":{"northeast":{"lat":51.51480877989272,"lng":7.452208429892722},"southwest":{"lat":51.51210912010728,"lng":7.449508770107277}}},"icon":"https://maps.gstatic.com/mapfiles/place_api/icons/v1/png_71/restaurant-71.png","icon_background_color":"#FF9E67","icon_mask_base_uri":"https://maps.gstatic.com/mapfiles/place_api/icons/v2/restaurant_pinlet","name":"Ruanthai Thai Imbiss","opening_hours":{"open_now":true},"photos":[{"height":3780,"html_attributions":["<a href=\"https://maps.google.com/maps/contrib/108897577694463007975\">Gina Jula</a>"],"photo_reference":"AeJbb3cn7bayM_3LOt01ztlcnZRT72_y7bbRaHsoR93PMWCvMwXIW3KlJDILsucYUkAgBz23Sex9QnAtidRdkzI4-2P_M20HFgBewoHCflIfphHZF5NdV0m5UhOdawAKZap_wgKy21wFyxzRRywJrcT0VXWsZRKg20G144EbmQ-8dvUbx460","width":3024}],"place_id":"ChIJFcr58OgZuUcR2xSLyFdqHP8","plus_code":{"compound_code":"GF72+C8 Dortmund","global_code":"9F39GF72+C8"},"price_level":1,"rating":4.3,"reference":"ChIJFcr58OgZuUcR2xSLyFdqHP8","types":["meal_takeaway","restaurant","food","point_of_interest","establishment"],"user_ratings_total":282},{"business_status":"OPERATIONAL","formatted_address":"Margot-Röttger-Rath-Straße 1, 58239 Schwerte","geometry":{"location":{"lat":51.4410605,"lng":7.559717399999998},"viewport":{"northeast":{"lat":51.44256402989272,"lng":7.561375279892721},"southwest":{"lat":51.43986437010728,"lng":7.558675620107277}}},"icon":"https://maps.gstatic.com/mapfiles/place_api/icons/v1/png_71/restaurant-71.png","icon_background_color":"#FF9E67","icon_mask_base_uri":"https://maps.gstatic.com/mapfiles/place_api/icons/v2/restaurant_pinlet","name":"Asia & Co","opening_hours":{"open_now":true},"photos":[{"height":3968,"html_attributions":["<a href=\"https://maps.google.com/maps/contrib/108894615322535122191\">Hrag Khantrouni</a>"],"photo_reference":"AeJbb3e4UzFwMjV_2e8ToyA0x_5HCiwUAsw0nxHP_4IW8QyHuyYtZOmGgN8osM_bzt9PmDC5YwrxjpQmcElK7syTG2YB-btjHfTpxs3kXLUQ9fbvPZOR5uRgdfvgRsiG98BOcrRgleU2IOVo8DbZpDFZvJbYyH3bZciMYpfXm3nBIM9s3cV5","width":1984}],"place_id":"ChIJF5tqWgA-uUcRJIRYhez9Gp8","plus_code":{"compound_code":"CHR5+CV Schwerte","global_code":"9F39CHR5+CV"},"price_level":1,"rating":4.3,"reference":"ChIJF5tqWgA-uUcRJIRYhez9Gp8","types":["restaurant","food","point_of_interest","establishment"],"user_ratings_total":233},{"business_status":"OPERATIONAL","formatted_address":"Wittbräucker Str. 65, 58313 Herdecke","geometry":{"location":{"lat":51.4300375,"lng":7.4659925},"viewport":{"northeast":{"lat":51.43154122989272,"lng":7.467552629892723},"southwest":{"lat":51.42884157010727,"lng":7.464852970107279}}},"icon":"https://maps.gstatic.com/mapfiles/place_api/icons/v1/png_71/restaurant-71.png","icon_background_color":"#FF9E67","icon_mask_base_uri":"https://maps.gstatic.com/mapfiles/place_api/icons/v2/restaurant_pinlet","name":"Blue Elephant","opening_hours":{"open_now":true},"photos":[{"height":3024,"html_attributions":["<a href=\"https://maps.google.com/maps/contrib/103199233566650387305\">A Google User</a>"],"photo_reference":"AeJbb3c1TQ8MVpO93dcPhbDa5o9RMdt0nurOk7rp-wlE0xe54BXTYNmprsD0-QjOXbrtTd2OTRi7r6FCOX-AAff7FKVjPFyJFFehnJUQqCyABsZiA5-ur_XGfB8mpM5sgkHfU_CkHJLVGxH1FSEXygsmyXHimGwR8dmHjMuJ-CrExYgmHpJ7","width":4032}],"place_id":"ChIJ-820WEE9uUcRXI84-mq9sRo","plus_code":{"compound_code":"CFJ8+29 Herdecke","global_code":"9F39CFJ8+29"},"price_level":2,"rating":4.2,"reference":"ChIJ-820WEE9uUcRXI84-mq9sRo","types":["restaurant","food","point_of_interest","establishment"],"user_ratings_total":706},{"business_status":"OPERATIONAL","formatted_address":"Kornstraße 5, 59425 Unna","geometry":{"location":{"lat":51.5420631,"lng":7.679397799999999},"viewport":{"northeast":{"lat":51.54340307989273,"lng":7.680644379892722},"southwest":{"lat":51.54070342010728,"lng":7.677944720107278}}},"icon":"https://maps.gstatic.com/mapfiles/place_api/icons/v1/png_71/restaurant-71.png","icon_background_color":"#FF9E67","icon_mask_base_uri":"https://maps.gstatic.com/mapfiles/place_api/icons/v2/restaurant_pinlet","name":"Fuli-Express","opening_hours":{"open_now":true},"photos":[{"height":3120,"html_attributions":["<a href=\"https://maps.google.com/maps/contrib/103638972591244977862\">Stephan Wysk</a>"],"photo_reference":"AeJbb3duSdpDCpQ4pqXBoDMK6UnocllM9MXPq3Iwj-t2hTFrt-CpKtWkj52xIKWOYZLHArZ3loCz3uJ9heqwMV6mYgOBsSsNMTsn5qJ--q4TRmlHDE_lju31AsCQWJQaBUhpTJPh5vAzNoAnTQqwsQAE0vswUtfABmRgCcZNDzs_7WejhR-_","width":4160}],"place_id":"ChIJZzYGzTQTuUcRSMh0jdtTXZc","plus_code":{"compound_code":"GMRH+RQ Unna","global_code":"9F39GMRH+RQ"},"price_level":1,"rating":4.2,"reference":"ChIJZzYGzTQTuUcRSMh0jdtTXZc","types":["meal_takeaway","restaurant","food","point_of_interest","establishment"],"user_ratings_total":296},{"business_status":"OPERATIONAL","formatted_address":"Westenhellweg 128, 44137 Dortmund","geometry":{"location":{"lat":51.5137684,"lng":7.457069100000001},"viewport":{"northeast":{"lat":51.51514882989272,"lng":7.458598979892721},"southwest":{"lat":51.51244917010728,"lng":7.455899320107277}}},"icon":"https://maps.gstatic.com/mapfiles/place_api/icons/v1/png_71/restaurant-71.png","icon_background_color":"#FF9E67","icon_mask_base_uri":"https://maps.gstatic.com/mapfiles/place_api/icons/v2/restaurant_pinlet","name":"Asia Wok - Dortmund","opening_hours":{"open_now":true},"photos":[{"height":4032,"html_attributions":["<a href=\"https://maps.google.com/maps/contrib/101385228801402136996\">Van Tu Nguyen</a>"],"photo_reference":"AeJbb3cV4H3D-NTw9WZ6YbL0JiL_RFuYFPLKhcBk7dJP6F3Ab_qcrBUAc5GBVo1Cej3i0EHG1NdbswKQLXB6jhJJgSbsYpfGEc3baJNoOATFeccScA_uz9rvlhZT1zJ6bBZMXxLafKmlr2wLpT8LY7C0p4hbcoKETze_PpEij_LSl_Bm4svr","width":3024}],"place_id":"ChIJ8T_k9OYZuUcREqAcHembDGc","plus_code":{"compound_code":"GF74+GR Dortmund","global_code":"9F39GF74+GR"},"price_level":1,"rating":4.2,"reference":"ChIJ8T_k9OYZuUcREqAcHembDGc","types":["restaurant","point_of_interest","food","establishment"],"user_ratings_total":259},{"business_status":"OPERATIONAL","formatted_address":"Alfred-Trappen-Straße 38, 44263 Dortmund","geometry":{"location":{"lat":51.49175779999999,"lng":7.5012234},"viewport":{"northeast":{"lat":51.49311652989272,"lng":7.502609429892722},"southwest":{"lat":51.49041687010727,"lng":7.499909770107278}}},"icon":"https://maps.gstatic.com/mapfiles/place_api/icons/v1/png_71/restaurant-71.png","icon_background_color":"#FF9E67","icon_mask_base_uri":"https://maps.gstatic.com/mapfiles/place_api/icons/v2/restaurant_pinlet","name":"Asia Imbiss Lan Anh","opening_hours":{"open_now":true},"photos":[{"height":2874,"html_attributions":["<a href=\"https://maps.google.com/maps/contrib/105953607366516797606\">Heiko Nowack</a>"],"photo_reference":"AeJbb3fd7vNOBz8_2cWSxVVs3Dem5hFVQ-uNI18Ogii-4i2DeravlVL4XWKlCO0BcrVpw0FHaqz272RLY07n7i6HVsUjpm7_3QnNRVKQgZqnVOJmsFLC23SxxevJBVoeI7Dxgs909Q-1arQ4iIGGzNQAuMVu6GRxkqZX2sgma3P-ZR8FEdzs","width":3872}],"place_id":"ChIJxQ17Vw8XuUcR3UMnA7LsMo8","plus_code":{"compound_code":"FGR2+PG Dortmund","global_code":"9F39FGR2+PG"},"price_level":1,"rating":4.2,"reference":"ChIJxQ17Vw8XuUcR3UMnA7LsMo8","types":["restaurant","food","point_of_interest","establishment"],"user_ratings_total":148},{"business_status":"OPERATIONAL","formatted_address":"Neumarkt 7, 45711 Datteln","geometry":{"location":{"lat":51.65227669999999,"lng":7.340626499999999},"viewport":{"northeast":{"lat":51.65381487989272,"lng":7.342268529892721},"southwest":{"lat":51.65111522010728,"lng":7.339568870107277}}},"icon":"https://maps.gstatic.com/mapfiles/place_api/icons/v1/png_71/restaurant-71.png","icon_background_color":"#FF9E67","icon_mask_base_uri":"https://maps.gstatic.com/mapfiles/place_api/icons/v2/restaurant_pinlet","name":"Fu Asia Restaurant","opening_hours":{"open_now":true},"photos":[{"height":3024,"html_attributions":["<a href=\"https://maps.google.com/maps/contrib/115212211976381706618\">Alexander Klahn</a>"],"photo_reference":"AeJbb3fJuHb4NpdJ5rHdool4ZPBQBVMJaJ03AMM-q18dG1AdtERzL25awlYei5GetUrmLYipu54qJdlP7cCgQ9vYqL2xQbIV_8rwprTtABQ8hAiPOTQTtB4sRflJ00g1QgvGU5gKNHyZItwKtKSOCxmBfLdefugMuD09KmCFneSwKrD99i9y","width":4032}],"place_id":"ChIJ1xgnh-ICuUcRh2H_lwoAhCw","plus_code":{"compound_code":"M82R+W7 Datteln","global_code":"9F39M82R+W7"},"price_level":1,"rating":4.2,"reference":"ChIJ1xgnh-ICuUcRh2H_lwoAhCw","types":["restaurant","point_of_interest","food","establishment"],"user_ratings_total":126},{"business_status":"OPERATIONAL","formatted_address":"Pferdebachstraße 264, 58454 Witten","geometry":{"location":{"lat":51.4680173,"lng":7.3675068},"viewport":{"northeast":{"lat":51.46932832989272,"lng":7.368770779892723},"southwest":{"lat":51.46662867010727,"lng":7.366071120107279}}},"icon":"https://maps.gstatic.com/mapfiles/place_api/icons/v1/png_71/restaurant-71.png","icon_background_color":"#FF9E67","icon_mask_base_uri":"https://maps.gstatic.com/mapfiles/place_api/icons/v2/restaurant_pinlet","name":"Thai Imbiss Tom-Yam","opening_hours":{"open_now":true},"photos":[{"height":2988,"html_attributions":["<a href=\"https://maps.google.com/maps/contrib/118218313265202684554\">Johann Soppoth</a>"],"photo_reference":"AeJbb3fqXP85pYJYYzCZbWa62CFjy3XklxihVwPOxqxZlRWVFENmyNtOmFUfCapefoAEABzGOU0eTxa4SsR8p94KE0mSr0Ge4CRw01ViqGW9S6hQzTDO6Svw3ZWpq4Ac0th940xVDDTOpgY75F1AarD2PnuR8IMxJQDx3AN3DmTm0LrkJUCv","width":5312}],"place_id":"ChIJFycSqL4YuUcRphV4Y04alTA","plus_code":{"compound_code":"F999+62 Witten","global_code":"9F39F999+62"},"rating":4.2,"reference":"ChIJFycSqL4YuUcRphV4Y04alTA","types":["meal_takeaway","restaurant","food","point_of_interest","establishment"],"user_ratings_total":107},{"business_status":"OPERATIONAL","formatted_address":"Bahnhofstraße 7, 44623 Herne","geometry":{"location":{"lat":51.5373646,"lng":7.225206900000001},"viewport":{"northeast":{"lat":51.53844052989272,"lng":7.226567529892721},"southwest":{"lat":51.53574087010728,"lng":7.223867870107277}}},"icon":"https://maps.gstatic.com/mapfiles/place_api/icons/v1/png_71/restaurant-71.png","icon_background_color":"#FF9E67","icon_mask_base_uri":"https://maps.gstatic.com/mapfiles/place_api/icons/v2/restaurant_pinlet","name":"Asia & Co","opening_hours":{"open_now":true},"photos":[{"height":4032,"html_attributions":["<a href=\"https://maps.google.com/maps/contrib/100472626277544069743\">Uwe Andree</a>"],"photo_reference":"AeJbb3dpGEdhuDLc4ZEDI9NAF5iDW0ywYkUD_zlLqKSsLLpvYOgZL4q4zuWdhHgAEbTWT1jzg3kz6BzyK5nA4SoDRQRUvm8sGf55KzdHbeoiZ3_Dn6InLNE5vQb2lt0gLFnJogC94YzM2jTNA0QQ9fOBbCpG0G3q2anNshAaBw6a-NGolG9l","width":3024}],"place_id":"ChIJkxU8ro3huEcR6wic9WroijE","plus_code":{"compound_code":"G6PG+W3 Herne","global_code":"9F39G6PG+W3"},"price_level":1,"rating":4.1,"reference":"ChIJkxU8ro3huEcR6wic9WroijE","types":["restaurant","point_of_interest","food","establishment"],"user_ratings_total":204},{"business_status":"OPERATIONAL","formatted_address":"Bahnhofstraße 13A, 44623 Herne","geometry":{"location":{"lat":51.5382243,"lng":7.224539399999999},"viewport":{"northeast":{"lat":51.53953802989273,"lng":7.22605672989272},"southwest":{"lat":51.53683837010728,"lng":7.223357070107276}}},"icon":"https://maps.gstatic.com/mapfiles/place_api/icons/v1/png_71/restaurant-71.png","icon_background_color":"#FF9E67","icon_mask_base_uri":"https://maps.gstatic.com/mapfiles/place_api/icons/v2/restaurant_pinlet","name":"Wok&Roll Sushi & More...","opening_hours":{"open_now":true},"photos":[{"height":1080,"html_attributions":["<a href=\"https://maps.google.com/maps/contrib/117783265093569561372\">Sven Kassens</a>"],"photo_reference":"AeJbb3edTAHwTXB283o52m9nP9who_OzbHDhd-PcJktHMk8Q5JvnmIk8efFA1QIpl1Sg4nv4u1nvtUzyWmjMEdTbU3JRsV6WUQabzrdUh4XSblOyu46gqZ2iL7tV0XRhlRjROPTCxFmKa5f-z41sJgaAKQ0l7-MgCGyCKfG2eOvt4oKNzcND","width":1920}],"place_id":"ChIJcQyFMIzhuEcRS4jsHb4ij-o","plus_code":{"compound_code":"G6QF+7R Herne","global_code":"9F39G6QF+7R"},"price_level":1,"rating":3.9,"reference":"ChIJcQyFMIzhuEcRS4jsHb4ij-o","types":["meal_takeaway","restaurant","food","point_of_interest","establishment"],"user_ratings_total":164},{"business_status":"OPERATIONAL","formatted_address":"Boeler Str. 183, 58097 Hagen","geometry":{"location":{"lat":51.380978,"lng":7.4782559},"viewport":{"northeast":{"lat":51.38234582989272,"lng":7.479656479892721},"southwest":{"lat":51.37964617010728,"lng":7.476956820107278}}},"icon":"https://maps.gstatic.com/mapfiles/place_api/icons/v1/png_71/restaurant-71.png","icon_background_color":"#FF9E67","icon_mask_base_uri":"https://maps.gstatic.com/mapfiles/place_api/icons/v2/restaurant_pinlet","name":"Asia Oanh Wok","opening_hours":{"open_now":true},"photos":[{"height":3456,"html_attributions":["<a href=\"https://maps.google.com/maps/contrib/111204769106886538036\">j v e</a>"],"photo_reference":"AeJbb3fSoBnGQwIw6zK4Z9IJOxA_SeKX0SSQHLiTXud1HTFnGQ6sJys5aMdDYC698GxFg5R0A0jjBh2FQrC-LF7N0XSngLQsdy4MrieP-V6eynRt4Ipob9zb9gRBiew0O0ozxXTqFzj4toW5K2s_OzPuWs4FOqSdjr4o5pNYioEM3zgMN5wN","width":4608}],"place_id":"ChIJKR3kpow8uUcR6TeJep3LlEU","plus_code":{"compound_code":"9FJH+97 Hagen","global_code":"9F399FJH+97"},"rating":3.8,"reference":"ChIJKR3kpow8uUcR6TeJep3LlEU","types":["restaurant","point_of_interest","food","establishment"],"user_ratings_total":221},{"business_status":"OPERATIONAL","formatted_address":"Meylantstraße 91a, 44319 Dortmund","geometry":{"location":{"lat":51.5398191,"lng":7.6163633},"viewport":{"northeast":{"lat":51.54116837989272,"lng":7.61770312989272},"southwest":{"lat":51.53846872010728,"lng":7.615003470107276}}},"icon":"https://maps.gstatic.com/mapfiles/place_api/icons/v1/png_71/restaurant-71.png","icon_background_color":"#FF9E67","icon_mask_base_uri":"https://maps.gstatic.com/mapfiles/place_api/icons/v2/restaurant_pinlet","name":"Asia Imbiss Siam","opening_hours":{"open_now":true},"photos":[{"height":1809,"html_attributions":["<a href=\"https://maps.google.com/maps/contrib/106179213880324879001\">Sergiy Onys</a>"],"photo_reference":"AeJbb3fwNeLLIZZ3rXFeE7yMCo9qJDN83KnHPbVujdZvkOWLTaC8pgt7_ZNN2WCWt37dawdeXNW5MRcGNfmT4_qVLqNo8PWgDi6mjml336N-u-tBJePwjeoPaC3kmCuMurrhWpCAi22V7IEQYcdEbIWbKQMRtf3gQ7NYJ19Zdza2_X27i25B","width":2857}],"place_id":"ChIJYZZOF5ITuUcR6QKj-UU_FRA","plus_code":{"compound_code":"GJQ8+WH Dortmund","global_code":"9F39GJQ8+WH"},"price_level":1,"rating":3.8,"reference":"ChIJYZZOF5ITuUcR6QKj-UU_FRA","types":["meal_takeaway","restaurant","food","point_of_interest","establishment"],"user_ratings_total":121},{"business_status":"OPERATIONAL","formatted_address":"Bochumer Str. 203, 45661 Recklinghausen","geometry":{"location":{"lat":51.5652031,"lng":7.209574099999999},"viewport":{"northeast":{"lat":51.56659822989271,"lng":7.210819229892721},"southwest":{"lat":51.56389857010727,"lng":7.208119570107277}}},"icon":"https://maps.gstatic.com/mapfiles/place_api/icons/v1/png_71/restaurant-71.png","icon_background_color":"#FF9E67","icon_mask_base_uri":"https://maps.gstatic.com/mapfiles/place_api/icons/v2/restaurant_pinlet","name":"Lychi China-Thai Recklinghausen","opening_hours":{"open_now":true},"photos":[{"height":2560,"html_attributions":["<a href=\"https://maps.google.com/maps/contrib/112163508073808983069\">Angelika Klärs</a>"],"photo_reference":"AeJbb3c-VnObe5MxQtWxJJTm8JA0f3xB1I-KZKxaNRjzAfRGTWSRSBEVbeca12-x95if4GdoemEElmGgWMvK3-ss4mBmzBpCFv7BPAvN00HxTA7cnVw_fxxmg222K-xep19mJYR0SRJdnkHZr1viZD0Cz3gEEPeA6eXfRgL04fVlGmtdIJkm","width":1920}],"place_id":"ChIJecSZ1srjuEcReaNB5LDwAlY","plus_code":{"compound_code":"H685+3R Recklinghausen","global_code":"9F39H685+3R"},"price_level":1,"rating":3.2,"reference":"ChIJecSZ1srjuEcReaNB5LDwAlY","types":["meal_delivery","meal_takeaway","restaurant","food","point_of_interest","establishment"],"user_ratings_total":114},{"business_status":"OPERATIONAL","formatted_address":"Westenhellweg 102-106, 44137 Dortmund","geometry":{"location":{"lat":51.5138371,"lng":7.459085099999999},"viewport":{"northeast":{"lat":51.51492317989272,"lng":7.460195429892721},"southwest":{"lat":51.51222352010727,"lng":7.457495770107277}}},"icon":"https://maps.gstatic.com/mapfiles/place_api/icons/v1/png_71/restaurant-71.png","icon_background_color":"#FF9E67","icon_mask_base_uri":"https://maps.gstatic.com/mapfiles/place_api/icons/v2/restaurant_pinlet","name":"ThaiCurryDelhi","photos":[{"height":3840,"html_attributions":["<a href=\"https://maps.google.com/maps/contrib/106494126444917851894\">Martin N.</a>"],"photo_reference":"AeJbb3fAl4jR1oqifrnyV2OqeHVAmSSGqlkQpDv2wMIsMR3AykL8jLbIuRU3NFMlfSI26liRIVx9xEIFVtIU_rmK17QC411fQ1Gi2jO4xLOQ5gEntc-QImGsPviR0HwJlezPwywxBpU3y-Uh52alPGg3DKgplOGZhfHQyZ-JLg6b2eA3TXWE","width":5120}],"place_id":"ChIJLVL8u-YZuUcR3vMZQ0xbo4s","plus_code":{"compound_code":"GF75+GJ Dortmund","global_code":"9F39GF75+GJ"},"price_level":2,"rating":3,"reference":"ChIJLVL8u-YZuUcR3vMZQ0xbo4s","types":["restaurant","food","point_of_interest","establishment"],"user_ratings_total":31}]