[{"business_status":"OPERATIONAL","formatted_address":"Carrer del Pintor Ferrer Calatayud, 10, 46022 València, Valencia","geometry":{"location":{"lat":39.4668469,"lng":-0.335716},"viewport":{"northeast":{"lat":39.46826432989272,"lng":-0.3343314201072777},"southwest":{"lat":39.46556467010727,"lng":-0.3370310798927221}}},"icon":"https://maps.gstatic.com/mapfiles/place_api/icons/v1/png_71/restaurant-71.png","icon_background_color":"#FF9E67","icon_mask_base_uri":"https://maps.gstatic.com/mapfiles/place_api/icons/v2/restaurant_pinlet","name":"Mehfil","opening_hours":{"open_now":false},"photos":[{"height":3472,"html_attributions":["<a href=\"https://maps.google.com/maps/contrib/109074141797262013031\">A Google User</a>"],"photo_reference":"AeJbb3fIt4_-YLSzfdiBg-NCKiv0MSSBcCyFANVMXnKaEuN_FHV27fcdEMekW_d5YNR_0pD8uOjp3Q2EH2LacJ6qO8L2CzeIEC1VbREB8MmmDQDgidqJXKNHTmDqX5I9es9Cvr-XVFYzZeDud7Is4ERWpOaTarJyR8ZbUn9pE8HK4PsHC4yB","width":3472}],"place_id":"ChIJz30pnY1JYA0RpOxrOgVUYrs","plus_code":{"compound_code":"FM87+PP Valencia","global_code":"8CFXFM87+PP"},"rating":5,"reference":"ChIJz30pnY1JYA0RpOxrOgVUYrs","types":["restaurant","food","point_of_interest","establishment"],"user_ratings_total":97},{"business_status":"OPERATIONAL","formatted_address":"C/ de Fernando Furió Roca, 5, 46900 Torrent, Valencia","geometry":{"location":{"lat":39.4261046,"lng":-0.4830858},"viewport":{"northeast":{"lat":39.42750387989273,"lng":-0.4816615201072778},"southwest":{"lat":39.42480422010728,"lng":-0.4843611798927222}}},"icon":"https://maps.gstatic.com/mapfiles/place_api/icons/v1/png_71/restaurant-71.png","icon_background_color":"#FF9E67","icon_mask_base_uri":"https://maps.gstatic.com/mapfiles/place_api/icons/v2/restaurant_pinlet","name":"Dawat Indian Restaurant","opening_hours":{"open_now":false},"photos":[{"height":1080,"html_attributions":["<a href=\"https://maps.google.com/maps/contrib/114388983740181162305\">María José Pozo Jiménez</a>"],"photo_reference":"AeJbb3ej17DbDdNZotCVbPPtSTt2mJq-oPdPSq3ZwTgfILStwXVSK3OVENzM-4Zjj2HJdAnT5AvEH6zlNJLLXl7f_07iq20I-pT6wWzzJXOESDOIhVqYlsic_QEBYHDtjvF3qXSahWduZKZey0aghezLviKhxANbXbfdsas1JuhiX8XrOfO6","width":1920}],"place_id":"ChIJn_Hjip9RYA0RyrP1NnM5ynw","plus_code":{"compound_code":"CGG8+CQ Torrent","global_code":"8CFXCGG8+CQ"},"rating":5,"reference":"ChIJn_Hjip9RYA0RyrP1NnM5ynw","types":["restaurant","food","point_of_interest","establishment"],"user_ratings_total":67},{"business_status":"OPERATIONAL","formatted_address":"Av. del Cid, 25, 46018 València, Valencia","geometry":{"location":{"lat":39.4674101,"lng":-0.3938593},"viewport":{"northeast":{"lat":39.46889412989272,"lng":-0.3924699201072778},"southwest":{"lat":39.46619447010728,"lng":-0.3951695798927222}}},"icon":"https://maps.gstatic.com/mapfiles/place_api/icons/v1/png_71/restaurant-71.png","icon_background_color":"#FF9E67","icon_mask_base_uri":"https://maps.gstatic.com/mapfiles/place_api/icons/v2/restaurant_pinlet","name":"Bombay Aroma - Bar and Restaurante","opening_hours":{"open_now":false},"photos":[{"height":349,"html_attributions":["<a href=\"https://maps.google.com/maps/contrib/112663253614380866477\">A Google User</a>"],"photo_reference":"AeJbb3cuzvXsK1XqkFz4vtTQYDg4WJk10Qzob9mB8oF5uaXeBQWrKvGaQRKF3F4aY_dXggkS5DcuLkxWSahLz0OaEphiiK8lqlxQRR0_Z1c2CXtaqUS3v3kv14JHh_JRnS0GL3Oitwn8w8F-Vip0PBAVcWgIk3suuUKR4jiHvb4ZKW6WuySI","width":550}],"place_id":"ChIJ74KkUsNPYA0RU0Dqm0rNUyU","plus_code":{"compound_code":"FJ84+XF Valencia","global_code":"8CFXFJ84+XF"},"rating":4.9,"reference":"ChIJ74KkUsNPYA0RU0Dqm0rNUyU","types":["restaurant","food","point_of_interest","establishment"],"user_ratings_total":866},{"business_status":"OPERATIONAL","formatted_address":"Carrer de Salamanca, 18, 46005 València, Valencia","geometry":{"location":{"lat":39.466523,"lng":-0.3647769},"viewport":{"northeast":{"lat":39.46792812989271,"lng":-0.3632996701072777},"southwest":{"lat":39.46522847010727,"lng":-0.3659993298927222}}},"icon":"https://maps.gstatic.com/mapfiles/place_api/icons/v1/png_71/restaurant-71.png","icon_background_color":"#FF9E67","icon_mask_base_uri":"https://maps.gstatic.com/mapfiles/place_api/icons/v2/restaurant_pinlet","name":"Kathmandu Cánovas Indian Nepali Cuisine","opening_hours":{"open_now":false},"photos":[{"height":2874,"html_attributions":["<a href=\"https://maps.google.com/maps/contrib/101316922905982204334\">A Google User</a>"],"photo_reference":"AeJbb3c6UdPwybPDXzly9pkiVoONH6PDl5riPjDR1S4Yf6TqXxcJyP5s_FyUH8hb_fvLsIK7fAp4fh8jJH3RKFWzJ8ct9s0RyS_nIBaDq2JxXvWOCsK7UYZygzt8eeubNKOSyTDwTGxawW3wgeKjShvwrvqEAvjmYVvwZFt2ktzw7YJt1l6v","width":4030}],"place_id":"ChIJZ9I1WcVJYA0R9fvjtUwwr9s","plus_code":{"compound_code":"FJ8P+J3 Valencia","global_code":"8CFXFJ8P+J3"},"rating":4.9,"reference":"ChIJZ9I1WcVJYA0R9fvjtUwwr9s","types":["restaurant","food","point_of_interest","establishment"],"user_ratings_total":318},{"business_status":"OPERATIONAL","formatted_address":"Carrer de Ciscar, 22, 46005 València, Valencia","geometry":{"location":{"lat":39.4662143,"lng":-0.3659328},"viewport":{"northeast":{"lat":39.46758652989273,"lng":-0.3645290701072778},"southwest":{"lat":39.46488687010729,"lng":-0.3672287298927223}}},"icon":"https://maps.gstatic.com/mapfiles/place_api/icons/v1/png_71/restaurant-71.png","icon_background_color":"#FF9E67","icon_mask_base_uri":"https://maps.gstatic.com/mapfiles/place_api/icons/v2/restaurant_pinlet","name":"The Royal Buddha","opening_hours":{"open_now":false},"photos":[{"height":2448,"html_attributions":["<a href=\"https://maps.google.com/maps/contrib/107205545461673169714\">Татьяна Викторовна Язова</a>"],"photo_reference":"AeJbb3eI4oBW7xln_XF0lu649LhzcjAwXBZ8u6Rllrelfofq9D_TlIDr-Vn7eiCSISMOvKLa2eaG5eHDCa7EzXKn7wvgon5R8LJ7dJA7sDb1jFoKhwv4MpLJDWBsx81hqNnw5se43eOYZOELZDiXG2m0jprDOF3rvxtrpjR2wWB_VJCfyPqA","width":3264}],"place_id":"ChIJ1XuwCv5JYA0RXtZq_l8yiJQ","plus_code":{"compound_code":"FJ8M+FJ Valencia","global_code":"8CFXFJ8M+FJ"},"rating":4.9,"reference":"ChIJ1XuwCv5JYA0RXtZq_l8yiJQ","types":["restaurant","food","point_of_interest","establishment"],"user_ratings_total":293},{"business_status":"OPERATIONAL","formatted_address":"Av. Neptuno, 16, 46137 La Pobla de Farnals, Valencia","geometry":{"location":{"lat":39.5650017,"lng":-0.2840327},"viewport":{"northeast":{"lat":39.56637647989272,"lng":-0.2826141701072777},"southwest":{"lat":39.56367682010728,"lng":-0.2853138298927222}}},"icon":"https://maps.gstatic.com/mapfiles/place_api/icons/v1/png_71/restaurant-71.png","icon_background_color":"#FF9E67","icon_mask_base_uri":"https://maps.gstatic.com/mapfiles/place_api/icons/v2/restaurant_pinlet","name":"Grill Indian","opening_hours":{"open_now":false},"photos":[{"height":3072,"html_attributions":["<a href=\"https://maps.google.com/maps/contrib/107624333742657941097\">Cook Family</a>"],"photo_reference":"AeJbb3dR509DvoYEmStNzvrYRpPiLy_UGRm56mqYGwg792hA6pJITBsDbarXnj1T2OAkQWYqm8-w5v9qLEHBYSKin6Om8rJw8YRnZka4w7EPwfMs1axDdvOC2d50ktKvt2YGIEVda6gi19ESd2__o24Kx4fQ5Ka8TLasu99P3C5PJZ2kW0GU","width":4080}],"place_id":"ChIJBzutU6c5YA0RRDS1FG0SA6I","plus_code":{"compound_code":"HP88+29 La Pobla de Farnals","global_code":"8CFXHP88+29"},"rating":4.9,"reference":"ChIJBzutU6c5YA0RRDS1FG0SA6I","types":["restaurant","food","point_of_interest","establishment"],"user_ratings_total":36},{"business_status":"OPERATIONAL","formatted_address":"Carrer de les Illes Canàries, 191, Bajo, 46023 Valencia","geometry":{"location":{"lat":39.4631367,"lng":-0.3445848},"viewport":{"northeast":{"lat":39.46442982989272,"lng":-0.3432765201072777},"southwest":{"lat":39.46173017010727,"lng":-0.3459761798927222}}},"icon":"https://maps.gstatic.com/mapfiles/place_api/icons/v1/png_71/restaurant-71.png","icon_background_color":"#FF9E67","icon_mask_base_uri":"https://maps.gstatic.com/mapfiles/place_api/icons/v2/restaurant_pinlet","name":"Punjabi Virsa","opening_hours":{"open_now":false},"photos":[{"height":3024,"html_attributions":["<a href=\"https://maps.google.com/maps/contrib/116757035524338234363\">A Google User</a>"],"photo_reference":"AeJbb3e3qrydHHOUQ3-i27exxH1VFA9gw40aWx_OU0wpiU3_BUyC-6QCak0SzMY5VkEuCyJtqpmfRp9-qDaffIFZi-H-EwuEmgTBuvCkm202_pBGjNxYknIiZHD5fSSetz4_yNzYEKRzZsYkZyDbNpx-kNBmhb_edaK-ETlaP9HX6v2wRNb3","width":4032}],"place_id":"ChIJ68UlnGZJYA0Rq3Atydj4x9k","plus_code":{"compound_code":"FM74+75 Valencia","global_code":"8CFXFM74+75"},"rating":4.9,"reference":"ChIJ68UlnGZJYA0Rq3Atydj4x9k","types":["restaurant","food","point_of_interest","establishment"],"user_ratings_total":17},{"business_status":"OPERATIONAL","formatted_address":"Av. del Mestre Rodrigo, 6, 46035 València, Valencia","geometry":{"location":{"lat":39.4771314,"lng":-0.3970223},"viewport":{"northeast":{"lat":39.47848452989272,"lng":-0.3956748201072778},"southwest":{"lat":39.47578487010727,"lng":-0.3983744798927222}}},"icon":"https://maps.gstatic.com/mapfiles/place_api/icons/v1/png_71/restaurant-71.png","icon_background_color":"#FF9E67","icon_mask_base_uri":"https://maps.gstatic.com/mapfiles/place_api/icons/v2/restaurant_pinlet","name":"NAMASTE PAIS INDIAN RESTAURANT","opening_hours":{"open_now":false},"photos":[{"height":922,"html_attributions":["<a href=\"https://maps.google.com/maps/contrib/100272722082932091347\">A Google User</a>"],"photo_reference":"AeJbb3eJpf57tN7CtM8bPpvKpYKg2kv2kamtQ2bI59bQtaJvyYLAGvuAdPxwkh3tNvrI8MbFf5r-MH0lL1mt_xHAZfIxbGMcC7XWQki3tF4LicGnGUmgeIRq5gjGL9YYENW7dr79khWDN5Bq8MWo9QGgO85zR6zyPSN1eUplc2SWkmQevxjr","width":2000}],"place_id":"ChIJbaNOEP9PYA0RUsbQ_HK34U8","plus_code":{"compound_code":"FJG3+R6 Valencia","global_code":"8CFXFJG3+R6"},"rating":4.8,"reference":"ChIJbaNOEP9PYA0RUsbQ_HK34U8","types":["restaurant","food","point_of_interest","establishment"],"user_ratings_total":329},{"business_status":"OPERATIONAL","formatted_address":"C. de Jaume Roig, 6, 46010 València, Valencia","geometry":{"location":{"lat":39.4808194,"lng":-0.3641334},"viewport":{"northeast":{"lat":39.48219897989272,"lng":-0.3628696701072778},"southwest":{"lat":39.47949932010728,"lng":-0.3655693298927222}}},"icon":"https://maps.gstatic.com/mapfiles/place_api/icons/v1/png_71/restaurant-71.png","icon_background_color":"#FF9E67","icon_mask_base_uri":"https://maps.gstatic.com/mapfiles/place_api/icons/v2/restaurant_pinlet","name":"Restaurante Indio en Valencia SHER E PUNJAB","opening_hours":{"open_now":false},"photos":[{"height":1080,"html_attributions":["<a href=\"https://maps.google.com/maps/contrib/111943188719654682362\">pikkabbu</a>"],"photo_reference":"AeJbb3cg9WgDIx3QukvYkReO7tgxZJOqOPY37cugegsQd1MFmhHVWY0jyWcuKakBq2-X_MOpr5guOigpE71GHq-dSNnnGJ2yfmoghQWlf3rcGAO2N719evqDaqtaF12ltz55FJ-iCkFr9cGwDslwUhZoUZaDQqthbWGWbVGpFaqeLBiTZMwR","width":1920}],"place_id":"ChIJTd-FOoZJYA0R9FFDRUQa81o","plus_code":{"compound_code":"FJJP+88 Valencia","global_code":"8CFXFJJP+88"},"rating":4.8,"reference":"ChIJTd-FOoZJYA0R9FFDRUQa81o","types":["restaurant","food","point_of_interest","establishment"],"user_ratings_total":278},{"business_status":"OPERATIONAL","formatted_address":"Av. d' Aureli Guaita Martorell, 14, 46220 Picassent, Valencia","geometry":{"location":{"lat":39.3647796,"lng":-0.4642464},"viewport":{"northeast":{"lat":39.36609217989272,"lng":-0.4629049201072779},"southwest":{"lat":39.36339252010728,"lng":-0.4656045798927223}}},"icon":"https://maps.gstatic.com/mapfiles/place_api/icons/v1/png_71/restaurant-71.png","icon_background_color":"#FF9E67","icon_mask_base_uri":"https://maps.gstatic.com/mapfiles/place_api/icons/v2/restaurant_pinlet","name":"Restaurante Indio Rose Garden","opening_hours":{"open_now":false},"photos":[{"height":4032,"html_attributions":["<a href=\"https://maps.google.com/maps/contrib/110651131508452023515\">A Google User</a>"],"photo_reference":"AeJbb3dVogPJj6Tt8SJqJYUnZjDK4O4jPsNJ2F4vGM7ZD96x_9fR991KUHogc5Jnr-2G5jECH7yUNAWe5yiw6kF3ZAaryP9wnXA8FBZz6H9FJICDyZyYJA5xRp_zn0zRs_n3KsM4kBQ6eSfql30p9hdGSYEYA_dOCxq7vjdNxWSuhb2G_BoS","width":3024}],"place_id":"ChIJf6CVE3NTYA0RKIMRG15Pw3c","plus_code":{"compound_code":"9G7P+W8 Picassent","global_code":"8CFX9G7P+W8"},"rating":4.8,"reference":"ChIJf6CVE3NTYA0RKIMRG15Pw3c","types":["restaurant","food","point_of_interest","establishment"],"user_ratings_total":87},{"business_status":"OPERATIONAL","formatted_address":"Av. del Puerto, 202, 46023 Valencia","geometry":{"location":{"lat":39.4632955,"lng":-0.344288},"viewport":{"northeast":{"lat":39.46460997989273,"lng":-0.3428356701072777},"southwest":{"lat":39.46191032010729,"lng":-0.3455353298927222}}},"icon":"https://maps.gstatic.com/mapfiles/place_api/icons/v1/png_71/restaurant-71.png","icon_background_color":"#FF9E67","icon_mask_base_uri":"https://maps.gstatic.com/mapfiles/place_api/icons/v2/restaurant_pinlet","name":"Halal kebab &halal indian food","photos":[{"height":3088,"html_attributions":["<a href=\"https://maps.google.com/maps/contrib/106276708487533527625\">Abhishek Chugani</a>"],"photo_reference":"AeJbb3fOeXWSXKSym5lXEIPwpymsN0SOKdqlL5mmhmCiPLuP9kvc2_kwggtmK0xGCGzjSDYUdyI4PK1nr_Px49Rt2lWeRwOahCUaYOJ1GwZwMAwGD7PdPst3m2IDIwSPJjnR4yChZ_iwWD935J4nRT-gxvhTiRkhZHn9V_5h6Uo0zd2UeXYD","width":2316}],"place_id":"ChIJa1q1GhRJYA0RVvuaBoS5Sp8","plus_code":{"compound_code":"FM74+87 Valencia","global_code":"8CFXFM74+87"},"rating":4.8,"reference":"ChIJa1q1GhRJYA0RVvuaBoS5Sp8","types":["restaurant","food","point_of_interest","establishment"],"user_ratings_total":4},{"business_status":"OPERATIONAL","formatted_address":"Passseig d'Aragó, 90, 46120 Alboraia, Valencia","geometry":{"location":{"lat":39.4951594,"lng":-0.3482392},"viewport":{"northeast":{"lat":39.49650547989272,"lng":-0.3468666201072777},"southwest":{"lat":39.49380582010728,"lng":-0.3495662798927222}}},"icon":"https://maps.gstatic.com/mapfiles/place_api/icons/v1/png_71/restaurant-71.png","icon_background_color":"#FF9E67","icon_mask_base_uri":"https://maps.gstatic.com/mapfiles/place_api/icons/v2/restaurant_pinlet","name":"Restaurante Kathmandu Alboraia - Menjar indi i nepalés","opening_hours":{"open_now":false},"photos":[{"height":810,"html_attributions":["<a href=\"https://maps.google.com/maps/contrib/108255513116587571551\">A Google User</a>"],"photo_reference":"AeJbb3eMNgHL3tjZMo9Llh6AaG1qWe5Ic5Ts8QH4LcuINZF8NEeYtU1yV2BR6g5EA871qkjKclDUtdtLSSkhkuUwPPK251fujdS1xRUQwYl7tujntxpRXgli_Zt7fNHmk3QWE1q1vxhHEKW2fhSydDaRH_Hx0wgUAPxM4dkmN350jeCa6ScV","width":1440}],"place_id":"ChIJo19N1xlHYA0RNUuJy-0dxVo","plus_code":{"compound_code":"FMW2+3P Alboraya","global_code":"8CFXFMW2+3P"},"rating":4.7,"reference":"ChIJo19N1xlHYA0RNUuJy-0dxVo","types":["restaurant","food","point_of_interest","establishment"],"user_ratings_total":339},{"business_status":"OPERATIONAL","formatted_address":"Avda. Dos de Maig, 46960 Aldaia, Valencia","geometry":{"location":{"lat":39.4597535,"lng":-0.4632162},"viewport":{"northeast":{"lat":39.46110332989272,"lng":-0.4618663701072777},"southwest":{"lat":39.45840367010727,"lng":-0.4645660298927222}}},"icon":"https://maps.gstatic.com/mapfiles/place_api/icons/v1/png_71/restaurant-71.png","icon_background_color":"#FF9E67","icon_mask_base_uri":"https://maps.gstatic.com/mapfiles/place_api/icons/v2/restaurant_pinlet","name":"BAr - Restaurant","opening_hours":{"open_now":true},"photos":[{"height":4608,"html_attributions":["<a href=\"https://maps.google.com/maps/contrib/108744108974254237184\">Juan Carlos Velasco</a>"],"photo_reference":"AeJbb3fgmIU9p6RnGpfs40CRnurGan3sUWReaYf4qIjq_rq2UZ9jiW3-1MP_yBui5afRoZcpImPtgTYgjT2VS0pV17XNN5pmbExxGdHyQWEq1-PXUMnzQI5nj78YUK12Ck_MIY5fvwmeREmB-kKdFL5goGmMOyAKfDKbQbAOncyKD0iqZqyJ","width":3456}],"place_id":"ChIJ4d0pDTxQYA0ROsApHUvmecQ","plus_code":{"compound_code":"FG5P+WP Aldaia","global_code":"8CFXFG5P+WP"},"rating":4.7,"reference":"ChIJ4d0pDTxQYA0ROsApHUvmecQ","types":["bar","restaurant","food","point_of_interest","establishment"],"user_ratings_total":3},{"business_status":"OPERATIONAL","formatted_address":"Carrer del Comte d'Altea, 44, 46005 València, Valencia","geometry":{"location":{"lat":39.4669579,"lng":-0.3655235},"viewport":{"northeast":{"lat":39.46835302989272,"lng":-0.3642102201072778},"southwest":{"lat":39.46565337010728,"lng":-0.3669098798927222}}},"icon":"https://maps.gstatic.com/mapfiles/place_api/icons/v1/png_71/restaurant-71.png","icon_background_color":"#FF9E67","icon_mask_base_uri":"https://maps.gstatic.com/mapfiles/place_api/icons/v2/restaurant_pinlet","name":"Swagat","opening_hours":{"open_now":false},"photos":[{"height":413,"html_attributions":["<a href=\"https://maps.google.com/maps/contrib/105435202876262423310\">Miguel Azulay</a>"],"photo_reference":"AeJbb3fJcwJlnVfv-JoifSR4d6Xevlf1aX1j5zH5n1NoHLjxc0GAdwL5nfeS7iTJyBTW-8ymDH7jPdQ-mEg_q8rr9sTUREghqhg-KMEuYVZdEsjmoDNdNLFBy7x069GrQ7J282NMa1aaa-6WC5HZipD_u_bdPjLwK1vacwuPiqDv-rxaY7-d","width":550}],"place_id":"ChIJzeJRiLdIYA0Rmw-vKgfYvwI","plus_code":{"compound_code":"FJ8M+QQ Valencia","global_code":"8CFXFJ8M+QQ"},"price_level":2,"rating":4.6,"reference":"ChIJzeJRiLdIYA0Rmw-vKgfYvwI","types":["restaurant","food","point_of_interest","establishment"],"user_ratings_total":1128},{"business_status":"OPERATIONAL","formatted_address":"Carrer Rocafort, 9, 46110 Godella, Valencia","geometry":{"location":{"lat":39.5240319,"lng":-0.414926},"viewport":{"northeast":{"lat":39.52536037989272,"lng":-0.4135453201072777},"southwest":{"lat":39.52266072010728,"lng":-0.4162449798927222}}},"icon":"https://maps.gstatic.com/mapfiles/place_api/icons/v1/png_71/restaurant-71.png","icon_background_color":"#FF9E67","icon_mask_base_uri":"https://maps.gstatic.com/mapfiles/place_api/icons/v2/restaurant_pinlet","name":"Tariq","opening_hours":{"open_now":false},"photos":[{"height":1080,"html_attributions":["<a href=\"https://maps.google.com/maps/contrib/108779972505636266437\">Tales</a>"],"photo_reference":"AeJbb3fdve7JUJ9m9MucGto5RUoufhDaU8q6a1ToVYlKzSJXVyEdgfSVmrrVt_qg1yWkV9moMlQw_ac5Y0n-h0A7SH5nUzz1Np5ID2IIllg-Q3Z9ulA-gWx2Sckpmkkiy5wrCJvjwq_j8HVZg39FiW8VCL3TCCMVh0XmbfRlnqHaL_Y61Pet","width":1920}],"place_id":"ChIJY62R_QBFYA0RsexzdSjR9l0","plus_code":{"compound_code":"GHFP+J2 Godella","global_code":"8CFXGHFP+J2"},"price_level":2,"rating":4.6,"reference":"ChIJY62R_QBFYA0RsexzdSjR9l0","types":["restaurant","food","point_of_interest","establishment"],"user_ratings_total":972},{"business_status":"OPERATIONAL","formatted_address":"Av. del Nou d'Octubre, 58, 46113 Montcada, Valencia","geometry":{"location":{"lat":39.5430749,"lng":-0.3887966},"viewport":{"northeast":{"lat":39.54442937989273,"lng":-0.3872949201072778},"southwest":{"lat":39.54172972010728,"lng":-0.3899945798927222}}},"icon":"https://maps.gstatic.com/mapfiles/place_api/icons/v1/png_71/restaurant-71.png","icon_background_color":"#FF9E67","icon_mask_base_uri":"https://maps.gstatic.com/mapfiles/place_api/icons/v2/restaurant_pinlet","name":"Restaurante Shere Khan","opening_hours":{"open_now":false},"photos":[{"height":5504,"html_attributions":["<a href=\"https://maps.google.com/maps/contrib/106902146663285934041\">Shere khan Comida PAKISTANI</a>"],"photo_reference":"AeJbb3dMpEnMLuqsbhJiOPF-640B6hYTOXtDgim3XePfF4RsOVmHQ_V8yRtaJQWKt7T3I8IYfvEHOLhzP7LgLvodaBH2TSrgX6uMyyoE-IEg-K02Tk529mmx06qPsXDaIDE1K_-yZtYj2fM9AwRW6v1mRIYJQ11bFECby6zcdLvmwti5do-8","width":8256}],"place_id":"ChIJX6k14rlIYA0RDXgPqmpTx8E","plus_code":{"compound_code":"GJV6+6F Moncada","global_code":"8CFXGJV6+6F"},"price_level":2,"rating":4.6,"reference":"ChIJX6k14rlIYA0RDXgPqmpTx8E","types":["restaurant","food","point_of_interest","establishment"],"user_ratings_total":356},{"business_status":"OPERATIONAL","formatted_address":"Carrer de Luis Bolinches Compañ, 8, 46023 València, Valencia","geometry":{"location":{"lat":39.457897,"lng":-0.3468927},"viewport":{"northeast":{"lat":39.45920732989273,"lng":-0.3455580701072777},"southwest":{"lat":39.45650767010728,"lng":-0.3482577298927222}}},"icon":"https://maps.gstatic.com/mapfiles/place_api/icons/v1/png_71/restaurant-71.png","icon_background_color":"#FF9E67","icon_mask_base_uri":"https://maps.gstatic.com/mapfiles/place_api/icons/v2/restaurant_pinlet","name":"Swagat 2","opening_hours":{"open_now":false},"photos":[{"height":413,"html_attributions":["<a href=\"https://maps.google.com/maps/contrib/105435202876262423310\">Miguel Azulay</a>"],"photo_reference":"AeJbb3dSWXw14E_KtXmJVDKedYuZWfNEo4oYyszvbLTfuamZAPmVAjGZR_mtAon_gbUK2c_j84bxcb3fxctaaqBs_oIZ_5u3Hj9UdtAXAjcONrpEKwGxv6Mc2omLWsL20WX84vPafZ-TzNiY3lq8zZnz6c_7PPOCcCHXhzohF2X85JWMxEaS","width":550}],"place_id":"ChIJ7UK4cC1JYA0RMBp5uV_MYO4","plus_code":{"compound_code":"FM53+56 Valencia","global_code":"8CFXFM53+56"},"price_level":2,"rating":4.6,"reference":"ChIJ7UK4cC1JYA0RMBp5uV_MYO4","types":["restaurant","food","point_of_interest","establishment"],"user_ratings_total":296},{"business_status":"OPERATIONAL","formatted_address":"Carrer de Joan Llorenç, 61, 46008 València, Valencia","geometry":{"location":{"lat":39.4701823,"lng":-0.388783},"viewport":{"northeast":{"lat":39.47150352989272,"lng":-0.3874969201072778},"southwest":{"lat":39.46880387010728,"lng":-0.3901965798927222}}},"icon":"https://maps.gstatic.com/mapfiles/place_api/icons/v1/png_71/restaurant-71.png","icon_background_color":"#FF9E67","icon_mask_base_uri":"https://maps.gstatic.com/mapfiles/place_api/icons/v2/restaurant_pinlet","name":"monal restaurante Valencia","opening_hours":{"open_now":false},"photos":[{"height":1536,"html_attributions":["<a href=\"https://maps.google.com/maps/contrib/105808476896849049058\">A Google User</a>"],"photo_reference":"AeJbb3eOjeOuqYDgcKWB9bC0VvVMZA3QzQufBpShpK51suRZ_HE4kEXXtEJ7ZPc3WikKS6KQPg4RhNbErHVuXH9Rhy2LmK7rbXY7syCe3lvKiLQeIEDk3lSRbMQdmbPAfL4EAPxVDEvhJn3iXC6vZBAlztiEG8G48PUXNH_sNeLWt0yHd7qf","width":2048}],"place_id":"ChIJ3_AArkZPYA0RsjdDOmGIvgo","plus_code":{"compound_code":"FJC6+3F Valencia","global_code":"8CFXFJC6+3F"},"rating":4.6,"reference":"ChIJ3_AArkZPYA0RsjdDOmGIvgo","types":["restaurant","food","point_of_interest","establishment"],"user_ratings_total":181},{"business_status":"OPERATIONAL","formatted_address":"Avinguda del País Valencià, 25, 46910 Sedaví, Valencia","geometry":{"location":{"lat":39.4246273,"lng":-0.3782388},"viewport":{"northeast":{"lat":39.42601827989272,"lng":-0.3768622201072777},"southwest":{"lat":39.42331862010727,"lng":-0.3795618798927222}}},"icon":"https://maps.gstatic.com/mapfiles/place_api/icons/v1/png_71/restaurant-71.png","icon_background_color":"#FF9E67","icon_mask_base_uri":"https://maps.gstatic.com/mapfiles/place_api/icons/v2/restaurant_pinlet","name":"Curry Corner Indian Restaurant","opening_hours":{"open_now":false},"photos":[{"height":1960,"html_attributions":["<a href=\"https://maps.google.com/maps/contrib/111417852923606623120\">Michael Colohan</a>"],"photo_reference":"AeJbb3cdwViIW12hI62sadPl_oeadRgD00eeUIbWrheigCTNBQxDTbpPJDWb0rEMxZF1X_lSixRMCwC2wQCNiigqi7-ZXTl5ngWABCu7P3nOByEYDNZLvXn5CtWfMiVM6XTQxGq8OZo6nqRk1ouzjGfDAnFd6T35zPWClLRJXMakq0K8rJXD","width":4032}],"place_id":"ChIJ9U-WbMpOYA0RC3x_Z_P9fh4","plus_code":{"compound_code":"CJFC+VP Sedaví","global_code":"8CFXCJFC+VP"},"rating":4.6,"reference":"ChIJ9U-WbMpOYA0RC3x_Z_P9fh4","types":["meal_delivery","restaurant","food","point_of_interest","establishment"],"user_ratings_total":107},{"business_status":"OPERATIONAL","formatted_address":"Avinguda Rei Joan Carles I, 7B, 46900 Torrent, Valencia","geometry":{"location":{"lat":39.429955,"lng":-0.4701248},"viewport":{"northeast":{"lat":39.43129042989272,"lng":-0.4689487701072778},"southwest":{"lat":39.42859077010728,"lng":-0.4716484298927223}}},"icon":"https://maps.gstatic.com/mapfiles/place_api/icons/v1/png_71/restaurant-71.png","icon_background_color":"#FF9E67","icon_mask_base_uri":"https://maps.gstatic.com/mapfiles/place_api/icons/v2/restaurant_pinlet","name":"CÚRCUMA restaurante indio/indian restaurant","opening_hours":{"open_now":false},"photos":[{"height":2448,"html_attributions":["<a href=\"https://maps.google.com/maps/contrib/102379016656652158329\">Christian Ritella</a>"],"photo_reference":"AeJbb3cjamyV9q7sb3Qj3Q8zLjUtJL4kD9BzdmaceX_vysS9dW_9mcha8t9QJUtGjXS4AYcfttH5Sip3_yI7Oj8a3fiH9FQQAV4WVt9eO3wDMjJWOkBtR_3tz162CnVkdytONSZqpGnvEdaWHRw9zKL9F_uCfyPw7RTuAXAQdBSJQIkIEim8","width":3264}],"place_id":"ChIJ8Z5Kh2jmYQ0Rj6WHPgiS4SE","plus_code":{"compound_code":"CGHH+XX Torrent","global_code":"8CFXCGHH+XX"},"price_level":1,"rating":4.5,"reference":"ChIJ8Z5Kh2jmYQ0Rj6WHPgiS4SE","types":["restaurant","food","point_of_interest","establishment"],"user_ratings_total":515},{"business_status":"OPERATIONAL","formatted_address":"Carrer del Pintor Vila Prades, 21, 46008 València, Valencia","geometry":{"location":{"lat":39.4704977,"lng":-0.3900961},"viewport":{"northeast":{"lat":39.47184107989272,"lng":-0.3887132701072778},"southwest":{"lat":39.46914142010728,"lng":-0.3914129298927223}}},"icon":"https://maps.gstatic.com/mapfiles/place_api/icons/v1/png_71/restaurant-71.png","icon_background_color":"#FF9E67","icon_mask_base_uri":"https://maps.gstatic.com/mapfiles/place_api/icons/v2/restaurant_pinlet","name":"Tariq Valencia","opening_hours":{"open_now":false},"photos":[{"height":2988,"html_attributions":["<a href=\"https://maps.google.com/maps/contrib/112145268619311793459\">Javier Afán de ribera</a>"],"photo_reference":"AeJbb3ecpatwWXwzRtH2LeDdn3uakG-NgyqIYKeGu2QNq1ReV0-JCgj0Ekmcoluiftitj255chXxcYx1Lq-_ZGxTTSIJe1458eL9Ff8haeZlR28vFjd37JyInzd90MCYfq9WSkFCKPVLhslN-dRCktEKjfYrbDUnbuHvpawen83HCXlg8E3w","width":5312}],"place_id":"ChIJ6XKW4ENPYA0R2VS6vhB0s28","plus_code":{"compound_code":"FJC5+6X Valencia","global_code":"8CFXFJC5+6X"},"price_level":2,"rating":4.5,"reference":"ChIJ6XKW4ENPYA0R2VS6vhB0s28","types":["restaurant","food","point_of_interest","establishment"],"user_ratings_total":506},{"business_status":"OPERATIONAL","formatted_address":"Av. de les Corts Valencianes, 16, 46183 L'Eliana, Valencia","geometry":{"location":{"lat":39.5639567,"lng":-0.5297235},"viewport":{"northeast":{"lat":39.56526892989272,"lng":-0.5283392201072779},"southwest":{"lat":39.56256927010728,"lng":-0.5310388798927222}}},"icon":"https://maps.gstatic.com/mapfiles/place_api/icons/v1/png_71/restaurant-71.png","icon_background_color":"#FF9E67","icon_mask_base_uri":"https://maps.gstatic.com/mapfiles/place_api/icons/v2/restaurant_pinlet","name":"Swagat L'Eliana","opening_hours":{"open_now":false},"photos":[{"height":720,"html_attributions":["<a href=\"https://maps.google.com/maps/contrib/104874672611666283278\">A Google User</a>"],"photo_reference":"AeJbb3cGjkHe3cLKA5HwmzW6NGSYIzSzcMrF6A54i1roGzCb7NsDTpZoN5-Br7HiWrgYmACGifKCbxj6DOWIRkQhViUahpvAPe4enbLZJ2ebO8a9_dMrPQqgwgBUeCGh7TKyR3s3KfaHBazwlt3Vj5C99tn1qQJZOVY17oOem0P5Yu8Jgglm","width":1600}],"place_id":"ChIJ0bkuyUpZYA0RJrbVSGmD4KI","plus_code":{"compound_code":"HF7C+H4 L'Eliana","global_code":"8CFXHF7C+H4"},"rating":4.5,"reference":"ChIJ0bkuyUpZYA0RJrbVSGmD4KI","types":["restaurant","food","point_of_interest","establishment"],"user_ratings_total":248},{"business_status":"OPERATIONAL","formatted_address":"Av. de Gaspar Aguilar, 49, 46017 València, Valencia","geometry":{"location":{"lat":39.45577240000001,"lng":-0.3905352},"viewport":{"northeast":{"lat":39.45710647989272,"lng":-0.3893180201072778},"southwest":{"lat":39.45440682010727,"lng":-0.3920176798927222}}},"icon":"https://maps.gstatic.com/mapfiles/place_api/icons/v1/png_71/restaurant-71.png","icon_background_color":"#FF9E67","icon_mask_base_uri":"https://maps.gstatic.com/mapfiles/place_api/icons/v2/restaurant_pinlet","name":"Lal qila Valencia","opening_hours":{"open_now":true},"photos":[{"height":750,"html_attributions":["<a href=\"https://maps.google.com/maps/contrib/108923925468924295692\">Jose Salas</a>"],"photo_reference":"AeJbb3e-_xek3e1w4g4z4RRk9Xl6I_ehquH2fGv0gNGlZXoSXuk-IKH1ayhs75ngIC4xlw79m8xEDrSrfe1RWdL4OJL_BVqCdaCluOLDWgbb2eYkwa3UdSyLVnCGziDAluMKCum7IqF1e3CDSgn1ZT5HYdbrTGM_fy7dMIVoSQcPEFuQPdZr","width":1000}],"place_id":"ChIJgUMrErZPYA0RcJXwpaly96M","plus_code":{"compound_code":"FJ45+8Q Valencia","global_code":"8CFXFJ45+8Q"},"rating":4.5,"reference":"ChIJgUMrErZPYA0RcJXwpaly96M","types":["restaurant","food","point_of_interest","establishment"],"user_ratings_total":220},{"business_status":"OPERATIONAL","formatted_address":"C/ del Dr. Manuel Candela, 20, 46021 València, Valencia","geometry":{"location":{"lat":39.4670174,"lng":-0.3503893},"viewport":{"northeast":{"lat":39.46838472989273,"lng":-0.3490830201072778},"southwest":{"lat":39.46568507010728,"lng":-0.3517826798927222}}},"icon":"https://maps.gstatic.com/mapfiles/place_api/icons/v1/png_71/restaurant-71.png","icon_background_color":"#FF9E67","icon_mask_base_uri":"https://maps.gstatic.com/mapfiles/place_api/icons/v2/restaurant_pinlet","name":"Restaurant TAJ MAHAL","opening_hours":{"open_now":false},"photos":[{"height":2992,"html_attributions":["<a href=\"https://maps.google.com/maps/contrib/118359637904194086117\">A Google User</a>"],"photo_reference":"AeJbb3cID5zx1fMXzXd2DPu7Wp3s6LQv_uzkfpeeB9LVNO8CXqfEb-TAwWS814r561J2yuAmMCn2ijTTr-V-kVLEzsgo4mUuK5gbK80KjgIUFSiHjXWPiRt4RvFevrPnRGEhnNfV0_76q39K88G0VfLCoGjrKIPLnv_3TKMF-uNqPS6cH3ef","width":5312}],"place_id":"ChIJ5RYzaZNIYA0Rs7FQFejb2MQ","plus_code":{"compound_code":"FJ8X+QV Valencia","global_code":"8CFXFJ8X+QV"},"price_level":2,"rating":4.4,"reference":"ChIJ5RYzaZNIYA0Rs7FQFejb2MQ","types":["meal_takeaway","restaurant","food","point_of_interest","establishment"],"user_ratings_total":1701},{"business_status":"OPERATIONAL","formatted_address":"Av. de Blasco Ibáñez, 153, 46022 València, Valencia","geometry":{"location":{"lat":39.4718339,"lng":-0.3392038},"viewport":{"northeast":{"lat":39.47313622989272,"lng":-0.3377963701072778},"southwest":{"lat":39.47043657010727,"lng":-0.3404960298927222}}},"icon":"https://maps.gstatic.com/mapfiles/place_api/icons/v1/png_71/restaurant-71.png","icon_background_color":"#FF9E67","icon_mask_base_uri":"https://maps.gstatic.com/mapfiles/place_api/icons/v2/restaurant_pinlet","name":"SHAHI Restaurante Indio - Buffet & A la Carta (حلال)","opening_hours":{"open_now":false},"photos":[{"height":3024,"html_attributions":["<a href=\"https://maps.google.com/maps/contrib/103289379704122486587\">A Google User</a>"],"photo_reference":"AeJbb3da55OuhJoMY6NIAttUnx_iPY5qAsXsDhCiUtuVMDCy_pE8rUawbKIgXbqViR06T-kGS5kMTqJdBwv8tJo5u12EdZMHCWtjveJ8mo6URDlAaKP6U-ja-_hAhnSnzP_ksdkKVNobqaHzLmm6Abj62sEM9nDah0SgPki2CDlieWjO-ZNA","width":3545}],"place_id":"ChIJZ_IwvYlIYA0Rxtc6wcCapao","plus_code":{"compound_code":"FMC6+P8 Valencia","global_code":"8CFXFMC6+P8"},"price_level":1,"rating":4.4,"reference":"ChIJZ_IwvYlIYA0Rxtc6wcCapao","types":["restaurant","food","point_of_interest","establishment"],"user_ratings_total":1667},{"business_status":"OPERATIONAL","formatted_address":"C/ de la Safor, 12, 46015 València, Valencia","geometry":{"location":{"lat":39.4899608,"lng":-0.4010598},"viewport":{"northeast":{"lat":39.49117087989273,"lng":-0.3995977701072778},"southwest":{"lat":39.48847122010728,"lng":-0.4022974298927222}}},"icon":"https://maps.gstatic.com/mapfiles/place_api/icons/v1/png_71/restaurant-71.png","icon_background_color":"#FF9E67","icon_mask_base_uri":"https://maps.gstatic.com/mapfiles/place_api/icons/v2/restaurant_pinlet","name":"Restaurante Indian Star","opening_hours":{"open_now":false},"photos":[{"height":3024,"html_attributions":["<a href=\"https://maps.google.com/maps/contrib/110054579080770318862\">Ashok Kumar</a>"],"photo_reference":"AeJbb3cVak1wZ2eF0aZHxoKj6xsKYuN4kc42d0Hvx3o3V1GzWFse1ByhZJTda5PiTrBjT5H2pspg-mYN_F4jG9QsPDve2WgGrsy1wGlJYky72VMKam2oHdWsAUiRS00GrSSoKI6ZgSSFvTa6bka-tnZsvpzvg8y9KwafeB-TJprvsxSmdR0H","width":4032}],"place_id":"ChIJbxdX2ohFYA0Rt0mTMcLHwuM","plus_code":{"compound_code":"FHQX+XH Valencia","global_code":"8CFXFHQX+XH"},"price_level":2,"rating":4.4,"reference":"ChIJbxdX2ohFYA0Rt0mTMcLHwuM","types":["restaurant","food","point_of_interest","establishment"],"user_ratings_total":1103},{"business_status":"OPERATIONAL","formatted_address":"Carrer del Poeta Artola, 13, 46021 València, Valencia","geometry":{"location":{"lat":39.4756319,"lng":-0.3489917},"viewport":{"northeast":{"lat":39.47696632989273,"lng":-0.3475594701072777},"southwest":{"lat":39.47426667010728,"lng":-0.3502591298927222}}},"icon":"https://maps.gstatic.com/mapfiles/place_api/icons/v1/png_71/restaurant-71.png","icon_background_color":"#FF9E67","icon_mask_base_uri":"https://maps.gstatic.com/mapfiles/place_api/icons/v2/restaurant_pinlet","name":"Shish Mahal","opening_hours":{"open_now":false},"photos":[{"height":3096,"html_attributions":["<a href=\"https://maps.google.com/maps/contrib/115555281121675266750\">Lolita Dioni</a>"],"photo_reference":"AeJbb3eaZf-_2VX_EeUenObVxONtXungesUTvVk-d_Lee2_oh3WV7nCTFiFkLJk1WfA-NHHaAT452SBS3obDNuEVzDXfGBGvyPDyRY3CsO3XY3hpIXwDEFk_019mqnw9e1iG0ZImn7YnzhDopkFLjLvw4mfb91aIXtDf8cAR5QAB_efwYc3g","width":4128}],"place_id":"ChIJXzX6f5pIYA0R7iBqsoTq7XU","plus_code":{"compound_code":"FMG2+7C Valencia","global_code":"8CFXFMG2+7C"},"price_level":1,"rating":4.4,"reference":"ChIJXzX6f5pIYA0R7iBqsoTq7XU","types":["restaurant","food","point_of_interest","establishment"],"user_ratings_total":781},{"business_status":"OPERATIONAL","formatted_address":"Bajo, C/ d'Àngel Guimerà, 62, 46008 Valencia","geometry":{"location":{"lat":39.4695527,"lng":-0.3899906},"viewport":{"northeast":{"lat":39.47086887989272,"lng":-0.3887043701072777},"southwest":{"lat":39.46816922010728,"lng":-0.3914040298927222}}},"icon":"https://maps.gstatic.com/mapfiles/place_api/icons/v1/png_71/restaurant-71.png","icon_background_color":"#FF9E67","icon_mask_base_uri":"https://maps.gstatic.com/mapfiles/place_api/icons/v2/restaurant_pinlet","name":"Indian Garden","opening_hours":{"open_now":false},"photos":[{"height":2976,"html_attributions":["<a href=\"https://maps.google.com/maps/contrib/118172627924744298759\">Walt Groening</a>"],"photo_reference":"AeJbb3fA7YdpenxObzeZ9JtQV59FVxThiS_gZ5jEpyBRs56OdsaKyf-rcCiNORRTPe86RqSB2moAw7fyT-haUs_st9BE7fcjaMN8CEXDwRqI_NKd9NhjyGS8CDH46-ylrLcfIIvdi06MOt9Z5Z3Vd12ETKjBM7Yh2InT-ymPppB5xrtTXvw6","width":3968}],"place_id":"ChIJmZG0Z0FPYA0R2e6ktFYOCGI","plus_code":{"compound_code":"FJ96+R2 Valencia","global_code":"8CFXFJ96+R2"},"price_level":2,"rating":4.4,"reference":"ChIJmZG0Z0FPYA0R2e6ktFYOCGI","types":["meal_delivery","meal_takeaway","restaurant","food","point_of_interest","establishment"],"user_ratings_total":763},{"business_status":"OPERATIONAL","formatted_address":"Las, Carrer de les Barques, 1, 46002 Valencia","geometry":{"location":{"lat":39.47048230000001,"lng":-0.375698},"viewport":{"northeast":{"lat":39.47178477989272,"lng":-0.3743401701072778},"southwest":{"lat":39.46908512010727,"lng":-0.3770398298927222}}},"icon":"https://maps.gstatic.com/mapfiles/place_api/icons/v1/png_71/restaurant-71.png","icon_background_color":"#FF9E67","icon_mask_base_uri":"https://maps.gstatic.com/mapfiles/place_api/icons/v2/restaurant_pinlet","name":"Bharat Indian Restaurant - Valencia City Centre","opening_hours":{"open_now":false},"photos":[{"height":1110,"html_attributions":["<a href=\"https://maps.google.com/maps/contrib/105923309786660705606\">A Google User</a>"],"photo_reference":"AeJbb3cz0bdd7iycUMr54fiyBe4waUyxJ9iP-iYb99IydMsMgsWUr69fg4SG7O_3qqzRvJlsQdVPwhe_GxkH8SYPKOcWJyDNior8nKaWSJCnbpf33RP3Hc2P_DTmZ1kvgyx7TGSkVNLrcUh_EHR8nSVZzAt__rHm-vtFJZ1kcxrINOA5VK7I","width":1088}],"place_id":"ChIJlUXscOlPYA0R-FQmN80ZYt8","plus_code":{"compound_code":"FJCF+5P Valencia","global_code":"8CFXFJCF+5P"},"price_level":2,"rating":4.3,"reference":"ChIJlUXscOlPYA0R-FQmN80ZYt8","types":["restaurant","food","point_of_interest","establishment"],"user_ratings_total":790},{"business_status":"OPERATIONAL","formatted_address":"Av. de les Balears, 1, 46023 València, Valencia","geometry":{"location":{"lat":39.4640441,"lng":-0.3573863},"viewport":{"northeast":{"lat":39.46537462989272,"lng":-0.3562609701072778},"southwest":{"lat":39.46267497010728,"lng":-0.3589606298927222}}},"icon":"https://maps.gstatic.com/mapfiles/place_api/icons/v1/png_71/restaurant-71.png","icon_background_color":"#FF9E67","icon_mask_base_uri":"https://maps.gstatic.com/mapfiles/place_api/icons/v2/restaurant_pinlet","name":"Amarinder - Cocina Original India","opening_hours":{"open_now":false},"photos":[{"height":1371,"html_attributions":["<a href=\"https://maps.google.com/maps/contrib/107424130979290867136\">Amarinder - Cocina Original India</a>"],"photo_reference":"AeJbb3ec9h7WeYFfsli-BlRqu_p9mejpzvFgnPRuZj3-25IY7FBBPTublUT__ya-lf3RuWveW9DXssOzif-e9-G-6CheQM5ZYM4Q19u5JV7g-y3xzhSJbPb4aZJ-DC34Rz8vzCCU4ktcDog-6rtYfWX1dnsW9FfEHxnIKZlKouvUNrn2hZlW","width":2048}],"place_id":"ChIJIZmMw8FIYA0RI08olU4Kk0c","plus_code":{"compound_code":"FJ7V+J2 Valencia","global_code":"8CFXFJ7V+J2"},"rating":4.3,"reference":"ChIJIZmMw8FIYA0RI08olU4Kk0c","types":["restaurant","food","point_of_interest","establishment"],"user_ratings_total":518},{"business_status":"OPERATIONAL","formatted_address":"C/ Albal, 4, 46200 Paiporta, Valencia","geometry":{"location":{"lat":39.42562,"lng":-0.4212449},"viewport":{"northeast":{"lat":39.42695007989272,"lng":-0.4199357201072778},"southwest":{"lat":39.42425042010728,"lng":-0.4226353798927222}}},"icon":"https://maps.gstatic.com/mapfiles/place_api/icons/v1/png_71/restaurant-71.png","icon_background_color":"#FF9E67","icon_mask_base_uri":"https://maps.gstatic.com/mapfiles/place_api/icons/v2/restaurant_pinlet","name":"Restaurante Punjabi","opening_hours":{"open_now":false},"photos":[{"height":3120,"html_attributions":["<a href=\"https://maps.google.com/maps/contrib/107581814080727174356\">Carlos Piña</a>"],"photo_reference":"AeJbb3ewiGC3zXs_yyAASll8s5sr_kbUhmIR4grxI3wi6-E2CPgLkittWgeyhRunh04kMgmGUiJwu0Fe8oTQ1Vwm_21KdZ5vZiM-smp87Km_BDpx11MuBgdqwR82LkE6ShGp6fUi-LMCxJmeKgF1NYTUy4PaKM09zIf4iHkEFsTIwJe6u_m1","width":4160}],"place_id":"ChIJs9WzlV1OYA0RkmBqcIdSDEU","plus_code":{"compound_code":"CHGH+7G Paiporta","global_code":"8CFXCHGH+7G"},"price_level":2,"rating":4.3,"reference":"ChIJs9WzlV1OYA0RkmBqcIdSDEU","types":["restaurant","food","point_of_interest","establishment"],"user_ratings_total":195},{"business_status":"OPERATIONAL","formatted_address":"Carr. de Barcelona, 2, 46530 Puçol, Valencia","geometry":{"location":{"lat":39.6199506,"lng":-0.3073292},"viewport":{"northeast":{"lat":39.62131797989272,"lng":-0.3060645701072778},"southwest":{"lat":39.61861832010727,"lng":-0.3087642298927222}}},"icon":"https://maps.gstatic.com/mapfiles/place_api/icons/v1/png_71/restaurant-71.png","icon_background_color":"#FF9E67","icon_mask_base_uri":"https://maps.gstatic.com/mapfiles/place_api/icons/v2/restaurant_pinlet","name":"Nuevo Restaurante Punjab Puzol","opening_hours":{"open_now":true},"photos":[{"height":3024,"html_attributions":["<a href=\"https://maps.google.com/maps/contrib/112143932731045356172\">Avtar Saab</a>"],"photo_reference":"AeJbb3eqxEaLY5958iHSNAcSs27skJVnxwuwjXyjiwi5abnu9mgsqTOveUFujxaKMQYyaWtO9qZpLhvAAV_mq4FIQbvhRspI0wupla9bXnOe3SfJ-6h_fVX2TAyRZzCgcm-_WD9VTCLemBIelGEoxgAJxnHN5YkJDK7fXiIwNVyQjsW8wZ1t","width":4032}],"place_id":"ChIJTbFx-UdBYA0R0NJre273jXs","plus_code":{"compound_code":"JM9V+X3 Puçol","global_code":"8CFXJM9V+X3"},"rating":4.3,"reference":"ChIJTbFx-UdBYA0R0NJre273jXs","types":["restaurant","food","point_of_interest","establishment"],"user_ratings_total":35},{"business_status":"OPERATIONAL","formatted_address":"Av. de Blasco Ibáñez, 198, 46022 València, Valencia","geometry":{"location":{"lat":39.4699009,"lng":-0.3354223},"viewport":{"northeast":{"lat":39.47128362989271,"lng":-0.3342413701072778},"southwest":{"lat":39.46858397010727,"lng":-0.3369410298927222}}},"icon":"https://maps.gstatic.com/mapfiles/place_api/icons/v1/png_71/restaurant-71.png","icon_background_color":"#FF9E67","icon_mask_base_uri":"https://maps.gstatic.com/mapfiles/place_api/icons/v2/restaurant_pinlet","name":"Haroon Restaurante","opening_hours":{"open_now":true},"photos":[{"height":1920,"html_attributions":["<a href=\"https://maps.google.com/maps/contrib/102042126726160811104\">Pau Navarro Lechuga</a>"],"photo_reference":"AeJbb3epFMd7PtTXUWo9Yy-hYkzpZrKjkfEGGJsqNmvJLl3UyXumA8zvbORt5VFdD8NxP_AYA9xEk19m3tN4fC7OCOnoAiKu4jJrGJ2_bAesfAROvCI9HJNiOxpvMSLlG1k3lkRwvBtmdXiGAoV38akUppHGp2VsatIbolTZ4R_L5g9ZYC1r","width":1080}],"place_id":"ChIJcT_0jmFIYA0REJe9Yq8hqTo","plus_code":{"compound_code":"FMC7+2M Valencia","global_code":"8CFXFMC7+2M"},"price_level":1,"rating":4.2,"reference":"ChIJcT_0jmFIYA0REJe9Yq8hqTo","types":["restaurant","food","point_of_interest","establishment"],"user_ratings_total":83},{"business_status":"OPERATIONAL","formatted_address":"Av. del Puerto, 202, 46023 Valencia","geometry":{"location":{"lat":39.46329050000001,"lng":-0.3442771},"viewport":{"northeast":{"lat":39.46460747989273,"lng":-0.3428305701072778},"southwest":{"lat":39.46190782010729,"lng":-0.3455302298927223}}},"icon":"https://maps.gstatic.com/mapfiles/place_api/icons/v1/png_71/restaurant-71.png","icon_background_color":"#FF9E67","icon_mask_base_uri":"https://maps.gstatic.com/mapfiles/place_api/icons/v2/restaurant_pinlet","name":"Kebab Usman (SPAIN)","opening_hours":{"open_now":true},"photos":[{"height":2988,"html_attributions":["<a href=\"https://maps.google.com/maps/contrib/113184367555461232817\">Vicente Grau Frechina</a>"],"photo_reference":"AeJbb3fV1qEWJTuetx6KBAcbFsMenGOvfz6QlQ8W5Z0rLjKVaPcPnNd1qD-sRaNkR0oOK9E-TvHxqdBePY15gcH6gYkeJFC984CgukroqJhyeF8mM62FOuAit5yD8zA1TZXO2PPmTFnQ_7sMQTEW4ng4px_VO4WPBU4Ql_sG7frW0EgUtamM","width":5312}],"place_id":"ChIJ1eiy4vJIYA0RejbpJy3_7-U","plus_code":{"compound_code":"FM74+87 Valencia","global_code":"8CFXFM74+87"},"price_level":1,"rating":4.1,"reference":"ChIJ1eiy4vJIYA0RejbpJy3_7-U","types":["meal_delivery","restaurant","food","point_of_interest","establishment"],"user_ratings_total":801},{"business_status":"OPERATIONAL","formatted_address":"Av. del Puerto, 247, 46011 Valencia","geometry":{"location":{"lat":39.4614215,"lng":-0.3369473},"viewport":{"northeast":{"lat":39.46273317989272,"lng":-0.3355887701072778},"southwest":{"lat":39.46003352010727,"lng":-0.3382884298927222}}},"icon":"https://maps.gstatic.com/mapfiles/place_api/icons/v1/png_71/restaurant-71.png","icon_background_color":"#FF9E67","icon_mask_base_uri":"https://maps.gstatic.com/mapfiles/place_api/icons/v2/restaurant_pinlet","name":"Restaurante Indio 25","opening_hours":{"open_now":true},"photos":[{"height":4032,"html_attributions":["<a href=\"https://maps.google.com/maps/contrib/116449909763534842966\">sheraz ashraf</a>"],"photo_reference":"AeJbb3d_gxaGAILw6QaSD0mLBCnzrQSD8dtoAu8SWSubFwNtmBQ1cXNc_q-VqEd9fGBc5Cvym-4BPpp19I5yoH1msx4noW0xeY0tXDspmHyOB6QpzPLi7Cl5p7yH9-1uQmLtmuCO9zPjSccywPAnoyhytwycB1adOAzl0yvN9sDygJz9NwI","width":3024}],"place_id":"ChIJialZZ19IYA0RyA7oeTmFXBE","plus_code":{"compound_code":"FM67+H7 Valencia","global_code":"8CFXFM67+H7"},"price_level":1,"rating":4.1,"reference":"ChIJialZZ19IYA0RyA7oeTmFXBE","types":["restaurant","food","point_of_interest","establishment"],"user_ratings_total":425},{"business_status":"OPERATIONAL","formatted_address":"C/ d'Àngel Guimerà, 62, 46008 València, Valencia","geometry":{"location":{"lat":39.4694934,"lng":-0.3899551},"viewport":{"northeast":{"lat":39.47082957989272,"lng":-0.3886805701072777},"southwest":{"lat":39.46812992010727,"lng":-0.3913802298927222}}},"icon":"https://maps.gstatic.com/mapfiles/place_api/icons/v1/png_71/restaurant-71.png","icon_background_color":"#FF9E67","icon_mask_base_uri":"https://maps.gstatic.com/mapfiles/place_api/icons/v2/restaurant_pinlet","name":"Savoy Cocina India","opening_hours":{"open_now":false},"photos":[{"height":1200,"html_attributions":["<a href=\"https://maps.google.com/maps/contrib/105435202876262423310\">Miguel Azulay</a>"],"photo_reference":"AeJbb3fpsGLktZqSOFsvUqeoWr8d9SrR4beGx98xR9AaS3hHy9DBPzLgMmW5N3SwL9Ylq4vKatH-tqSns9XNS9zCjAnUVRd_QQNgnAwt0EtM5sBFuEpVgCLK6WhdiQmOyoYOe7dfZkScXWCrVMPun3LZDqYGqFUdnZOvScbXXfYTd9bAK5E9","width":1600}],"place_id":"ChIJre5yQ0FPYA0RfAowQv05EBI","plus_code":{"compound_code":"FJ96+Q2 Valencia","global_code":"8CFXFJ96+Q2"},"rating":4.1,"reference":"ChIJre5yQ0FPYA0RfAowQv05EBI","types":["restaurant","food","point_of_interest","establishment"],"user_ratings_total":72},{"business_status":"OPERATIONAL","formatted_address":"Av. de Blasco Ibáñez, 87, 46022 València, Valencia","geometry":{"location":{"lat":39.4744959,"lng":-0.3473559},"viewport":{"northeast":{"lat":39.47584287989272,"lng":-0.3460430701072778},"southwest":{"lat":39.47314322010727,"lng":-0.3487427298927223}}},"icon":"https://maps.gstatic.com/mapfiles/place_api/icons/v1/png_71/restaurant-71.png","icon_background_color":"#FF9E67","icon_mask_base_uri":"https://maps.gstatic.com/mapfiles/place_api/icons/v2/restaurant_pinlet","name":"Cervecería Montaditos","opening_hours":{"open_now":false},"photos":[{"height":3456,"html_attributions":["<a href=\"https://maps.google.com/maps/contrib/110066564026347919540\">Pedro Saiz</a>"],"photo_reference":"AeJbb3e0O3sXKtWXHeanHKoh5P_O3d10vHHxkVa_Xh3szwnkaoXv3NFE8tPi0CUXuEZphQ_ru674w2dsvUTYSBpR8Tj0sJywPNxV1u__yVu1lwdouPYM3GjSTd2GU-M2thMSLA12WoIfIuozQT4tv5iZBJCHK23Fw9C2csrtKLz6SjHLpk0B","width":4608}],"place_id":"ChIJN-cjw9VJYA0Reka0oxwDxCA","plus_code":{"compound_code":"FMF3+Q3 Valencia","global_code":"8CFXFMF3+Q3"},"price_level":1,"rating":4.1,"reference":"ChIJN-cjw9VJYA0Reka0oxwDxCA","types":["restaurant","liquor_store","bar","store","food","point_of_interest","establishment"],"user_ratings_total":71},{"business_status":"OPERATIONAL","formatted_address":"Plaça de la Concòrdia, 7, 46100 Burjassot, Valencia","geometry":{"location":{"lat":39.5137899,"lng":-0.4150635},"viewport":{"northeast":{"lat":39.51520522989273,"lng":-0.4135865201072778},"southwest":{"lat":39.51250557010728,"lng":-0.4162861798927223}}},"icon":"https://maps.gstatic.com/mapfiles/place_api/icons/v1/png_71/restaurant-71.png","icon_background_color":"#FF9E67","icon_mask_base_uri":"https://maps.gstatic.com/mapfiles/place_api/icons/v2/restaurant_pinlet","name":"Indian Curry Chef's","opening_hours":{"open_now":false},"photos":[{"height":3024,"html_attributions":["<a href=\"https://maps.google.com/maps/contrib/117317815111135795366\">伴晃生</a>"],"photo_reference":"AeJbb3fE_9YyyvtuXb2vFoVf5ntZ8aJ9odyEsGECSZPswYbR-b2RaAq2GcNR9PFWHqyC-Soqe_CXFzDyhwQRs7-fdOkrdp4HKut_a9OsMp_Q9Tv9MkzMNPjHgx3ZypdCK7jhYWzfBtXwZbq693sq-UfG97k5MRAoLzpubn-u-e-ndZ0Qpcri","width":4032}],"place_id":"ChIJAd5hmgFFYA0Rzlq72QTz9es","plus_code":{"compound_code":"GH7M+GX Burjassot","global_code":"8CFXGH7M+GX"},"rating":4.1,"reference":"ChIJAd5hmgFFYA0Rzlq72QTz9es","types":["meal_delivery","meal_takeaway","restaurant","food","point_of_interest","establishment"],"user_ratings_total":43},{"business_status":"OPERATIONAL","formatted_address":"Carrer de Higinio Noja (Professor), 37, 46023 València, Valencia","geometry":{"location":{"lat":39.4611997,"lng":-0.3463912},"viewport":{"northeast":{"lat":39.46254597989272,"lng":-0.3451015201072778},"southwest":{"lat":39.45984632010728,"lng":-0.3478011798927222}}},"icon":"https://maps.gstatic.com/mapfiles/place_api/icons/v1/png_71/restaurant-71.png","icon_background_color":"#FF9E67","icon_mask_base_uri":"https://maps.gstatic.com/mapfiles/place_api/icons/v2/restaurant_pinlet","name":"Bar Los Faroles","opening_hours":{"open_now":true},"photos":[{"height":4608,"html_attributions":["<a href=\"https://maps.google.com/maps/contrib/111080574924280978290\">Paula Andrea</a>"],"photo_reference":"AeJbb3dB-g_k1Zj9p5KTQatjJYFn0lgZ25WNBgyb7KNSFEjhGYkMZMrVYPn48aJ3q-eDlp9Z7gJ96NOUmJenqwRprzEbZsOXLT0Leak-hCM0su3LKJAuTg8oBORKkFkl6h6Lu1eAtpNGAwXzWtlc4IaF2zvvevLqvI2VcbVyG2TETalZPleZ","width":3456}],"place_id":"ChIJaQ4GC_JIYA0Rbht2xrl5SJw","plus_code":{"compound_code":"FM63+FC Valencia","global_code":"8CFXFM63+FC"},"rating":4.1,"reference":"ChIJaQ4GC_JIYA0Rbht2xrl5SJw","types":["restaurant","food","point_of_interest","establishment"],"user_ratings_total":38},{"business_status":"OPERATIONAL","formatted_address":"Avenida FRANCISCO, Av. Francesc Ciscar, 22, 46200 Paiporta, Valencia","geometry":{"location":{"lat":39.4319951,"lng":-0.4159514},"viewport":{"northeast":{"lat":39.43338987989272,"lng":-0.4145869201072778},"southwest":{"lat":39.43069022010728,"lng":-0.4172865798927222}}},"icon":"https://maps.gstatic.com/mapfiles/place_api/icons/v1/png_71/restaurant-71.png","icon_background_color":"#FF9E67","icon_mask_base_uri":"https://maps.gstatic.com/mapfiles/place_api/icons/v2/restaurant_pinlet","name":"Restaurante Bombay - Comida India halal","photos":[{"height":1200,"html_attributions":["<a href=\"https://maps.google.com/maps/contrib/111684067078886643058\">A Google User</a>"],"photo_reference":"AeJbb3cUB_rkuZoT98FkubcWJX_kwMe7emjl9bj5JcJb_Qz0u5_EtTItQxzIJ0q9o89jD98uqrNpxoARzfmDlfIGMxjoInInzRmMIHcy5HmGmLI9I_TLSasSIskc7147GHXpzxIkwAn-rXvobUff0JVNiAIuAn2amRE2HQgrb--C8a2_3_Q2","width":1600}],"place_id":"ChIJYwCj5HVPYA0Rd5OB1oEv8kM","plus_code":{"compound_code":"CHJM+QJ Paiporta","global_code":"8CFXCHJM+QJ"},"rating":4,"reference":"ChIJYwCj5HVPYA0Rd5OB1oEv8kM","types":["restaurant","food","point_of_interest","establishment"],"user_ratings_total":4},{"business_status":"OPERATIONAL","formatted_address":"Av. del Puerto, 64, 46023 Valencia","geometry":{"location":{"lat":39.4663716,"lng":-0.354868},"viewport":{"northeast":{"lat":39.46781452989271,"lng":-0.3534991701072778},"southwest":{"lat":39.46511487010727,"lng":-0.3561988298927222}}},"icon":"https://maps.gstatic.com/mapfiles/place_api/icons/v1/png_71/restaurant-71.png","icon_background_color":"#FF9E67","icon_mask_base_uri":"https://maps.gstatic.com/mapfiles/place_api/icons/v2/restaurant_pinlet","name":"Indian Resturant","opening_hours":{"open_now":false},"photos":[{"height":3096,"html_attributions":["<a href=\"https://maps.google.com/maps/contrib/113441167084679542587\">Restaurante De La India</a>"],"photo_reference":"AeJbb3df_tsGIB2E5jCV2yOttKHJrpZn_KohihpWJkfPpyPqPIR7mR7jqIXXnEnwqRkebro2hGx3kDn-4xcqpB9gyr36VN3XkysmuNkBQICzKT9Cca1LZ8ZzrIcg20FK-yY4WakjHWbSYiSDqU4IHZcaTSaYTfviSpAVLRQMRsgDnxOOcsnV","width":4128}],"place_id":"ChIJiXcO36ZIYA0RMk5RP_w4Rwc","plus_code":{"compound_code":"FJ8W+G3 Valencia","global_code":"8CFXFJ8W+G3"},"price_level":1,"rating":3.9,"reference":"ChIJiXcO36ZIYA0RMk5RP_w4Rwc","types":["restaurant","food","point_of_interest","establishment"],"user_ratings_total":426},{"business_status":"OPERATIONAL","formatted_address":"Carr. de Barcelona, 2, 46530 Puçol, Valencia","geometry":{"location":{"lat":39.6199506,"lng":-0.3073292},"viewport":{"northeast":{"lat":39.62131797989272,"lng":-0.3060645701072778},"southwest":{"lat":39.61861832010727,"lng":-0.3087642298927222}}},"icon":"https://maps.gstatic.com/mapfiles/place_api/icons/v1/png_71/restaurant-71.png","icon_background_color":"#FF9E67","icon_mask_base_uri":"https://maps.gstatic.com/mapfiles/place_api/icons/v2/restaurant_pinlet","name":"ELS SOMNIS RESTAURANTE Puçol","opening_hours":{"open_now":true},"photos":[{"height":2304,"html_attributions":["<a href=\"https://maps.google.com/maps/contrib/107451178647178617843\">Aindra Barona</a>"],"photo_reference":"AeJbb3ewmlnB8HYIOMTK0dFO64T8ivbko8m-ajyes2IxDwAY10Jh0H3y79FgATnIh1a9cONIg1ftfIU3PYvF8ez09rBKyEeTCeDorupP_y4D35rLBb-aA8VFyH4i1g9iAurK1YMnrkG7YiEM2MxtqNt2tPKqOkRojm_kusc3-fQNg4tQhk9h","width":4096}],"place_id":"ChIJq6o6hXpAYA0RnySRifyHoAw","plus_code":{"compound_code":"JM9V+X3 Puçol","global_code":"8CFXJM9V+X3"},"price_level":1,"rating":3.9,"reference":"ChIJq6o6hXpAYA0RnySRifyHoAw","types":["restaurant","food","point_of_interest","establishment"],"user_ratings_total":264},{"business_status":"OPERATIONAL","formatted_address":"Carrer de Colom, 101, 46100 Burjassot, Valencia","geometry":{"location":{"lat":39.5126147,"lng":-0.4146562},"viewport":{"northeast":{"lat":39.51400137989272,"lng":-0.4133046201072778},"southwest":{"lat":39.51130172010728,"lng":-0.4160042798927222}}},"icon":"https://maps.gstatic.com/mapfiles/place_api/icons/v1/png_71/restaurant-71.png","icon_background_color":"#FF9E67","icon_mask_base_uri":"https://maps.gstatic.com/mapfiles/place_api/icons/v2/restaurant_pinlet","name":"multani palace","opening_hours":{"open_now":false},"photos":[{"height":3456,"html_attributions":["<a href=\"https://maps.google.com/maps/contrib/111108057213093950135\">usuario165</a>"],"photo_reference":"AeJbb3fbGVYcFFApWNFJRb5-BtxPIZKn8KzA6Yry5wifiTf395-Lq_NeXeaVlVCoMx0KSCg_Blz9b-CwbcuS5bi76HVGt1oCv0psqtkqhgoTpG1exLSD6lm_rmIXppYdeZKRbr6iGuosQkZIHx2672VYpE8PN15VVIFlxLrrZ5JquCu6JWmD","width":4608}],"place_id":"ChIJZe_unglFYA0R0EmldyFj3ko","plus_code":{"compound_code":"GH7P+34 Burjassot","global_code":"8CFXGH7P+34"},"rating":3.9,"reference":"ChIJZe_unglFYA0R0EmldyFj3ko","types":["restaurant","food","point_of_interest","establishment"],"user_ratings_total":12},{"business_status":"OPERATIONAL","formatted_address":"Av. del Puerto, 109, 46022 Valencia","geometry":{"location":{"lat":39.4649793,"lng":-0.3489177},"viewport":{"northeast":{"lat":39.46625582989272,"lng":-0.3476083701072778},"southwest":{"lat":39.46355617010727,"lng":-0.3503080298927223}}},"icon":"https://maps.gstatic.com/mapfiles/place_api/icons/v1/png_71/restaurant-71.png","icon_background_color":"#FF9E67","icon_mask_base_uri":"https://maps.gstatic.com/mapfiles/place_api/icons/v2/restaurant_pinlet","name":"Lahore Tandoori","opening_hours":{"open_now":true},"photos":[{"height":3024,"html_attributions":["<a href=\"https://maps.google.com/maps/contrib/116799494540444053343\">Antonio Lag</a>"],"photo_reference":"AeJbb3czOfQ7e1dY7bT9TpqPJzu2TSPXO8NKe0DD5pTc_G0jREiRhKVSmar6QzZyj6USFuxzMt0_XPxm200pCs2-k-YsPlWn5osNJByly8uoOsjhYvZjzSRhZDTplRhuiM6JATHj3EEW_YQ4f70G5J9rK0MW562EdGi8VEEL0KsrIXXZvKda","width":4032}],"place_id":"ChIJf3Y9Ku1IYA0RKfEoQVRjpjY","plus_code":{"compound_code":"FM72+XC Valencia","global_code":"8CFXFM72+XC"},"price_level":1,"rating":3.8,"reference":"ChIJf3Y9Ku1IYA0RKfEoQVRjpjY","types":["restaurant","food","point_of_interest","establishment"],"user_ratings_total":77},{"business_status":"OPERATIONAL","formatted_address":"C/ Albal, 4, 46200 Paiporta, Valencia","geometry":{"location":{"lat":39.4256763,"lng":-0.4212263},"viewport":{"northeast":{"lat":39.42695717989272,"lng":-0.4198957701072778},"southwest":{"lat":39.42425752010728,"lng":-0.4225954298927223}}},"icon":"https://maps.gstatic.com/mapfiles/place_api/icons/v1/png_71/generic_business-71.png","icon_background_color":"#7B9EB0","icon_mask_base_uri":"https://maps.gstatic.com/mapfiles/place_api/icons/v2/generic_pinlet","name":"Hindu Punjabi","opening_hours":{"open_now":false},"photos":[{"height":2250,"html_attributions":["<a href=\"https://maps.google.com/maps/contrib/118035536153884685857\">Eva Romeu Bailarín</a>"],"photo_reference":"AeJbb3dS5fSkdO6VzDzr0w9uHHDikeh09O0GFnKfgLMCi_EURpkbVEp-V6FDz7U7FKuPKaunP1y0jb27K1TLR4upMFXTY_1dR7B5Y6m6ZB9NZeuXZ-ZSCXdsap9XaOKSHl3BkbhGU_v1716gscLJDsp4jwQACSwl464SEq1mfe9yourYJJw","width":4000}],"place_id":"ChIJP3TQ5l1OYA0RgLfmA7Zh15A","plus_code":{"compound_code":"CHGH+7G Paiporta","global_code":"8CFXCHGH+7G"},"rating":3.8,"reference":"ChIJP3TQ5l1OYA0RgLfmA7Zh15A","types":["meal_delivery","meal_takeaway","restaurant","food","point_of_interest","establishment"],"user_ratings_total":20},{"business_status":"OPERATIONAL","formatted_address":"Av. del Puerto, 107, 46022 Valencia","geometry":{"location":{"lat":39.4650021,"lng":-0.3490102},"viewport":{"northeast":{"lat":39.46628187989273,"lng":-0.3476991201072778},"southwest":{"lat":39.46358222010728,"lng":-0.3503987798927222}}},"icon":"https://maps.gstatic.com/mapfiles/place_api/icons/v1/png_71/restaurant-71.png","icon_background_color":"#FF9E67","icon_mask_base_uri":"https://maps.gstatic.com/mapfiles/place_api/icons/v2/restaurant_pinlet","name":"Shaheen Sweets. Lahori Tanduri. Comida India y Pakistaní","opening_hours":{"open_now":true},"photos":[{"height":4160,"html_attributions":["<a href=\"https://maps.google.com/maps/contrib/106032852496587493275\">A Google User</a>"],"photo_reference":"AeJbb3e9TbdGfRYwtNv4c-fBsvD-HW2PzsfOw76k-Cwv8SW0QbnkB3O3r-Ho7DH6-jEcswKFZspFgXh7Ab_h3YaLlqLZ1zRbOJGmxf16kdORL_FKp-lj1qGcxGiUYw3n7GDkhFLMi1daVqFRQctzYXpwTf_AqGqlGXIHEJbkpdnVbirx2nZa","width":3120}],"place_id":"ChIJ4-jzKu1IYA0RZn3t5c2YrGs","plus_code":{"compound_code":"FM82+29 Valencia","global_code":"8CFXFM82+29"},"rating":3.7,"reference":"ChIJ4-jzKu1IYA0RZn3t5c2YrGs","types":["restaurant","food","point_of_interest","establishment"],"user_ratings_total":19},{"business_status":"OPERATIONAL","formatted_address":"C/ freixe, 6, 46980 Paterna, Valencia","geometry":{"location":{"lat":39.5089399,"lng":-0.4504474999999999},"viewport":{"northeast":{"lat":39.51033952989271,"lng":-0.4491592201072777},"southwest":{"lat":39.50763987010727,"lng":-0.4518588798927222}}},"icon":"https://maps.gstatic.com/mapfiles/place_api/icons/v1/png_71/restaurant-71.png","icon_background_color":"#FF9E67","icon_mask_base_uri":"https://maps.gstatic.com/mapfiles/place_api/icons/v2/restaurant_pinlet","name":"Noor Mahal Indian Restaurant","opening_hours":{"open_now":false},"photos":[{"height":1180,"html_attributions":["<a href=\"https://maps.google.com/maps/contrib/115237171468793697190\">A Google User</a>"],"photo_reference":"AeJbb3f3bsmWOQTwkfCOn8R038gGdi5Q-C7IW8jFa44HVKEhQs6o9WEv6maKmy3ICqtndTJjHrKeUH30ZIN_S7IY8IFTiiid44hyaIFulJr4gzMMrjRX4KLPkBzO-IJqQG_ZgXkJDjbBRos72mX-Z5sC0N4HNGjFmH3VQxKnEkXCkMegKfle","width":1540}],"place_id":"ChIJP9DFKzVFYA0R6Nxs-FQZZ34","plus_code":{"compound_code":"GG5X+HR Paterna","global_code":"8CFXGG5X+HR"},"price_level":1,"rating":3.6,"reference":"ChIJP9DFKzVFYA0R6Nxs-FQZZ34","types":["meal_delivery","meal_takeaway","restaurant","food","point_of_interest","establishment"],"user_ratings_total":296},{"business_status":"OPERATIONAL","formatted_address":"Carrer del Sol, 11, 46130 Massamagrell, Valencia","geometry":{"location":{"lat":39.5708705,"lng":-0.334018},"viewport":{"northeast":{"lat":39.57220502989272,"lng":-0.3326738701072777},"southwest":{"lat":39.56950537010728,"lng":-0.3353735298927222}}},"icon":"https://maps.gstatic.com/mapfiles/place_api/icons/v1/png_71/restaurant-71.png","icon_background_color":"#FF9E67","icon_mask_base_uri":"https://maps.gstatic.com/mapfiles/place_api/icons/v2/restaurant_pinlet","name":"Bombay Curry House","opening_hours":{"open_now":true},"photos":[{"height":1344,"html_attributions":["<a href=\"https://maps.google.com/maps/contrib/106760502009615069648\">bhupinder singh</a>"],"photo_reference":"AeJbb3dYihIXlPIk3CVlgc867-WxPN3IkTd0JfvZ83kro647HR51bmgrQmRrPSHkEc6gg-ruC-opXmgap8K3nmdESBhaVRIAnKLO1dcW7Q7dG0gYvzEagVtxd_d7oyiCr8ZU5Gkwu_Q0GziCfbsNcTNFNWt9qg76OU6eMW26m0EeSATFta96","width":2016}],"place_id":"ChIJA8yunJtBYA0R0aMdHiyHDkY","plus_code":{"compound_code":"HMC8+89 Massamagrell","global_code":"8CFXHMC8+89"},"rating":3.5,"reference":"ChIJA8yunJtBYA0R0aMdHiyHDkY","types":["restaurant","food","point_of_interest","establishment"],"user_ratings_total":2},{"business_status":"OPERATIONAL","formatted_address":"Av. de l'Om, 2, 46220 Picassent, Valencia","geometry":{"location":{"lat":39.362074,"lng":-0.4564258},"viewport":{"northeast":{"lat":39.36342172989272,"lng":-0.4550555701072778},"southwest":{"lat":39.36072207010727,"lng":-0.4577552298927223}}},"icon":"https://maps.gstatic.com/mapfiles/place_api/icons/v1/png_71/restaurant-71.png","icon_background_color":"#FF9E67","icon_mask_base_uri":"https://maps.gstatic.com/mapfiles/place_api/icons/v2/restaurant_pinlet","name":"Bar Restaurante Comida India Musa","opening_hours":{"open_now":true},"photos":[{"height":1080,"html_attributions":["<a href=\"https://maps.google.com/maps/contrib/108093828834932473901\">A Google User</a>"],"photo_reference":"AeJbb3cUE0Gmm2c32ZXjJnLTeUYe4RYESVuzsb3HnUhQu52yY55Q2KsZ_1WvI-9_DS24hs4OcdiZTsk0KNqufC5oPR79sC8zlL1sKmqwpBxmNAYGTLmw30HL1d-327AA7geZSMb8SEtMgakGRnxKwYsKA2T2YTr9EBDtuDrsqqBLkURZ-b65","width":1080}],"place_id":"ChIJx-Lfk31SYA0RVmgQBJqvL9U","plus_code":{"compound_code":"9G6V+VF Picassent","global_code":"8CFX9G6V+VF"},"price_level":1,"rating":3.4,"reference":"ChIJx-Lfk31SYA0RVmgQBJqvL9U","types":["bar","restaurant","food","point_of_interest","establishment"],"user_ratings_total":43},{"business_status":"OPERATIONAL","formatted_address":"Carrer de Jaime Beltrán, 21, 46007 València, Valencia","geometry":{"location":{"lat":39.4564565,"lng":-0.3889139},"viewport":{"northeast":{"lat":39.45783482989273,"lng":-0.3875224201072778},"southwest":{"lat":39.45513517010728,"lng":-0.3902220798927222}}},"icon":"https://maps.gstatic.com/mapfiles/place_api/icons/v1/png_71/restaurant-71.png","icon_background_color":"#FF9E67","icon_mask_base_uri":"https://maps.gstatic.com/mapfiles/place_api/icons/v2/restaurant_pinlet","name":"Indian Curry House","opening_hours":{"open_now":true},"photos":[{"height":2419,"html_attributions":["<a href=\"https://maps.google.com/maps/contrib/111519252872407047589\">A Google User</a>"],"photo_reference":"AeJbb3f0sso64c352_wj3RdvVzTLzjIHl9EyBDaoFSUwoA9eR5yAcPFDJYq2QjHPE-fdIMf2lPPMGnRoI-MC1WEFUnKdSdPLDyNdGWCU7EvENa3JqtnflnZl3vMmFu9vIKJtiaZn6a7Ou0hTG3TBaRJllDYzoAaTRQayMmf2qdvch_nbHw-R","width":1616}],"place_id":"ChIJKzqaYztPYA0RAbS_r0G5D1s","plus_code":{"compound_code":"FJ46+HC Valencia","global_code":"8CFXFJ46+HC"},"rating":3.1,"reference":"ChIJKzqaYztPYA0RAbS_r0G5D1s","types":["meal_delivery","meal_takeaway","restaurant","food","point_of_interest","establishment"],"user_ratings_total":68},{"business_status":"OPERATIONAL","formatted_address":"Av. del Puerto, 116, 46023 Valencia","geometry":{"location":{"lat":39.46525159999999,"lng":-0.3509051},"viewport":{"northeast":{"lat":39.46667722989272,"lng":-0.3496142201072778},"southwest":{"lat":39.46397757010728,"lng":-0.3523138798927223}}},"icon":"https://maps.gstatic.com/mapfiles/place_api/icons/v1/png_71/restaurant-71.png","icon_background_color":"#FF9E67","icon_mask_base_uri":"https://maps.gstatic.com/mapfiles/place_api/icons/v2/restaurant_pinlet","name":"Restaurante Rehman","opening_hours":{"open_now":true},"photos":[{"height":3024,"html_attributions":["<a href=\"https://maps.google.com/maps/contrib/112238198991942670724\">Sohail Siddique</a>"],"photo_reference":"AeJbb3dqJa-1gIgHKfXyDrMmbj7D_6tB-_k80u-k0S8i_TLr0ivgeZsVCqy27dN78NIKkJ_qnHu5hga7g4HDDlkzV1WUaO5URy94dvKwOFT7asO76oAD9JLloPVM5LYA5XMEJoAkkqfDU64X-dBrW53epyQcDbGxEqAnMLzxwMWViYFPbLuK","width":4032}],"place_id":"ChIJAdw6U5NIYA0R5kqt2PFtiEY","plus_code":{"compound_code":"FJ8X+4J Valencia","global_code":"8CFXFJ8X+4J"},"rating":3.1,"reference":"ChIJAdw6U5NIYA0R5kqt2PFtiEY","types":["restaurant","food","point_of_interest","establishment"],"user_ratings_total":26},{"business_status":"OPERATIONAL","formatted_address":"Av. de Blasco Ibáñez, 194, 46022 València, Valencia","geometry":{"location":{"lat":39.4701141,"lng":-0.3361933},"viewport":{"northeast":{"lat":39.47151877989273,"lng":-0.3348440701072777},"southwest":{"lat":39.46881912010728,"lng":-0.3375437298927222}}},"icon":"https://maps.gstatic.com/mapfiles/place_api/icons/v1/png_71/restaurant-71.png","icon_background_color":"#FF9E67","icon_mask_base_uri":"https://maps.gstatic.com/mapfiles/place_api/icons/v2/restaurant_pinlet","name":"Kohinoor","opening_hours":{"open_now":true},"place_id":"ChIJV3959GFIYA0RC-F4eW7_bKc","plus_code":{"compound_code":"FMC7+3G Valencia","global_code":"8CFXFMC7+3G"},"rating":3,"reference":"ChIJV3959GFIYA0RC-F4eW7_bKc","types":["restaurant","food","point_of_interest","establishment"],"user_ratings_total":1},{"business_status":"OPERATIONAL","formatted_address":"Carrer del Literat Azorín, 6, 46920 Mislata, Valencia","geometry":{"location":{"lat":39.4731702,"lng":-0.4176005},"viewport":{"northeast":{"lat":39.47453927989272,"lng":-0.4162405701072777},"southwest":{"lat":39.47183962010727,"lng":-0.4189402298927222}}},"icon":"https://maps.gstatic.com/mapfiles/place_api/icons/v1/png_71/restaurant-71.png","icon_background_color":"#FF9E67","icon_mask_base_uri":"https://maps.gstatic.com/mapfiles/place_api/icons/v2/restaurant_pinlet","name":"Harrys Indian Palace","opening_hours":{"open_now":true},"photos":[{"height":1920,"html_attributions":["<a href=\"https://maps.google.com/maps/contrib/103677445946791786215\">A Google User</a>"],"photo_reference":"AeJbb3dALVxQQiZNGkHdApfRmVcSmIidZymzQYjW5wCblANvjEUAHq8W1O7MHh1F2VPcMGrx1j-mwG-Ci2iF-TZ4V0JvNZu_16fcku8_-L3tPP7xPJd8LfBVhBeHLGpYcCMQwytmwlILC3kG_x51MD4376Pd6ICoLBUlwusa26JlmwytJQd5","width":1080}],"place_id":"ChIJV1XBe5tPYA0RCnp4GJY7SIc","plus_code":{"compound_code":"FHFJ+7X Mislata","global_code":"8CFXFHFJ+7X"},"rating":2.9,"reference":"ChIJV1XBe5tPYA0RCnp4GJY7SIc","types":["restaurant","food","point_of_interest","establishment"],"user_ratings_total":12},{"business_status":"OPERATIONAL","formatted_address":"Av. de Vicent Mortes Alfonso, 17, 46980 Paterna, Valencia","geometry":{"location":{"lat":39.5052532,"lng":-0.4463491},"viewport":{"northeast":{"lat":39.50664362989272,"lng":-0.4449430201072778},"southwest":{"lat":39.50394397010728,"lng":-0.4476426798927222}}},"icon":"https://maps.gstatic.com/mapfiles/place_api/icons/v1/png_71/restaurant-71.png","icon_background_color":"#FF9E67","icon_mask_base_uri":"https://maps.gstatic.com/mapfiles/place_api/icons/v2/restaurant_pinlet","name":"Maharaja Palace Indian Restaurant","opening_hours":{"open_now":false},"photos":[{"height":4128,"html_attributions":["<a href=\"https://maps.google.com/maps/contrib/116047534258245985481\">Blanca Serra Gimenez</a>"],"photo_reference":"AeJbb3eJfbpXzyhwbMTq7l9UcX-dp6b3HpcHKbbcGoN30kTCztvNUAOJkOZQGT8R1fbZM_X1QZxawCZovGvLh1f6qr-iLb-rJg7G9nYEMjV3IeNGtBzdOPiKw-AkpXTg1PWGntzrIGMag5nHSh2YSvBN9EDoEaAELMvTRB-NJTItqizFdf7b","width":3096}],"place_id":"ChIJzVI4o_NFYA0RV_n2LHBj6S0","plus_code":{"compound_code":"GH43+4F Paterna","global_code":"8CFXGH43+4F"},"rating":2.2,"reference":"ChIJzVI4o_NFYA0RV_n2LHBj6S0","types":["meal_delivery","restaurant","food","point_of_interest","establishment"],"user_ratings_total":25},{"business_status":"CLOSED_TEMPORARILY","formatted_address":"C/ de la Constitució, 6, 46900 Torrent, Valencia","geometry":{"location":{"lat":39.43431229999999,"lng":-0.473764},"viewport":{"northeast":{"lat":39.43565317989273,"lng":-0.4724036701072777},"southwest":{"lat":39.43295352010728,"lng":-0.4751033298927222}}},"icon":"https://maps.gstatic.com/mapfiles/place_api/icons/v1/png_71/restaurant-71.png","icon_background_color":"#FF9E67","icon_mask_base_uri":"https://maps.gstatic.com/mapfiles/place_api/icons/v2/restaurant_pinlet","name":"Gandhi Virsa Restaurante","permanently_closed":true,"photos":[{"height":4128,"html_attributions":["<a href=\"https://maps.google.com/maps/contrib/117018448075962193628\">raul murciano</a>"],"photo_reference":"AeJbb3fryGREhz4HY1vl7_5cvxicZahExo1Xg_a0KcjR3EQGD5jis_n-gUJTLj8yvmwPZORCESAJfoC0Ugx3NUBE2rJbkekjB--pTF9EAeOzmiJgYjTQIxiPbaqy-GqNVf2hu1jgCbzCS7jnP9L5wiPfgxH7TWfMPoYMn4zTAm_gnWMghfvr","width":3096}],"place_id":"ChIJMXi9UrdRYA0RCWRt4rN_Y2c","plus_code":{"compound_code":"CGMG+PF Torrent","global_code":"8CFXCGMG+PF"},"rating":2,"reference":"ChIJMXi9UrdRYA0RCWRt4rN_Y2c","types":["restaurant","food","point_of_interest","establishment"],"user_ratings_total":1},{"business_status":"OPERATIONAL","formatted_address":"Carrer de Martí l'Humà, 35, 46008 València, Valencia","geometry":{"location":{"lat":39.4695131,"lng":-0.3899696},"viewport":{"northeast":{"lat":39.47083302989272,"lng":-0.3886878701072778},"southwest":{"lat":39.46813337010728,"lng":-0.3913875298927222}}},"icon":"https://maps.gstatic.com/mapfiles/place_api/icons/v1/png_71/restaurant-71.png","icon_background_color":"#FF9E67","icon_mask_base_uri":"https://maps.gstatic.com/mapfiles/place_api/icons/v2/restaurant_pinlet","name":"savoy","photos":[{"height":2736,"html_attributions":["<a href=\"https://maps.google.com/maps/contrib/117080985212798705022\">Juanfran Vidal Boix</a>"],"photo_reference":"AeJbb3fYhUYEH1rz7LOH5pqezygXPK-ojBdNMwWjotpDsO2BSwFV38SVBcXuHjbL_rCFEtnONYH4xdCP9uYo6nIGpYCxgxEdfvuLC7sqcqu2X_uHQCyJMJeZ_exs21z4NO5IaW5Gm1fdckJyrEwEluHNLMaCy8PQuNKB_JrHkhoE2YuQZQt9","width":3648}],"place_id":"ChIJsfn6QkFPYA0RQfkDnwGtddY","plus_code":{"compound_code":"FJ96+R2 Valencia","global_code":"8CFXFJ96+R2"},"rating":0,"reference":"ChIJsfn6QkFPYA0RQfkDnwGtddY","types":["restaurant","food","point_of_interest","establishment"],"user_ratings_total":0},{"business_status":"OPERATIONAL","formatted_address":"Carrer dels Carreters, 18, 46950 Xirivella, Valencia","geometry":{"location":{"lat":39.4559621,"lng":-0.4390453},"viewport":{"northeast":{"lat":39.45734837989272,"lng":-0.4375957701072778},"southwest":{"lat":39.45464872010728,"lng":-0.4402954298927222}}},"icon":"https://maps.gstatic.com/mapfiles/place_api/icons/v1/png_71/restaurant-71.png","icon_background_color":"#FF9E67","icon_mask_base_uri":"https://maps.gstatic.com/mapfiles/place_api/icons/v2/restaurant_pinlet","name":"Daba","place_id":"ChIJ0exiDcVPYA0RxeUzyaC-3xY","plus_code":{"compound_code":"FH46+99 Xirivella","global_code":"8CFXFH46+99"},"rating":0,"reference":"ChIJ0exiDcVPYA0RxeUzyaC-3xY","types":["restaurant","food","point_of_interest","establishment"],"user_ratings_total":0}]