[{"business_status":"OPERATIONAL","formatted_address":"Stephanspl. 5a, 30171 Hannover","geometry":{"location":{"lat":52.36072069999999,"lng":9.7550525},"viewport":{"northeast":{"lat":52.36202627989272,"lng":9.756250379892723},"southwest":{"lat":52.35932662010728,"lng":9.75355072010728}}},"icon":"https://maps.gstatic.com/mapfiles/place_api/icons/v1/png_71/restaurant-71.png","icon_background_color":"#FF9E67","icon_mask_base_uri":"https://maps.gstatic.com/mapfiles/place_api/icons/v2/restaurant_pinlet","name":"Burger Box","opening_hours":{"open_now":true},"photos":[{"height":4128,"html_attributions":["<a href=\"https://maps.google.com/maps/contrib/108477520064799229784\">A Google User</a>"],"photo_reference":"AeJbb3ememepgHsNULl8YQkndmsHrMKQmrBeTrJquJb5UIwAolKsT2bUC8zRi7z3uU1mzyQbeMLp8dq514yz8W8sXRfuXDzjOXEJ1vPC7jP7RxCkAPSfdZAiLFT0llg1LrSBTPDNJxHghVvhcq2jZ42pqSy0xHubGOwowmy2azcco-CRWB4","width":3096}],"place_id":"ChIJlaIlP84LsEcRt-UvJBVMK-4","plus_code":{"compound_code":"9Q64+72 Hanover","global_code":"9F4F9Q64+72"},"rating":4.9,"reference":"ChIJlaIlP84LsEcRt-UvJBVMK-4","types":["meal_takeaway","restaurant","food","point_of_interest","establishment"],"user_ratings_total":100},{"business_status":"OPERATIONAL","formatted_address":"Kötnerholzweg 39, 30451 Hannover","geometry":{"location":{"lat":52.3740913,"lng":9.7046944},"viewport":{"northeast":{"lat":52.37546007989272,"lng":9.706185229892721},"southwest":{"lat":52.37276042010728,"lng":9.703485570107278}}},"icon":"https://maps.gstatic.com/mapfiles/place_api/icons/v1/png_71/restaurant-71.png","icon_background_color":"#FF9E67","icon_mask_base_uri":"https://maps.gstatic.com/mapfiles/place_api/icons/v2/restaurant_pinlet","name":"Doyum Döner - Burgerbote Hannover HALAL Food","opening_hours":{"open_now":true},"photos":[{"height":2620,"html_attributions":["<a href=\"https://maps.google.com/maps/contrib/114019695012697843748\">A Google User</a>"],"photo_reference":"AeJbb3eQX7seFd_5i7-Z2Ew1CN9wxkTwUA4nfpUwUfrUrWzFsDRHv2NmEWrnR2CwWu2Dn2zGFQ8h5WxNv9ujqFR0LUOzb9tCXqgMtbEGRe9WdgXvS9YTQvPQ3etTr5uDr8bwxYyIY8Eg1vnSHS_0RKEOpPJR7rmFcPau0Wzrh3hmNlMZ-8ME","width":4656}],"place_id":"ChIJvRxGPZx1sEcRg2HHmJrNnp4","plus_code":{"compound_code":"9PF3+JV Hanover","global_code":"9F4F9PF3+JV"},"rating":4.7,"reference":"ChIJvRxGPZx1sEcRg2HHmJrNnp4","types":["meal_takeaway","restaurant","food","point_of_interest","establishment"],"user_ratings_total":480},{"business_status":"OPERATIONAL","formatted_address":"Niki-de-Saint-Phalle-Promenade 22, 30159 Hannover","geometry":{"location":{"lat":52.3750314,"lng":9.739209899999999},"viewport":{"northeast":{"lat":52.37701602989272,"lng":9.740705979892724},"southwest":{"lat":52.37431637010728,"lng":9.73800632010728}}},"icon":"https://maps.gstatic.com/mapfiles/place_api/icons/v1/png_71/restaurant-71.png","icon_background_color":"#FF9E67","icon_mask_base_uri":"https://maps.gstatic.com/mapfiles/place_api/icons/v2/restaurant_pinlet","name":"Pommesglück Systemgastronomie GmbH","opening_hours":{"open_now":true},"photos":[{"height":3024,"html_attributions":["<a href=\"https://maps.google.com/maps/contrib/117422510141261025033\">Hussam Abu-nowar</a>"],"photo_reference":"AeJbb3f-zHZ3itKFN9LllFndDbsl8NQ9ZO_YMT67Bi5cjma8Cd-96fW1LFO-hhZqK1X65MWB0nrIwXKraSundHlDB9K0qveZVxXw7ZGBPNGS_rIXH-pCqoPiYQAclA52r6JmXUiN1YkwBwzEeUcAlJJ5isqz_zzAh0_xK0VMOqyCmAoVR8th","width":4032}],"place_id":"ChIJWVHAeJw5ZUERxMY5gk_EkhI","plus_code":{"compound_code":"9PGQ+2M Hanover","global_code":"9F4F9PGQ+2M"},"price_level":1,"rating":4.6,"reference":"ChIJWVHAeJw5ZUERxMY5gk_EkhI","types":["restaurant","food","point_of_interest","establishment"],"user_ratings_total":253},{"business_status":"OPERATIONAL","formatted_address":"Grabbestraße 3, 30165 Hannover","geometry":{"location":{"lat":52.3916134,"lng":9.7342864},"viewport":{"northeast":{"lat":52.39298647989272,"lng":9.73562352989272},"southwest":{"lat":52.39028682010728,"lng":9.732923870107276}}},"icon":"https://maps.gstatic.com/mapfiles/place_api/icons/v1/png_71/restaurant-71.png","icon_background_color":"#FF9E67","icon_mask_base_uri":"https://maps.gstatic.com/mapfiles/place_api/icons/v2/restaurant_pinlet","name":"Happy Falafel","opening_hours":{"open_now":true},"photos":[{"height":1812,"html_attributions":["<a href=\"https://maps.google.com/maps/contrib/104268334147085099054\">Namo Namonamo</a>"],"photo_reference":"AeJbb3dXTMm9OvRAFFfnaOVq9BChAYp0-CBT6N3zloZPwN5kRIbl5bj4HhUmD17k3PdFDeLhlNEHacl0azPiycRNsczrgfQCDAllJLfZOPd0VFqzQm_ueFaQb_ZYuXuZ99kZ5om6ZoDkCbG78en9KVzREHsug_zICpXmSAFqSaUi4ApvCtV3","width":3571}],"place_id":"ChIJhQjh8SVzsEcRLc2FIrKWmDY","plus_code":{"compound_code":"9PRM+JP Hanover","global_code":"9F4F9PRM+JP"},"price_level":1,"rating":4.6,"reference":"ChIJhQjh8SVzsEcRLc2FIrKWmDY","types":["restaurant","food","point_of_interest","establishment"],"user_ratings_total":234},{"business_status":"OPERATIONAL","formatted_address":"Niki-de-Saint-Phalle-Promenade 57, 30159 Hannover","geometry":{"location":{"lat":52.3764129,"lng":9.7409159},"viewport":{"northeast":{"lat":52.37756322989272,"lng":9.742490829892722},"southwest":{"lat":52.37486357010727,"lng":9.739791170107278}}},"icon":"https://maps.gstatic.com/mapfiles/place_api/icons/v1/png_71/restaurant-71.png","icon_background_color":"#FF9E67","icon_mask_base_uri":"https://maps.gstatic.com/mapfiles/place_api/icons/v2/restaurant_pinlet","name":"HOTBOXXX","opening_hours":{"open_now":true},"photos":[{"height":2466,"html_attributions":["<a href=\"https://maps.google.com/maps/contrib/106793529838259694121\">Alex</a>"],"photo_reference":"AeJbb3fu_NosoYlHX_F6cmf-jkeSbCLKkyvRxDvG8SJwNHX6rtpl8B-HR_YHyysgq6bnXCsNKThupwVJ1ekNOwj3cftz5g94xtZVgSTYSQFP5X2bpFNoPIOdDMIui88w6Ij4oYOF1PVoi7Hhgweu2c1ZRoL92ohK5CbKPkoLhBpzsbdKPaE8","width":1929}],"place_id":"ChIJkafvBjN1sEcRtSoWFNRazwE","plus_code":{"compound_code":"9PGR+H9 Hanover","global_code":"9F4F9PGR+H9"},"rating":4.6,"reference":"ChIJkafvBjN1sEcRtSoWFNRazwE","types":["restaurant","food","point_of_interest","establishment"],"user_ratings_total":58},{"business_status":"OPERATIONAL","formatted_address":"Seilwinderstraße 3, 30159 Hannover","geometry":{"location":{"lat":52.3724584,"lng":9.7362448},"viewport":{"northeast":{"lat":52.37374357989272,"lng":9.737151629892722},"southwest":{"lat":52.37104392010728,"lng":9.734451970107278}}},"icon":"https://maps.gstatic.com/mapfiles/place_api/icons/v1/png_71/restaurant-71.png","icon_background_color":"#FF9E67","icon_mask_base_uri":"https://maps.gstatic.com/mapfiles/place_api/icons/v2/restaurant_pinlet","name":"FOOD BROTHER","opening_hours":{"open_now":true},"photos":[{"height":3181,"html_attributions":["<a href=\"https://maps.google.com/maps/contrib/105776974082127128153\">Marek .Jančo</a>"],"photo_reference":"AeJbb3dIwBF7BTA4qFhvlCNVQLmfBx7HS1M93lvGvNhOomPmhudvNj0TkR_S_TLxHuX9lprzFjV8oQpUqoD3zFx1OVWrKR4w5Hdme4EGi3ZA0QrV9WUj45TY10SNeV8shUI-q1nzEipAhIH9zF2_o7skyoxrglojntr9z_1he-YFOdT0Hkdd","width":2638}],"place_id":"ChIJTYo8oLB0sEcRtBn6zSDm_Oc","plus_code":{"compound_code":"9PCP+XF Hanover","global_code":"9F4F9PCP+XF"},"price_level":2,"rating":4.5,"reference":"ChIJTYo8oLB0sEcRtBn6zSDm_Oc","types":["restaurant","food","point_of_interest","establishment"],"user_ratings_total":1522},{"business_status":"OPERATIONAL","formatted_address":"Nikolaistraße 1, 30159 Hannover","geometry":{"location":{"lat":52.3798712,"lng":9.732507},"viewport":{"northeast":{"lat":52.38123092989271,"lng":9.73396707989272},"southwest":{"lat":52.37853127010727,"lng":9.731267420107276}}},"icon":"https://maps.gstatic.com/mapfiles/place_api/icons/v1/png_71/restaurant-71.png","icon_background_color":"#FF9E67","icon_mask_base_uri":"https://maps.gstatic.com/mapfiles/place_api/icons/v2/restaurant_pinlet","name":"Lindenblatt Burger-Bar","opening_hours":{"open_now":true},"photos":[{"height":1842,"html_attributions":["<a href=\"https://maps.google.com/maps/contrib/105552730992803198120\">Markus Wiese</a>"],"photo_reference":"AeJbb3eYGZ0s2vIV9l3wcdpkznAMyszSWS_WE7pnOncqqxncbKsB0_IMNM4-xxC5r2Fi4hzFp3n2-7eLWQbSiDiIQgVhBYS9r1SdL97fmvNL1kZKNIPV0gZyL3k0BPg-xK2g0lYwr4rhEGZSVQk0KuwPdwdLVZJBX6YR5DIaeX513peKq6cS","width":2457}],"place_id":"ChIJFwA7e6R0sEcREui_qzneT2o","plus_code":{"compound_code":"9PHJ+WX Hanover","global_code":"9F4F9PHJ+WX"},"price_level":2,"rating":4.5,"reference":"ChIJFwA7e6R0sEcREui_qzneT2o","types":["restaurant","food","point_of_interest","establishment"],"user_ratings_total":1312},{"business_status":"OPERATIONAL","formatted_address":"Kurzer Kamp 32, 30926 Seelze","geometry":{"location":{"lat":52.3947517,"lng":9.632335699999999},"viewport":{"northeast":{"lat":52.39610842989271,"lng":9.633623579892722},"southwest":{"lat":52.39340877010727,"lng":9.630923920107277}}},"icon":"https://maps.gstatic.com/mapfiles/place_api/icons/v1/png_71/restaurant-71.png","icon_background_color":"#FF9E67","icon_mask_base_uri":"https://maps.gstatic.com/mapfiles/place_api/icons/v2/restaurant_pinlet","name":"Manhattan Burger Hannover","opening_hours":{"open_now":true},"photos":[{"height":2730,"html_attributions":["<a href=\"https://maps.google.com/maps/contrib/117433858117186895656\">A Google User</a>"],"photo_reference":"AeJbb3cSWDl1HXce4JWgZ-h2lXOnKzayze-lDz6yn8oTgj6lZyDXHtpYZBb2mmrf99BfmTdPZ3foNTTpw_52zDmjSBX6f-pSV55RcwtamHpDoQrEgyl28NPWgt4wRi4g8imLRh5F1c0WV4a5uINgGI0yhkqDlMCT9WX48EvOPJHfIbYsacTe","width":4096}],"place_id":"ChIJUScPR2x3sEcRIiP0fKk4-kg","plus_code":{"compound_code":"9JVJ+WW Seelze","global_code":"9F4F9JVJ+WW"},"price_level":2,"rating":4.5,"reference":"ChIJUScPR2x3sEcRIiP0fKk4-kg","types":["restaurant","food","point_of_interest","establishment"],"user_ratings_total":427},{"business_status":"OPERATIONAL","formatted_address":"Wunstorfer Landstraße 50, 30453 Hannover","geometry":{"location":{"lat":52.3845348,"lng":9.665949099999999},"viewport":{"northeast":{"lat":52.38584562989271,"lng":9.667294629892721},"southwest":{"lat":52.38314597010727,"lng":9.664594970107277}}},"icon":"https://maps.gstatic.com/mapfiles/place_api/icons/v1/png_71/restaurant-71.png","icon_background_color":"#FF9E67","icon_mask_base_uri":"https://maps.gstatic.com/mapfiles/place_api/icons/v2/restaurant_pinlet","name":"Lany Imbiss","opening_hours":{"open_now":true},"photos":[{"height":4032,"html_attributions":["<a href=\"https://maps.google.com/maps/contrib/107251684191171471214\">Mark Lange</a>"],"photo_reference":"AeJbb3dxCj_FMOl1IepEw4_9cvNll5hvKvTfimF94S28oKXHkm6MI_GWW3xSBkvXNdCCIHkghczfE1HXXnWXC7nnrsyzd4SS8fnsyhdl1HLNYzt5zcRlh9Vu81DnsnzWiYDF1hMgjl6x-X4pk9RJT1pcGRevulJXDDRWn_lmFS5qx13R1IMZ","width":3024}],"place_id":"ChIJ28UaGQ10sEcRCHs3BEUzYR0","plus_code":{"compound_code":"9MM8+R9 Hanover","global_code":"9F4F9MM8+R9"},"price_level":1,"rating":4.5,"reference":"ChIJ28UaGQ10sEcRCHs3BEUzYR0","types":["meal_takeaway","restaurant","food","point_of_interest","establishment"],"user_ratings_total":191},{"business_status":"OPERATIONAL","formatted_address":"Lister Pl. 1, 30163 Hannover","geometry":{"location":{"lat":52.388611,"lng":9.7508229},"viewport":{"northeast":{"lat":52.38998987989272,"lng":9.752068129892722},"southwest":{"lat":52.38729022010727,"lng":9.749368470107278}}},"icon":"https://maps.gstatic.com/mapfiles/place_api/icons/v1/png_71/restaurant-71.png","icon_background_color":"#FF9E67","icon_mask_base_uri":"https://maps.gstatic.com/mapfiles/place_api/icons/v2/restaurant_pinlet","name":"Lister Döner","opening_hours":{"open_now":true},"photos":[{"height":3120,"html_attributions":["<a href=\"https://maps.google.com/maps/contrib/106004820258125883899\">Jedrzej Tymczuk</a>"],"photo_reference":"AeJbb3fnZZtDmi_7d_Zb6F5HZQwZB2OjWlehmRIYuLRNiq0KQPdK5RmHuBuq9agsrrabosucSXSEkpe_7GNDiWpgXFaR-76booYiWRy6f2Qiw355P8Ooy3654lCvCG64pjBeJ_MhPG9EfMrYFyjHJlDN6nKWRTBZ2h8SZ1xWPix1uEWEgCkh","width":4160}],"place_id":"ChIJX4oHy1VzsEcRsDnGBkHV0Uw","plus_code":{"compound_code":"9QQ2+C8 Hanover","global_code":"9F4F9QQ2+C8"},"price_level":1,"rating":4.4,"reference":"ChIJX4oHy1VzsEcRsDnGBkHV0Uw","types":["restaurant","food","point_of_interest","establishment"],"user_ratings_total":1906},{"business_status":"OPERATIONAL","formatted_address":"Nelkenstraße 1, 30167 Hannover","geometry":{"location":{"lat":52.384031,"lng":9.7249748},"viewport":{"northeast":{"lat":52.38532207989272,"lng":9.726321029892722},"southwest":{"lat":52.38262242010727,"lng":9.723621370107278}}},"icon":"https://maps.gstatic.com/mapfiles/place_api/icons/v1/png_71/restaurant-71.png","icon_background_color":"#FF9E67","icon_mask_base_uri":"https://maps.gstatic.com/mapfiles/place_api/icons/v2/restaurant_pinlet","name":"Locorito","opening_hours":{"open_now":true},"photos":[{"height":5472,"html_attributions":["<a href=\"https://maps.google.com/maps/contrib/103803946646889082837\">phill</a>"],"photo_reference":"AeJbb3dd8pBgq4k91P40NaVx2_oJF8A-7uArIL3y_6OclDf5x4PSuhDWj1tsHgHe8H-M_ixEMMwJsdlgp905HE_kgKHAdRLnEdmfT3mkC-ZFdqpp08M4F_uF61qLY4wObQY88LJKoRkcFU1dbfnMj6qknblIlYr7RUIZpwIs3Oa2Vvdc7B-5","width":7296}],"place_id":"ChIJjxvWXJ90sEcRjcFPYUpvmLA","plus_code":{"compound_code":"9PMF+JX Hanover","global_code":"9F4F9PMF+JX"},"price_level":2,"rating":4.4,"reference":"ChIJjxvWXJ90sEcRjcFPYUpvmLA","types":["restaurant","food","point_of_interest","establishment"],"user_ratings_total":649},{"business_status":"OPERATIONAL","formatted_address":"Eisenstraße 17, 30916 Isernhagen","geometry":{"location":{"lat":52.4852783,"lng":9.810869},"viewport":{"northeast":{"lat":52.48644902989272,"lng":9.812374329892723},"southwest":{"lat":52.48374937010728,"lng":9.80967467010728}}},"icon":"https://maps.gstatic.com/mapfiles/place_api/icons/v1/png_71/restaurant-71.png","icon_background_color":"#FF9E67","icon_mask_base_uri":"https://maps.gstatic.com/mapfiles/place_api/icons/v2/restaurant_pinlet","name":"Burger Bro´s Isernhagen","opening_hours":{"open_now":true},"photos":[{"height":2268,"html_attributions":["<a href=\"https://maps.google.com/maps/contrib/105418959876750457033\">A Google User</a>"],"photo_reference":"AeJbb3f8XNbg7R5SE_9FI6tmo6ilSOYl-XnApP2UqwvmOt6a3VGT4IOFuvWSRqPlIspMyaCI3AzO7ksfgxOmjqVc5HXDFuWLYPC8N_0ADaubFRtxXAFYhqDAnXLWCW5hluLM84tiM4wKOFXwAAIPZC_cplK9LKPVBCVy74IDH9mIlPTb71NC","width":4032}],"place_id":"ChIJgQZMPbkSsEcR3MJdVx9Iheg","plus_code":{"compound_code":"FRP6+48 Isernhagen","global_code":"9F4FFRP6+48"},"rating":4.4,"reference":"ChIJgQZMPbkSsEcR3MJdVx9Iheg","types":["meal_takeaway","restaurant","food","point_of_interest","establishment"],"user_ratings_total":181},{"business_status":"OPERATIONAL","formatted_address":"Hildesheimer Str. 83, 30880 Laatzen","geometry":{"location":{"lat":52.31445679999999,"lng":9.792797},"viewport":{"northeast":{"lat":52.31578992989272,"lng":9.794103679892721},"southwest":{"lat":52.31309027010728,"lng":9.791404020107278}}},"icon":"https://maps.gstatic.com/mapfiles/place_api/icons/v1/png_71/restaurant-71.png","icon_background_color":"#FF9E67","icon_mask_base_uri":"https://maps.gstatic.com/mapfiles/place_api/icons/v2/restaurant_pinlet","name":"Mels Diner","opening_hours":{"open_now":true},"photos":[{"height":4160,"html_attributions":["<a href=\"https://maps.google.com/maps/contrib/112428884908508004997\">Alexander Gottschall</a>"],"photo_reference":"AeJbb3fbvRloosZcoBa--Lek8YO_EjZLBDPX9RJ4pNf-3AoDvSg1GL4LC0w-jYZ3XKLSw-3ul2LJDb17fFGYrIzeqVYFHJZiJqFlbtkUT7qqLtBfUvFvZhcI7EF_STK48voSPhZmRuZrcAppKcCpoz9HARcLeBUqDDOEppxurzWWiC4EDqc","width":2340}],"place_id":"ChIJT65FEWEKsEcRkcOFUE-qJcM","plus_code":{"compound_code":"8Q7V+Q4 Laatzen","global_code":"9F4F8Q7V+Q4"},"price_level":2,"rating":4.3,"reference":"ChIJT65FEWEKsEcRkcOFUE-qJcM","types":["restaurant","food","point_of_interest","establishment"],"user_ratings_total":2738},{"business_status":"OPERATIONAL","formatted_address":"Heiligerstraße 4, 30159 Hannover","geometry":{"location":{"lat":52.3741968,"lng":9.7356517},"viewport":{"northeast":{"lat":52.37563337989272,"lng":9.7364194},"southwest":{"lat":52.37293372010728,"lng":9.7335054}}},"icon":"https://maps.gstatic.com/mapfiles/place_api/icons/v1/png_71/restaurant-71.png","icon_background_color":"#FF9E67","icon_mask_base_uri":"https://maps.gstatic.com/mapfiles/place_api/icons/v2/restaurant_pinlet","name":"Duke Burger","opening_hours":{"open_now":true},"photos":[{"height":3120,"html_attributions":["<a href=\"https://maps.google.com/maps/contrib/111332396847313840243\">Nana Yau</a>"],"photo_reference":"AeJbb3ffw8FBJ1yxxO_kk9qAok8VF1FZO1gonSFHy96MY1vTE8I4gS5lrQmTYUgcSON_c0qEL8mfpwNUNdx6WuMz1UKT9plndJ-DRAaFSAcuEe_JgbulRwFPX-SK3WgoMzVZCSd0ABlvFGiHBUC9cO4FIdxu90A9aTMzMd3h84SWKTGVPcZ-","width":4160}],"place_id":"ChIJn6SN8St1sEcR96uqBvQWoRI","plus_code":{"compound_code":"9PFP+M7 Hanover","global_code":"9F4F9PFP+M7"},"rating":4.3,"reference":"ChIJn6SN8St1sEcR96uqBvQWoRI","types":["restaurant","food","point_of_interest","establishment"],"user_ratings_total":1097},{"business_status":"OPERATIONAL","formatted_address":"Hildesheimer Str. 209, 30519 Hannover","geometry":{"location":{"lat":52.34488,"lng":9.763029999999999},"viewport":{"northeast":{"lat":52.34616227989272,"lng":9.764269179892722},"southwest":{"lat":52.34346262010727,"lng":9.761569520107278}}},"icon":"https://maps.gstatic.com/mapfiles/place_api/icons/v1/png_71/restaurant-71.png","icon_background_color":"#FF9E67","icon_mask_base_uri":"https://maps.gstatic.com/mapfiles/place_api/icons/v2/restaurant_pinlet","name":"Döner King","opening_hours":{"open_now":true},"photos":[{"height":3024,"html_attributions":["<a href=\"https://maps.google.com/maps/contrib/106018881384148412536\">Mikael Gyllhamn</a>"],"photo_reference":"AeJbb3eIo7rV9xd93AH86-Db_uVAHnXxmh8btR1-8DO_ypw00nQNkGv7KHyYUbkiHt-ILj0YWO7ayLZQXDmEvU-Fcga9Q8RXiZrPqycwb2C3inAws0Qc_9UaMVot_70lJ5n8-vMkVZZXWg0C8E9DbCounFL0PiQYLqGwBKINOK_QFK4xHSzF","width":4032}],"place_id":"ChIJwdaQKSELsEcRrpcjxO0HlV8","plus_code":{"compound_code":"8QV7+X6 Hanover","global_code":"9F4F8QV7+X6"},"price_level":1,"rating":4.3,"reference":"ChIJwdaQKSELsEcRrpcjxO0HlV8","types":["restaurant","food","point_of_interest","establishment"],"user_ratings_total":735},{"business_status":"OPERATIONAL","formatted_address":"Podbielskistraße 344, 30655 Hannover","geometry":{"location":{"lat":52.4050488,"lng":9.798247},"viewport":{"northeast":{"lat":52.40639217989272,"lng":9.799402879892721},"southwest":{"lat":52.40369252010728,"lng":9.796703220107277}}},"icon":"https://maps.gstatic.com/mapfiles/place_api/icons/v1/png_71/restaurant-71.png","icon_background_color":"#FF9E67","icon_mask_base_uri":"https://maps.gstatic.com/mapfiles/place_api/icons/v2/restaurant_pinlet","name":"Subway","opening_hours":{"open_now":true},"photos":[{"height":4032,"html_attributions":["<a href=\"https://maps.google.com/maps/contrib/105716599748076376224\">Eiko Wagenknecht</a>"],"photo_reference":"AeJbb3fYgcr8zzZo-aT-z2c9Db0Be8UesupKjkP_fwkBQkbtfOgpfytvYmCXSDhrVJNVxZApc9qlfzZG5P1tmTDsHomTXZdiYy5wSVCZL9nfGWDyM_DIk2Dv0NgYH7UasfIbNN2i_V9oOktk8Uc3D5l2U__LB02-fAKX3ly5elIKC9aIfPM3","width":3024}],"place_id":"ChIJlbaPZ-sMsEcR6-W3R8AKXjg","plus_code":{"compound_code":"CQ4X+27 Hanover","global_code":"9F4FCQ4X+27"},"price_level":2,"rating":4.1,"reference":"ChIJlbaPZ-sMsEcR6-W3R8AKXjg","types":["meal_takeaway","restaurant","food","point_of_interest","establishment"],"user_ratings_total":508},{"business_status":"OPERATIONAL","formatted_address":"Limmerstraße 13, 30451 Hannover","geometry":{"location":{"lat":52.3719073,"lng":9.7113487},"viewport":{"northeast":{"lat":52.37330677989272,"lng":9.712619929892721},"southwest":{"lat":52.37060712010727,"lng":9.709920270107277}}},"icon":"https://maps.gstatic.com/mapfiles/place_api/icons/v1/png_71/restaurant-71.png","icon_background_color":"#FF9E67","icon_mask_base_uri":"https://maps.gstatic.com/mapfiles/place_api/icons/v2/restaurant_pinlet","name":"Manhattan Burger","opening_hours":{"open_now":true},"photos":[{"height":2159,"html_attributions":["<a href=\"https://maps.google.com/maps/contrib/111837558412115384940\">A Google User</a>"],"photo_reference":"AeJbb3dSUZK8RJB35jLndOE0IoDgGUVUURZiBExSojJEEQkFksPMxpmC7TiFqQHWjoXlT-JjfuN4xZNHrMhVAmrboc5mo4PVFuzn3AVXTk04_Kpi9s_sDlhWTR4bSpKMxteaJvR00G2PM5mqYqH84KGNtV6xG7Swa_bROpyj52jRaQigNdT6","width":3840}],"place_id":"ChIJ65SZ8eB1sEcR6WfWUTpZr5M","plus_code":{"compound_code":"9PC6+QG Hanover","global_code":"9F4F9PC6+QG"},"price_level":2,"rating":4.1,"reference":"ChIJ65SZ8eB1sEcR6WfWUTpZr5M","types":["restaurant","food","point_of_interest","establishment"],"user_ratings_total":391},{"business_status":"OPERATIONAL","formatted_address":"An d. Puderzuckermühle 1, 31275 Lehrte","geometry":{"location":{"lat":52.3749733,"lng":9.9795163},"viewport":{"northeast":{"lat":52.37640352989273,"lng":9.980869729892722},"southwest":{"lat":52.37370387010728,"lng":9.978170070107279}}},"icon":"https://maps.gstatic.com/mapfiles/place_api/icons/v1/png_71/restaurant-71.png","icon_background_color":"#FF9E67","icon_mask_base_uri":"https://maps.gstatic.com/mapfiles/place_api/icons/v2/restaurant_pinlet","name":"Subway","opening_hours":{"open_now":true},"photos":[{"height":2736,"html_attributions":["<a href=\"https://maps.google.com/maps/contrib/118021773959672180739\">Diana Peuschel</a>"],"photo_reference":"AeJbb3eIaJSmAMUFnQsFBaCLf-dpXxEqdj_jovbjdcYYyRcENTJs1zSkGGKnYCviWTBiJ3Zu3ZRjCujcutWoDChDCCSdJDrAvpBgPoJ2eYITpad6f0BMU5TJ_Lge8EZi22vZf5gUTDpYp5sR08wZVeNH6WgbAvg8CKum69D4uHulw-3xXyPp","width":3648}],"place_id":"ChIJzwNQAlcPsEcR5xikD_Ovv2A","plus_code":{"compound_code":"9XFH+XR Lehrte","global_code":"9F4F9XFH+XR"},"price_level":2,"rating":4,"reference":"ChIJzwNQAlcPsEcR5xikD_Ovv2A","types":["meal_takeaway","restaurant","food","point_of_interest","establishment"],"user_ratings_total":745},{"business_status":"OPERATIONAL","formatted_address":"Goethestraße 37, 30169 Hannover","geometry":{"location":{"lat":52.37323379999999,"lng":9.7257097},"viewport":{"northeast":{"lat":52.37462437989272,"lng":9.727040779892722},"southwest":{"lat":52.37192472010728,"lng":9.724341120107278}}},"icon":"https://maps.gstatic.com/mapfiles/place_api/icons/v1/png_71/restaurant-71.png","icon_background_color":"#FF9E67","icon_mask_base_uri":"https://maps.gstatic.com/mapfiles/place_api/icons/v2/restaurant_pinlet","name":"CRUNCHY","opening_hours":{"open_now":true},"photos":[{"height":750,"html_attributions":["<a href=\"https://maps.google.com/maps/contrib/117769661492054915970\">A Google User</a>"],"photo_reference":"AeJbb3cUKoditImycPEV0PJ0_g8ksaXUSei-JQrPKcfZ8-UOvlVve1WfCxEv8Px7vUtwqwquka8UACUx8eUxXu-UiXsh_KBuCVbvAzuSSBWrmpCdt43ei2VClIwQ6EUiCXUHy_vThWoif6yAmquLYfxES4xoOI_Y8KDLG_PAvjytxyqcqZGY","width":774}],"place_id":"ChIJe1r2NLx0sEcRcK9DK5S188A","plus_code":{"compound_code":"9PFG+77 Hanover","global_code":"9F4F9PFG+77"},"rating":4,"reference":"ChIJe1r2NLx0sEcRcK9DK5S188A","types":["restaurant","food","point_of_interest","establishment"],"user_ratings_total":441},{"business_status":"OPERATIONAL","formatted_address":"Engelbosteler Damm 7, 30167 Hannover","geometry":{"location":{"lat":52.3825182,"lng":9.7251712},"viewport":{"northeast":{"lat":52.38389577989272,"lng":9.726689129892723},"southwest":{"lat":52.38119612010728,"lng":9.723989470107279}}},"icon":"https://maps.gstatic.com/mapfiles/place_api/icons/v1/png_71/restaurant-71.png","icon_background_color":"#FF9E67","icon_mask_base_uri":"https://maps.gstatic.com/mapfiles/place_api/icons/v2/restaurant_pinlet","name":"burgerme","opening_hours":{"open_now":true},"photos":[{"height":3024,"html_attributions":["<a href=\"https://maps.google.com/maps/contrib/108456300535874955776\">A Google User</a>"],"photo_reference":"AeJbb3dpfBR4Lp0kSwPTcqtnuK5HPilYwILUVtEYVKXH9TbtXRhcE_zdaJUBId4vOHzATUdL4yVrTYfMd6jDtHDclPB_oGBmptz0QsB4CdnfDuxUW3WqiEMNlriZGVcA3hvJ6eqjy5WgEqISEid4JbH0lmnjbO-zwvr0C9pNDmhoxNfSGviu","width":4032}],"place_id":"ChIJL3pvB6J0sEcRJtL14JXytSA","plus_code":{"compound_code":"9PMG+23 Hanover","global_code":"9F4F9PMG+23"},"price_level":2,"rating":4,"reference":"ChIJL3pvB6J0sEcRJtL14JXytSA","types":["meal_delivery","meal_takeaway","restaurant","food","point_of_interest","establishment"],"user_ratings_total":360},{"business_status":"OPERATIONAL","formatted_address":"Hans-Böckler-Straße 60-66, 30851 Langenhagen","geometry":{"location":{"lat":52.42990529999999,"lng":9.7172141},"viewport":{"northeast":{"lat":52.43107837989272,"lng":9.71819627989272},"southwest":{"lat":52.42837872010728,"lng":9.715496620107276}}},"icon":"https://maps.gstatic.com/mapfiles/place_api/icons/v1/png_71/restaurant-71.png","icon_background_color":"#FF9E67","icon_mask_base_uri":"https://maps.gstatic.com/mapfiles/place_api/icons/v2/restaurant_pinlet","name":"Papa's Fast Food","opening_hours":{"open_now":true},"photos":[{"height":2128,"html_attributions":["<a href=\"https://maps.google.com/maps/contrib/116557814011517820433\">Theodor Fritzke</a>"],"photo_reference":"AeJbb3es4LsOUwHY4gKVfZ2wOZQLbgtjOKSYdy_unhqJ8GF312FeWxzbW3mlWA0Dy2J3w9wMvr88KmXAee-yEOGe3RVWesYoBjQfE5snk_qrWWJksYNSA-qIL7U34GNFE1qA0_2fxBOt0cP9IgDRA0K_bfC-jymIbYqHdMhn21fzvuGz_It0","width":4608}],"place_id":"ChIJd_TBsQFzsEcRYmzq00ZUS38","plus_code":{"compound_code":"CPH8+XV Langenhagen","global_code":"9F4FCPH8+XV"},"rating":4,"reference":"ChIJd_TBsQFzsEcRYmzq00ZUS38","types":["meal_takeaway","restaurant","food","point_of_interest","establishment"],"user_ratings_total":44},{"business_status":"OPERATIONAL","formatted_address":"Vahrenwalder Str. 272, 30179 Hannover","geometry":{"location":{"lat":52.4163043,"lng":9.734332},"viewport":{"northeast":{"lat":52.41761442989272,"lng":9.735824279892721},"southwest":{"lat":52.41491477010728,"lng":9.733124620107278}}},"icon":"https://maps.gstatic.com/mapfiles/place_api/icons/v1/png_71/restaurant-71.png","icon_background_color":"#FF9E67","icon_mask_base_uri":"https://maps.gstatic.com/mapfiles/place_api/icons/v2/restaurant_pinlet","name":"Kentucky Fried Chicken","opening_hours":{"open_now":true},"photos":[{"height":3840,"html_attributions":["<a href=\"https://maps.google.com/maps/contrib/110871696493387236674\">Mikhail Yasnev</a>"],"photo_reference":"AeJbb3ern0fy-hBYm3osHYi5opxc3vODYBS3wBfQvVWwgb4IORNUqY0h17w2h8-EwB0trni0kO2sOcITZQFd4gLGw-tTMrZ9tmEMeYDEh90dj1QhXHA7OaKajvDYIO7ur4pDzGAP-FbyweJq8UyVgmJL66Yzh04-ARayPmMZ0jxEEBgioaD9","width":5120}],"place_id":"ChIJbyx5UBZzsEcRI8feDLXlGEA","plus_code":{"compound_code":"CP8M+GP Hanover","global_code":"9F4FCP8M+GP"},"price_level":2,"rating":3.9,"reference":"ChIJbyx5UBZzsEcRI8feDLXlGEA","types":["restaurant","food","point_of_interest","establishment"],"user_ratings_total":1967},{"business_status":"OPERATIONAL","formatted_address":"Opelstraße 8, 30916 Isernhagen","geometry":{"location":{"lat":52.4238689,"lng":9.8370259},"viewport":{"northeast":{"lat":52.42541277989271,"lng":9.83824457989272},"southwest":{"lat":52.42271312010727,"lng":9.835544920107276}}},"icon":"https://maps.gstatic.com/mapfiles/place_api/icons/v1/png_71/restaurant-71.png","icon_background_color":"#FF9E67","icon_mask_base_uri":"https://maps.gstatic.com/mapfiles/place_api/icons/v2/restaurant_pinlet","name":"Kentucky Fried Chicken","opening_hours":{"open_now":true},"photos":[{"height":3840,"html_attributions":["<a href=\"https://maps.google.com/maps/contrib/110871696493387236674\">Mikhail Yasnev</a>"],"photo_reference":"AeJbb3eord7Z0Qnzp3NBt34-hGK8WQ5_bo7W6Yv8PNbOjvgO4Cjp7-LKeq-0bjc5BiN_5UIHGKoiVVETfieqMYPmNB7NOWTUo0gGDnoJyaPD_0iLOHzTd6HwXNxxinkZ_4blqapGY7_KJS2nCNOQiH9xfW3c39dA7Xl8EliCmxPWEZYmRXae","width":5120}],"place_id":"ChIJ2TDk-qwNsEcRsx44RE327P8","plus_code":{"compound_code":"CRFP+GR Isernhagen","global_code":"9F4FCRFP+GR"},"price_level":2,"rating":3.9,"reference":"ChIJ2TDk-qwNsEcRsx44RE327P8","types":["restaurant","food","point_of_interest","establishment"],"user_ratings_total":1152},{"business_status":"OPERATIONAL","formatted_address":"Georgspl. 12, 30159 Hannover","geometry":{"location":{"lat":52.36935399999999,"lng":9.7427282},"viewport":{"northeast":{"lat":52.37074212989272,"lng":9.74420227989272},"southwest":{"lat":52.36804247010728,"lng":9.741502620107276}}},"icon":"https://maps.gstatic.com/mapfiles/place_api/icons/v1/png_71/restaurant-71.png","icon_background_color":"#FF9E67","icon_mask_base_uri":"https://maps.gstatic.com/mapfiles/place_api/icons/v2/restaurant_pinlet","name":"Subway","opening_hours":{"open_now":true},"photos":[{"height":3024,"html_attributions":["<a href=\"https://maps.google.com/maps/contrib/108195231868800886189\">Piotr Kos</a>"],"photo_reference":"AeJbb3f-B2YwNghsLNCV1KReykRoLx97ps6Co811nIgexbJsNtEoqVnrqDEAKUpMFlP0LoEBViZPuyu_HdGkATk86qq9gGRmz57xpH7VBr1_ufU5CMKYvtZ0iWbBJJwG2Jf2UIx1rIXbsink71WLhSWE6ppo2u9xPXmzcy28iSoMdceBufwZ","width":4032}],"place_id":"ChIJJevlF7R0sEcRXq9d0oIb_Uo","plus_code":{"compound_code":"9P9V+P3 Hanover","global_code":"9F4F9P9V+P3"},"price_level":2,"rating":3.9,"reference":"ChIJJevlF7R0sEcRXq9d0oIb_Uo","types":["meal_takeaway","restaurant","food","point_of_interest","establishment"],"user_ratings_total":660},{"business_status":"OPERATIONAL","formatted_address":"Vahrenwalder Str. 269A, 30179 Hannover","geometry":{"location":{"lat":52.4165512,"lng":9.733210699999999},"viewport":{"northeast":{"lat":52.41784987989273,"lng":9.734618079892721},"southwest":{"lat":52.41515022010729,"lng":9.731918420107277}}},"icon":"https://maps.gstatic.com/mapfiles/place_api/icons/v1/png_71/restaurant-71.png","icon_background_color":"#FF9E67","icon_mask_base_uri":"https://maps.gstatic.com/mapfiles/place_api/icons/v2/restaurant_pinlet","name":"Subway","opening_hours":{"open_now":true},"photos":[{"height":3024,"html_attributions":["<a href=\"https://maps.google.com/maps/contrib/102320235093926478975\">A Google User</a>"],"photo_reference":"AeJbb3esY8tBbKwUL9GW6XrdzObEGS7rTzjmNP2BEngdUUBqJpRFB1qnd8OkFBfxjN0L0G23MzI6_g2GvlyokNsCtlxWtS3MC2-ckKgvJJeSMEhNHgNbxO4lYgNVTmSShba1enhZ5TK9lZNG9Ae-rgkz3pMMl9F7Tuv7xePW94XQPxGoRaI","width":4032}],"place_id":"ChIJIyJX9hZzsEcRlFlBxJHfQ7o","plus_code":{"compound_code":"CP8M+J7 Hanover","global_code":"9F4FCP8M+J7"},"price_level":2,"rating":3.9,"reference":"ChIJIyJX9hZzsEcRlFlBxJHfQ7o","types":["meal_takeaway","restaurant","food","point_of_interest","establishment"],"user_ratings_total":644},{"business_status":"OPERATIONAL","formatted_address":"Berliner Allee 19, 30159 Hannover","geometry":{"location":{"lat":52.3767906,"lng":9.7501758},"viewport":{"northeast":{"lat":52.37802622989272,"lng":9.751450529892724},"southwest":{"lat":52.37532657010728,"lng":9.74875087010728}}},"icon":"https://maps.gstatic.com/mapfiles/place_api/icons/v1/png_71/restaurant-71.png","icon_background_color":"#FF9E67","icon_mask_base_uri":"https://maps.gstatic.com/mapfiles/place_api/icons/v2/restaurant_pinlet","name":"Subway","opening_hours":{"open_now":true},"photos":[{"height":3024,"html_attributions":["<a href=\"https://maps.google.com/maps/contrib/114177440049853087528\">Kreativagentur Ximpix</a>"],"photo_reference":"AeJbb3eKhjtt7gwsSAoitr-1IeJxIJZm96RUYFH4QUTgM7CgrTid8at-fFT96tuWsvGa5k6FBq5vGxRS9dRBUi9pGVpUND-X88GvjnjmlVLdrr6fFwiaORQGh9Xhp9Bc2qMdY5jWxKtRFGjqclBLFh0IPoQchrN8vMET5pC9psfrAP0tJT5z","width":4032}],"place_id":"ChIJEfQ7Fa10sEcR3CTlOasVy0Q","plus_code":{"compound_code":"9QG2+P3 Hanover","global_code":"9F4F9QG2+P3"},"price_level":2,"rating":3.9,"reference":"ChIJEfQ7Fa10sEcR3CTlOasVy0Q","types":["meal_takeaway","restaurant","food","point_of_interest","establishment"],"user_ratings_total":508},{"business_status":"OPERATIONAL","formatted_address":"Limmerstraße 1, 30451 Hannover","geometry":{"location":{"lat":52.37130819999999,"lng":9.7131384},"viewport":{"northeast":{"lat":52.37264007989272,"lng":9.714642429892722},"southwest":{"lat":52.36994042010728,"lng":9.711942770107278}}},"icon":"https://maps.gstatic.com/mapfiles/place_api/icons/v1/png_71/restaurant-71.png","icon_background_color":"#FF9E67","icon_mask_base_uri":"https://maps.gstatic.com/mapfiles/place_api/icons/v2/restaurant_pinlet","name":"Essencity","opening_hours":{"open_now":true},"photos":[{"height":1600,"html_attributions":["<a href=\"https://maps.google.com/maps/contrib/101778392474813775641\">A Google User</a>"],"photo_reference":"AeJbb3ewfnfqIoBA1XKTbOdrxcyPimC5B198-TuQ8YzuD28-1uE4bW3geAA5AdZNHEiiu96y4LLaVwacWIZsgdQmFxiPdLmfJxR4x8hJ3d1FVKfmRbgpK4E59-HmCadRudXIPiVaoo7czKCMNNaEAS-i8VJlkXz6cAsyxxHsphhLejW9gOhm","width":1600}],"place_id":"ChIJQ0etObF1sEcR9WxxT07e16c","plus_code":{"compound_code":"9PC7+G7 Hanover","global_code":"9F4F9PC7+G7"},"rating":3.9,"reference":"ChIJQ0etObF1sEcR9WxxT07e16c","types":["restaurant","food","point_of_interest","establishment"],"user_ratings_total":59},{"business_status":"OPERATIONAL","formatted_address":"Bauboulevard 1, 30827 Garbsen","geometry":{"location":{"lat":52.4296993,"lng":9.6184774},"viewport":{"northeast":{"lat":52.43091377989272,"lng":9.620047679892721},"southwest":{"lat":52.42821412010728,"lng":9.617348020107277}}},"icon":"https://maps.gstatic.com/mapfiles/place_api/icons/v1/png_71/restaurant-71.png","icon_background_color":"#FF9E67","icon_mask_base_uri":"https://maps.gstatic.com/mapfiles/place_api/icons/v2/restaurant_pinlet","name":"Subway","opening_hours":{"open_now":true},"photos":[{"height":2448,"html_attributions":["<a href=\"https://maps.google.com/maps/contrib/104254690813855396938\">Dominic Herbst</a>"],"photo_reference":"AeJbb3dh5-K19hx_SYVUlzHjTVjC94Az3RxSyFXBtXeVEvO5RNvX9-jMmAozzaQOC9M0q_on1D6RLsGFCbdP0XfghHbzQgYU8gi-vqcnddteahSGbFxB-oQ-2dwKgj2stUAWBq0PM8H2_Qgu3u1__empjFpimw27KFS11ctk2dn-ECRBgSpd","width":3264}],"place_id":"ChIJ_9BRPA5xsEcRuDxVgjKJuAs","plus_code":{"compound_code":"CJH9+V9 Garbsen","global_code":"9F4FCJH9+V9"},"price_level":2,"rating":3.8,"reference":"ChIJ_9BRPA5xsEcRuDxVgjKJuAs","types":["meal_takeaway","restaurant","food","point_of_interest","establishment"],"user_ratings_total":564},{"business_status":"OPERATIONAL","formatted_address":"Marienstraße 50, 30171 Hannover","geometry":{"location":{"lat":52.369178,"lng":9.7506602},"viewport":{"northeast":{"lat":52.37059832989272,"lng":9.75202652989272},"southwest":{"lat":52.36789867010728,"lng":9.749326870107277}}},"icon":"https://maps.gstatic.com/mapfiles/place_api/icons/v1/png_71/restaurant-71.png","icon_background_color":"#FF9E67","icon_mask_base_uri":"https://maps.gstatic.com/mapfiles/place_api/icons/v2/restaurant_pinlet","name":"Subway","opening_hours":{"open_now":true},"photos":[{"height":3265,"html_attributions":["<a href=\"https://maps.google.com/maps/contrib/104519793348199891935\">Rob Ztar</a>"],"photo_reference":"AeJbb3cliCVORzdHSCZGlzcwf9LAx-k-l4IMk8xJ5JOXtiDTTOcQwyJUKJA3tgy1cxoCv-n-_UMTPHTE1k8P1rF6Fo4dTAq04yszb-l4zHARi-J5t65HWPJ-oB8TGKyQC3xe3jbhBTelKeUhKaCRdSc-lrAZ4FCXXuOFBPgEIjow-GA9kOQj","width":4898}],"place_id":"ChIJ4xVZREsLsEcRxNcInzLn1lo","plus_code":{"compound_code":"9Q92+M7 Hanover","global_code":"9F4F9Q92+M7"},"price_level":2,"rating":3.8,"reference":"ChIJ4xVZREsLsEcRxNcInzLn1lo","types":["meal_takeaway","restaurant","food","point_of_interest","establishment"],"user_ratings_total":381},{"business_status":"OPERATIONAL","formatted_address":"Scheidestraße 9, 30625 Hannover","geometry":{"location":{"lat":52.3724849,"lng":9.783730199999999},"viewport":{"northeast":{"lat":52.37377827989273,"lng":9.785106729892721},"southwest":{"lat":52.37107862010728,"lng":9.782407070107277}}},"icon":"https://maps.gstatic.com/mapfiles/place_api/icons/v1/png_71/restaurant-71.png","icon_background_color":"#FF9E67","icon_mask_base_uri":"https://maps.gstatic.com/mapfiles/place_api/icons/v2/restaurant_pinlet","name":"Subway","opening_hours":{"open_now":true},"photos":[{"height":4608,"html_attributions":["<a href=\"https://maps.google.com/maps/contrib/117349649752378148544\">Lars Vogt</a>"],"photo_reference":"AeJbb3dbEvV0EhFFSnqhGYk2Piyhj9Gqg8ub6OXYuxbr84av-CIYPMl4SN0Sy2842UrREaCpVcCdb-fAzLHtKUiaDwvzzbavko5cAvcZKvnh4vlRdP4B09Ct1CVDJAXtjJLMlfjxvAMAh2DAlCTwSHQTqJx9kTi-i6LT1JnIb8W7z0i5N9Dk","width":2592}],"place_id":"ChIJO4VFgmgLsEcRZm3pEli_e5Q","plus_code":{"compound_code":"9QCM+XF Hanover","global_code":"9F4F9QCM+XF"},"price_level":2,"rating":3.8,"reference":"ChIJO4VFgmgLsEcRZm3pEli_e5Q","types":["meal_takeaway","restaurant","food","point_of_interest","establishment"],"user_ratings_total":344},{"business_status":"OPERATIONAL","formatted_address":"Kokenhorststraße 18, 30938 Burgwedel","geometry":{"location":{"lat":52.4855369,"lng":9.8450344},"viewport":{"northeast":{"lat":52.48685847989272,"lng":9.846298779892722},"southwest":{"lat":52.48415882010728,"lng":9.843599120107278}}},"icon":"https://maps.gstatic.com/mapfiles/place_api/icons/v1/png_71/restaurant-71.png","icon_background_color":"#FF9E67","icon_mask_base_uri":"https://maps.gstatic.com/mapfiles/place_api/icons/v2/restaurant_pinlet","name":"McDonald's","opening_hours":{"open_now":true},"photos":[{"height":4128,"html_attributions":["<a href=\"https://maps.google.com/maps/contrib/114452670977383320806\">Jonas Tietgen</a>"],"photo_reference":"AeJbb3f-dF2XXs-eBo5nEGSNaXgVhCt1VvUFb9kpJfk1hs6Tt-4zoTD2syxz_piaZGCT9H1Dgy9xg-Soh3fFzq-ijoYH2lOe5tXJUwx3U0orAawKL6JMLvqd-dKgFOH3h4je-NnRmVs9oC5JkJwkhvsysmAgijGR6GhELKZXr9cijUJgXmaq","width":3096}],"place_id":"ChIJXXDFm_QSsEcRiGgLleTfGEc","plus_code":{"compound_code":"FRPW+63 Burgwedel","global_code":"9F4FFRPW+63"},"price_level":2,"rating":3.7,"reference":"ChIJXXDFm_QSsEcRiGgLleTfGEc","types":["restaurant","food","point_of_interest","establishment"],"user_ratings_total":2216},{"business_status":"OPERATIONAL","formatted_address":"Varrelheide 188, 30657 Hannover","geometry":{"location":{"lat":52.4258683,"lng":9.8263389},"viewport":{"northeast":{"lat":52.42723982989272,"lng":9.827645729892723},"southwest":{"lat":52.42454017010728,"lng":9.824946070107279}}},"icon":"https://maps.gstatic.com/mapfiles/place_api/icons/v1/png_71/restaurant-71.png","icon_background_color":"#FF9E67","icon_mask_base_uri":"https://maps.gstatic.com/mapfiles/place_api/icons/v2/restaurant_pinlet","name":"McDonald's","opening_hours":{"open_now":true},"photos":[{"height":3936,"html_attributions":["<a href=\"https://maps.google.com/maps/contrib/108506618632216855621\">xPARTY PATROLx</a>"],"photo_reference":"AeJbb3cWE1RUyYr929umBOH_MBhssjJ6toZ0OEJA8XZlQHpqb8XHi6ubaEpTCM2Zey0YW5txdHutEzpOTaDmBYoXkjd7n8OeN5Rbhz3ehvV4FLMaJBP9iQ-EqIKrCDw5V0Q9QZAUtyJVXBelcyfSwOBc5rMjE6-gSd74b-FQJ-t5hOcON92S","width":5248}],"place_id":"ChIJe6HpBHRzsEcR6vWdMPIu1oI","plus_code":{"compound_code":"CRGG+9F Hanover","global_code":"9F4FCRGG+9F"},"price_level":2,"rating":3.7,"reference":"ChIJe6HpBHRzsEcR6vWdMPIu1oI","types":["restaurant","food","point_of_interest","establishment"],"user_ratings_total":1713},{"business_status":"OPERATIONAL","formatted_address":"Schulenburger Landstraße 107, 30165 Hannover","geometry":{"location":{"lat":52.4057872,"lng":9.710500999999999},"viewport":{"northeast":{"lat":52.40715492989273,"lng":9.711910679892721},"southwest":{"lat":52.40445527010728,"lng":9.709211020107277}}},"icon":"https://maps.gstatic.com/mapfiles/place_api/icons/v1/png_71/restaurant-71.png","icon_background_color":"#FF9E67","icon_mask_base_uri":"https://maps.gstatic.com/mapfiles/place_api/icons/v2/restaurant_pinlet","name":"McDonald's","opening_hours":{"open_now":true},"photos":[{"height":2988,"html_attributions":["<a href=\"https://maps.google.com/maps/contrib/117063413574070408883\">Monika Lahmer</a>"],"photo_reference":"AeJbb3fwjCOP6EBU6huO2LP-oLWq9TZdJHWqgAeC8eLmLShq8oQE0wTQRU3m5taj_4ytEOfxXfCg9YTzQR-Mlqm_N9O4Dadv9bREwn7B9xXKbX4aAxCwzxKypLdQisIa06LUazICcu9CFvfJFl2e5a3kYBBLGnFoR9uwmdfFJ-gekPt9BQ6-","width":5312}],"place_id":"ChIJe6HpBHRzsEcR-9CB003gSs8","plus_code":{"compound_code":"CP46+85 Hanover","global_code":"9F4FCP46+85"},"price_level":2,"rating":3.7,"reference":"ChIJe6HpBHRzsEcR-9CB003gSs8","types":["restaurant","food","point_of_interest","establishment"],"user_ratings_total":1375},{"business_status":"OPERATIONAL","formatted_address":"Bauboulevard 3, 30827 Garbsen","geometry":{"location":{"lat":52.4302603,"lng":9.6166232},"viewport":{"northeast":{"lat":52.43155837989272,"lng":9.618079429892722},"southwest":{"lat":52.42885872010728,"lng":9.615379770107278}}},"icon":"https://maps.gstatic.com/mapfiles/place_api/icons/v1/png_71/restaurant-71.png","icon_background_color":"#FF9E67","icon_mask_base_uri":"https://maps.gstatic.com/mapfiles/place_api/icons/v2/restaurant_pinlet","name":"Kentucky Fried Chicken","opening_hours":{"open_now":true},"photos":[{"height":1080,"html_attributions":["<a href=\"https://maps.google.com/maps/contrib/113878632840844613723\">Fabian Elfeld</a>"],"photo_reference":"AeJbb3e1BBrv89ytk2MHN6Huua63yfCWy_MjYjTX7PuiOFJvZ5tkihWComQhhMGwEU7lANevzq4rcQRA9RKyrISA53MmflRkf4EBSyqZCfksD68PM2itPNvMVgL1v9lQIJpXYrAYpV6dolUfrn_pTuvh1ABRmaVnXDtNS7v1GA-Ivxfml8I","width":1920}],"place_id":"ChIJHbSYOw5xsEcRZ56LouniXlQ","plus_code":{"compound_code":"CJJ8+4J Garbsen","global_code":"9F4FCJJ8+4J"},"price_level":2,"rating":3.7,"reference":"ChIJHbSYOw5xsEcRZ56LouniXlQ","types":["restaurant","food","point_of_interest","establishment"],"user_ratings_total":1261},{"business_status":"OPERATIONAL","formatted_address":"Hildesheimer Str. 216, 30519 Hannover","geometry":{"location":{"lat":52.3429863,"lng":9.7636205},"viewport":{"northeast":{"lat":52.34417392989273,"lng":9.764879829892722},"southwest":{"lat":52.34147427010728,"lng":9.762180170107278}}},"icon":"https://maps.gstatic.com/mapfiles/place_api/icons/v1/png_71/restaurant-71.png","icon_background_color":"#FF9E67","icon_mask_base_uri":"https://maps.gstatic.com/mapfiles/place_api/icons/v2/restaurant_pinlet","name":"McDonald's","opening_hours":{"open_now":true},"photos":[{"height":2268,"html_attributions":["<a href=\"https://maps.google.com/maps/contrib/118430032219778485635\">David Werner Schoenborn</a>"],"photo_reference":"AeJbb3e6XY1eM9gUkcKJsTKX8A1IPqKmX0TCU7nFOkxEgTpLqQX_C0492-Itj9M3kxjRUGdPxmeygSfI6PbVFKJykLLzN0n-o5D4fLC9BMqPizPE0tN5q9eJ0ZbS2rWnPvEP9hbZPVByLj6iK_7Mv2uwFZt0Q6vV2rtVTeTQv4sHPiIrEJAH","width":4032}],"place_id":"ChIJSSGlvSALsEcRBw-JvyKVgDo","plus_code":{"compound_code":"8QV7+5C Hanover","global_code":"9F4F8QV7+5C"},"price_level":2,"rating":3.6,"reference":"ChIJSSGlvSALsEcRBw-JvyKVgDo","types":["restaurant","food","point_of_interest","establishment"],"user_ratings_total":2972},{"business_status":"OPERATIONAL","formatted_address":"Bremer Str. 4A, 30827 Garbsen","geometry":{"location":{"lat":52.4307489,"lng":9.6153133},"viewport":{"northeast":{"lat":52.43205762989273,"lng":9.616594829892723},"southwest":{"lat":52.42935797010728,"lng":9.613895170107279}}},"icon":"https://maps.gstatic.com/mapfiles/place_api/icons/v1/png_71/restaurant-71.png","icon_background_color":"#FF9E67","icon_mask_base_uri":"https://maps.gstatic.com/mapfiles/place_api/icons/v2/restaurant_pinlet","name":"McDonald's","opening_hours":{"open_now":true},"photos":[{"height":3024,"html_attributions":["<a href=\"https://maps.google.com/maps/contrib/106892500120127892482\">Lethos Colin</a>"],"photo_reference":"AeJbb3dEGiiWsKQAUpiMz_9NIm4mUvQSnkF7pcrVRHhoKWyxJF0DRV3K-fx8OJnYXsjakkNjiU1jjR_lL9YXVEijN3FUr8DB84HgDZUz4F_gQ3vmsru-FE3s0Ta952zd2nmyb8xgHvg_F3p3ksedp6jorD942p8bv8j6j1tG2W5OOdBHckQD","width":4032}],"place_id":"ChIJPSFz0g9xsEcRAKvBqU2uj8w","plus_code":{"compound_code":"CJJ8+74 Garbsen","global_code":"9F4FCJJ8+74"},"price_level":2,"rating":3.6,"reference":"ChIJPSFz0g9xsEcRAKvBqU2uj8w","types":["restaurant","food","point_of_interest","establishment"],"user_ratings_total":2444},{"business_status":"OPERATIONAL","formatted_address":"Flughafenstraße 4, 30855 Langenhagen","geometry":{"location":{"lat":52.4591356,"lng":9.6958624},"viewport":{"northeast":{"lat":52.46049432989273,"lng":9.697220679892721},"southwest":{"lat":52.45779467010728,"lng":9.694521020107278}}},"icon":"https://maps.gstatic.com/mapfiles/place_api/icons/v1/png_71/restaurant-71.png","icon_background_color":"#FF9E67","icon_mask_base_uri":"https://maps.gstatic.com/mapfiles/place_api/icons/v2/restaurant_pinlet","name":"McDonald's","opening_hours":{"open_now":true},"photos":[{"height":1080,"html_attributions":["<a href=\"https://maps.google.com/maps/contrib/102821896118164725042\">Andreas C</a>"],"photo_reference":"AeJbb3cNykZz8VBExuMqPIkIKo_75uoyTe8tNYzB-ySywdyX-Q607_SHnqImwH3QGuT5cldPqKaEAbPPmRAVWABkk4MzQZLq1dgAA0YTj_EHgHecsX8-1Gc0r1gyvCilal8iELY8Z_I_FNuuYdFosjklnU5cbCE1PsN1JY-MK37o3WtUB6KF","width":1920}],"place_id":"ChIJ8-ITOWtysEcRTNDQH_V0h-0","plus_code":{"compound_code":"FM5W+M8 Langenhagen","global_code":"9F4FFM5W+M8"},"price_level":2,"rating":3.6,"reference":"ChIJ8-ITOWtysEcRTNDQH_V0h-0","types":["restaurant","food","point_of_interest","establishment"],"user_ratings_total":2182},{"business_status":"OPERATIONAL","formatted_address":"Brüsseler Str. 2, 30853 Langenhagen","geometry":{"location":{"lat":52.4417171,"lng":9.7238676},"viewport":{"northeast":{"lat":52.44322092989272,"lng":9.725567329892721},"southwest":{"lat":52.44052127010728,"lng":9.722867670107277}}},"icon":"https://maps.gstatic.com/mapfiles/place_api/icons/v1/png_71/restaurant-71.png","icon_background_color":"#FF9E67","icon_mask_base_uri":"https://maps.gstatic.com/mapfiles/place_api/icons/v2/restaurant_pinlet","name":"McDonald's","opening_hours":{"open_now":true},"photos":[{"height":2322,"html_attributions":["<a href=\"https://maps.google.com/maps/contrib/105434677646294974773\">Markus Prowaznik</a>"],"photo_reference":"AeJbb3dfZ-W5H-ZRv2vKVehkSxkO-DJOTQnAE-r-etl9lQ3sXo6jxRhhNNAbctC3Rfe-MWgUNz3MukmVHQeCnbVC94XuHcAQWMge35EluFnj5aadksuLyhDRd3km_hXh0aNMmh3NtiMYE58hvpe5gii37BDQ4cU4yWZx7j548OZzm1zobboU","width":4128}],"place_id":"ChIJixZrVfdysEcRJfkXJBad2LU","plus_code":{"compound_code":"CPRF+MG Langenhagen","global_code":"9F4FCPRF+MG"},"price_level":2,"rating":3.6,"reference":"ChIJixZrVfdysEcRJfkXJBad2LU","types":["restaurant","food","point_of_interest","establishment"],"user_ratings_total":1907},{"business_status":"OPERATIONAL","formatted_address":"Hildesheimer Str. 418, 30519 Hannover","geometry":{"location":{"lat":52.32517929999999,"lng":9.7819612},"viewport":{"northeast":{"lat":52.32646012989272,"lng":9.783244079892722},"southwest":{"lat":52.32376047010727,"lng":9.780544420107278}}},"icon":"https://maps.gstatic.com/mapfiles/place_api/icons/v1/png_71/restaurant-71.png","icon_background_color":"#FF9E67","icon_mask_base_uri":"https://maps.gstatic.com/mapfiles/place_api/icons/v2/restaurant_pinlet","name":"Kentucky Fried Chicken","opening_hours":{"open_now":true},"photos":[{"height":5312,"html_attributions":["<a href=\"https://maps.google.com/maps/contrib/115884749332733806365\">tugba Aydin</a>"],"photo_reference":"AeJbb3cJ7QcBl5uZPZsOn5SWk0cEZ6_8xKEz8vkqXLAKuGJkeZWm9EL_hyqKaSuCxLq1b1e_EoTbY9pu1XiEKgsqOXIGzEMuiLI1Sxe-2IBHT2k3tdT9fdygtQTFxqvlZN3fV9YWSatJyVzVbAj5fZ_GkmDah4v3XMD3LRyPyn1i8plguw1w","width":2988}],"place_id":"ChIJe2ZCb_EKsEcRbcBaghSYk3o","plus_code":{"compound_code":"8QGJ+3Q Hanover","global_code":"9F4F8QGJ+3Q"},"price_level":2,"rating":3.6,"reference":"ChIJe2ZCb_EKsEcRbcBaghSYk3o","types":["restaurant","food","point_of_interest","establishment"],"user_ratings_total":1374},{"business_status":"OPERATIONAL","formatted_address":"Marktplatz 7 im CCL, Marktpl. 7, 30853 Langenhagen","geometry":{"location":{"lat":52.4392502,"lng":9.7385241},"viewport":{"northeast":{"lat":52.44025372989272,"lng":9.740178029892721},"southwest":{"lat":52.43755407010728,"lng":9.737478370107278}}},"icon":"https://maps.gstatic.com/mapfiles/place_api/icons/v1/png_71/restaurant-71.png","icon_background_color":"#FF9E67","icon_mask_base_uri":"https://maps.gstatic.com/mapfiles/place_api/icons/v2/restaurant_pinlet","name":"Kochlöffel","opening_hours":{"open_now":true},"photos":[{"height":2016,"html_attributions":["<a href=\"https://maps.google.com/maps/contrib/109459299001532425650\">Kochlöffel</a>"],"photo_reference":"AeJbb3eH4IpfxJpbCVaK2lLTQCyXPB3BzqSSie6lpd0rQV9iBBPDr6Y4-vnJGiYA_bkbLC03AV-ViQVyANio0G1U4w6-e2ppFV15pFJ8ll0iNQnMssRJq035USWagSTdJe5llk6rQB04rgaWjPuseV1P39ZeZS9aod5PDI4jOFtmjJlL25X-","width":1512}],"place_id":"ChIJ8ac4deZysEcRGhBEyuf5DZw","plus_code":{"compound_code":"CPQQ+PC Langenhagen","global_code":"9F4FCPQQ+PC"},"price_level":1,"rating":3.6,"reference":"ChIJ8ac4deZysEcRGhBEyuf5DZw","types":["meal_takeaway","restaurant","food","point_of_interest","establishment"],"user_ratings_total":164},{"business_status":"OPERATIONAL","formatted_address":"Nenndorfer Ch 15, 30453 Hannover","geometry":{"location":{"lat":52.34881499999999,"lng":9.690317499999999},"viewport":{"northeast":{"lat":52.35025017989273,"lng":9.69202997989272},"southwest":{"lat":52.34755052010728,"lng":9.689330320107276}}},"icon":"https://maps.gstatic.com/mapfiles/place_api/icons/v1/png_71/restaurant-71.png","icon_background_color":"#FF9E67","icon_mask_base_uri":"https://maps.gstatic.com/mapfiles/place_api/icons/v2/restaurant_pinlet","name":"McDonald's","opening_hours":{"open_now":true},"photos":[{"height":1836,"html_attributions":["<a href=\"https://maps.google.com/maps/contrib/106731529310068746515\">Felix Weber</a>"],"photo_reference":"AeJbb3fswXf740-nwIwuYForXX3TXjllM6yCofkPDfRHx9UwE25CeZ97dH-NcC761R5DII0oVdQ6GKREGoSMx-DhacQJxbYrOjpGEdog4EgrsUJrdVc4gtt66AAXFsuO_pI4Z2Yy-NI0GObfxzpgK4qcTSpsPDlhX2U9se9hjxugimiGKTK0","width":3264}],"place_id":"ChIJqdVYFP50sEcR6mTBjPl0E2U","plus_code":{"compound_code":"8MXR+G4 Hanover","global_code":"9F4F8MXR+G4"},"price_level":2,"rating":3.5,"reference":"ChIJqdVYFP50sEcR6mTBjPl0E2U","types":["restaurant","food","point_of_interest","establishment"],"user_ratings_total":2150},{"business_status":"OPERATIONAL","formatted_address":"Niki-de-Saint-Phalle-Promenade 25, 30159 Hannover","geometry":{"location":{"lat":52.374909,"lng":9.7389718},"viewport":{"northeast":{"lat":52.3776682,"lng":9.744657149999995},"southwest":{"lat":52.37223539999999,"lng":9.731107750000005}}},"icon":"https://maps.gstatic.com/mapfiles/place_api/icons/v1/png_71/restaurant-71.png","icon_background_color":"#FF9E67","icon_mask_base_uri":"https://maps.gstatic.com/mapfiles/place_api/icons/v2/restaurant_pinlet","name":"Kentucky Fried Chicken","opening_hours":{"open_now":true},"photos":[{"height":4608,"html_attributions":["<a href=\"https://maps.google.com/maps/contrib/106669726110296170543\">Eddie Chan</a>"],"photo_reference":"AeJbb3e3CdgiWG1Wswk2WCwCGnoEmfZvG7--LshgX8UrjX2Sdmk93I4z5cmS2Z4OUFaauNu-65NfAJD44klomTNJ0bLwZVuLVa6_obTsrQeL7zDhY84trJ8FSfw-sB41zzdwrea8Gj3AgH0UAVieO4SXMrORjw_wCh0X7AMxm28TOPSs9Zvi","width":3456}],"place_id":"ChIJSSd_1q90sEcR-i3LBKnLOxc","plus_code":{"compound_code":"9PFQ+XH Hanover","global_code":"9F4F9PFQ+XH"},"price_level":2,"rating":3.5,"reference":"ChIJSSd_1q90sEcR-i3LBKnLOxc","types":["restaurant","food","point_of_interest","establishment"],"user_ratings_total":1699},{"business_status":"OPERATIONAL","formatted_address":"Schillerstraße 28, 30159 Hannover","geometry":{"location":{"lat":52.3762093,"lng":9.738690499999999},"viewport":{"northeast":{"lat":52.37748107989272,"lng":9.740088929892721},"southwest":{"lat":52.37478142010727,"lng":9.737389270107277}}},"icon":"https://maps.gstatic.com/mapfiles/place_api/icons/v1/png_71/restaurant-71.png","icon_background_color":"#FF9E67","icon_mask_base_uri":"https://maps.gstatic.com/mapfiles/place_api/icons/v2/restaurant_pinlet","name":"Subway","opening_hours":{"open_now":true},"photos":[{"height":2268,"html_attributions":["<a href=\"https://maps.google.com/maps/contrib/106602952434088617470\">A Google User</a>"],"photo_reference":"AeJbb3fkGnpBkbuXfJPNLcdCwtQzXJRNgAAzR58kaSNrjoVglaIHygNSd_5IU2bHYdT9pHDfLiXKjDb78k19hQnFTlvNmQ5R-YlqzyQjAG-pbYg1h_xOisgB9cUVzrFLjRjhiaCum8eqVua6X9qi_D32qO8NNd5h_Yk6hnb1e0Kel1Nvsh5m","width":4032}],"place_id":"ChIJYYOrHbB0sEcRQhpI1m59FIY","plus_code":{"compound_code":"9PGQ+FF Hanover","global_code":"9F4F9PGQ+FF"},"price_level":2,"rating":3.5,"reference":"ChIJYYOrHbB0sEcRQhpI1m59FIY","types":["meal_takeaway","restaurant","food","point_of_interest","establishment"],"user_ratings_total":1431},{"business_status":"OPERATIONAL","formatted_address":"Bahnhofstraße 4, 30159 Hannover","geometry":{"location":{"lat":52.3748549,"lng":9.7394073},"viewport":{"northeast":{"lat":52.37561674999999,"lng":9.740675679892721},"southwest":{"lat":52.37290135000001,"lng":9.737976020107277}}},"icon":"https://maps.gstatic.com/mapfiles/place_api/icons/v1/png_71/restaurant-71.png","icon_background_color":"#FF9E67","icon_mask_base_uri":"https://maps.gstatic.com/mapfiles/place_api/icons/v2/restaurant_pinlet","name":"Five Guys Hannover Bahnhofstraße","opening_hours":{"open_now":true},"photos":[{"height":1152,"html_attributions":["<a href=\"https://maps.google.com/maps/contrib/101189930217024363376\">A Google User</a>"],"photo_reference":"AeJbb3fSYlcUMXom-eat-yZmJHPRx8JijVCfenFD5qdM5GnjX77rNYLOFKsAEB1E9_RSizW_KKlzS5PyY49DKx3qrT-UZAAbUcmwWoI-S82IdXud9HN5ch7y7d8CLaqs8BQTHjKAzh97PnfOs7vEML-F1xNWEJowYhoKVMGj6X1MDvnyb9-r","width":2048}],"place_id":"ChIJk7Y166B1sEcR1Gk8NLkAW1k","plus_code":{"compound_code":"9PFQ+WQ Hanover","global_code":"9F4F9PFQ+WQ"},"price_level":2,"rating":3.5,"reference":"ChIJk7Y166B1sEcR1Gk8NLkAW1k","types":["meal_takeaway","restaurant","food","point_of_interest","establishment"],"user_ratings_total":1015},{"business_status":"OPERATIONAL","formatted_address":"Georgstraße 26, 30159 Hannover","geometry":{"location":{"lat":52.37439999999999,"lng":9.738000000000001},"viewport":{"northeast":{"lat":52.37541787989272,"lng":9.739985679892722},"southwest":{"lat":52.37271822010727,"lng":9.737286020107279}}},"icon":"https://maps.gstatic.com/mapfiles/place_api/icons/v1/png_71/restaurant-71.png","icon_background_color":"#FF9E67","icon_mask_base_uri":"https://maps.gstatic.com/mapfiles/place_api/icons/v2/restaurant_pinlet","name":"Frittzchen","opening_hours":{"open_now":true},"photos":[{"height":4032,"html_attributions":["<a href=\"https://maps.google.com/maps/contrib/113590754168153984216\">Niels Maerker</a>"],"photo_reference":"AeJbb3eTTCMMxvJsI9Bn-uOziwWH9El0uYRBpBofDNrwwQyAMrvpo4ZOlXKX3ngQK_CIAQRMXzehKbhGqCloAYtcosZHjr-oBiyOpNJQCcfk7qPAo6sqWr_k9wawgwpsISlu7WB_SyNqrL-o5d28TGTaf1igKbf0wGeE547SmPoitYUSMnc9","width":3024}],"place_id":"ChIJSR25aLB0sEcR6vd_5U_qrX8","plus_code":{"compound_code":"9PFQ+Q5 Hanover","global_code":"9F4F9PFQ+Q5"},"rating":3.5,"reference":"ChIJSR25aLB0sEcR6vd_5U_qrX8","types":["restaurant","food","point_of_interest","establishment"],"user_ratings_total":65},{"business_status":"OPERATIONAL","formatted_address":"Georgstraße 13, 30159 Hannover","geometry":{"location":{"lat":52.3758269,"lng":9.7340846},"viewport":{"northeast":{"lat":52.37699982989272,"lng":9.73533547989272},"southwest":{"lat":52.37430017010728,"lng":9.732635820107276}}},"icon":"https://maps.gstatic.com/mapfiles/place_api/icons/v1/png_71/restaurant-71.png","icon_background_color":"#FF9E67","icon_mask_base_uri":"https://maps.gstatic.com/mapfiles/place_api/icons/v2/restaurant_pinlet","name":"BURGER KING Deutschland GmbH","opening_hours":{"open_now":true},"photos":[{"height":3024,"html_attributions":["<a href=\"https://maps.google.com/maps/contrib/112901699214955439078\">A Google User</a>"],"photo_reference":"AeJbb3cPZ-HcXCp--Cii6QYwsgyU6XuwUYPjpQiezZ1oNLCaUmiNn5mEP-ixsZw4qzOxISnu-JGroSDZyPExUkBYEpd6etPZZGwkZtk3SrTiH9Cy51LNHE1PUJcsyOLe6HyLW7eF2j-fQBEZXs2S4oC_KxgtrjX08njL3Z2sOcEBkXHL7FOK","width":4032}],"place_id":"ChIJN4_f27p0sEcRxsrN-eBpEbE","plus_code":{"compound_code":"9PGM+8J Hanover","global_code":"9F4F9PGM+8J"},"price_level":2,"rating":3.4,"reference":"ChIJN4_f27p0sEcRxsrN-eBpEbE","types":["restaurant","food","point_of_interest","establishment"],"user_ratings_total":2126},{"business_status":"OPERATIONAL","formatted_address":"Georgstraße 9, 30159 Hannover","geometry":{"location":{"lat":52.3759507,"lng":9.7335582},"viewport":{"northeast":{"lat":52.37711087989272,"lng":9.734818029892722},"southwest":{"lat":52.37441122010728,"lng":9.732118370107278}}},"icon":"https://maps.gstatic.com/mapfiles/place_api/icons/v1/png_71/restaurant-71.png","icon_background_color":"#FF9E67","icon_mask_base_uri":"https://maps.gstatic.com/mapfiles/place_api/icons/v2/restaurant_pinlet","name":"McDonald's","opening_hours":{"open_now":true},"photos":[{"height":4032,"html_attributions":["<a href=\"https://maps.google.com/maps/contrib/116287272133852663450\">A Google User</a>"],"photo_reference":"AeJbb3fLVJvJyGZ9-ZlvP-s5n_kavMYrME0xS4sBYVtTR4Blbf5adYcUsaxMWsW3rc6LbXy0JscI4u1HtoB6xVB6VDZQ2GurDLPsHfIChdjK3IfUx9FdStq6xfrYjAfnzCwtpRNmKsozHJY9zJBZ8yLbr5NJorSQNJukvagFZn7Y0mu-FuAM","width":3024}],"place_id":"ChIJsZBAJ7t0sEcRzLL11RUPlC0","plus_code":{"compound_code":"9PGM+9C Hanover","global_code":"9F4F9PGM+9C"},"price_level":2,"rating":3.4,"reference":"ChIJsZBAJ7t0sEcRzLL11RUPlC0","types":["restaurant","food","point_of_interest","establishment"],"user_ratings_total":2101},{"business_status":"OPERATIONAL","formatted_address":"Niki-de-Saint-Phalle-Promenade, U-Bahnhof 6, 30159 Hannover","geometry":{"location":{"lat":52.3742828,"lng":9.738717099999999},"viewport":{"northeast":{"lat":52.37563262989273,"lng":9.740066929892723},"southwest":{"lat":52.37293297010729,"lng":9.73736727010728}}},"icon":"https://maps.gstatic.com/mapfiles/place_api/icons/v1/png_71/restaurant-71.png","icon_background_color":"#FF9E67","icon_mask_base_uri":"https://maps.gstatic.com/mapfiles/place_api/icons/v2/restaurant_pinlet","name":"McDonald's","opening_hours":{"open_now":true},"photos":[{"height":655,"html_attributions":["<a href=\"https://maps.google.com/maps/contrib/117769530064916451276\">McDonald&#39;s Restaurant</a>"],"photo_reference":"AeJbb3eahh_UdOIyt2Kdj9stkMA5UFmFvRqXNwOaFv4_FHnEodkpcoslyoxkEA1UpP-tiJiiKt5soVuUyNDH1P9yfJbhpkuTaz6lzsxwsI33TrvdorHZdeg6JdLrszXIjFsg_cBrEaU3XqkWPmyg9Ax1zoA25h3653cQ0PDJLM2qOEWPH8rW","width":1000}],"place_id":"ChIJcSx2C7B0sEcRbpixFFCqplI","plus_code":{"compound_code":"9PFQ+PF Hanover","global_code":"9F4F9PFQ+PF"},"price_level":2,"rating":3.4,"reference":"ChIJcSx2C7B0sEcRbpixFFCqplI","types":["restaurant","food","point_of_interest","establishment"],"user_ratings_total":1037},{"business_status":"OPERATIONAL","formatted_address":"Hannover Hauptbahnhof, Ernst-August-Platz 1, 30159 Hannover","geometry":{"location":{"lat":52.376608,"lng":9.742781599999999},"viewport":{"northeast":{"lat":52.37789922989272,"lng":9.743414729892724},"southwest":{"lat":52.37519957010728,"lng":9.74071507010728}}},"icon":"https://maps.gstatic.com/mapfiles/place_api/icons/v1/png_71/restaurant-71.png","icon_background_color":"#FF9E67","icon_mask_base_uri":"https://maps.gstatic.com/mapfiles/place_api/icons/v2/restaurant_pinlet","name":"Pommes Freunde","opening_hours":{"open_now":true},"photos":[{"height":2268,"html_attributions":["<a href=\"https://maps.google.com/maps/contrib/114175026132064968955\">Gero Helm</a>"],"photo_reference":"AeJbb3dRYGYE826WplictNdCKEYYUl5V5qmE0QpEly2WVYMpgkGiRszbuYaiNq7r9wv6uY3gdyHjo3CkHa5vu1oCgLYlrOB-DbwigVPl0oePkCDNzAaIjjHsO7S48y2JQtd2AkgBdPwlpNdBFSzTtPKo9pTyKLkbouurkkCrhEoOo0uqPMKK","width":4032}],"place_id":"ChIJJVtKNq50sEcRW9Sk9et-HlQ","plus_code":{"compound_code":"9PGR+RP Hanover","global_code":"9F4F9PGR+RP"},"price_level":2,"rating":3.4,"reference":"ChIJJVtKNq50sEcRW9Sk9et-HlQ","types":["restaurant","food","point_of_interest","establishment"],"user_ratings_total":138},{"business_status":"OPERATIONAL","formatted_address":"Vahrenwalder Str. 194, 30165 Hannover","geometry":{"location":{"lat":52.40509309999999,"lng":9.735832799999999},"viewport":{"northeast":{"lat":52.40645572989271,"lng":9.737180929892723},"southwest":{"lat":52.40375607010727,"lng":9.73448127010728}}},"icon":"https://maps.gstatic.com/mapfiles/place_api/icons/v1/png_71/restaurant-71.png","icon_background_color":"#FF9E67","icon_mask_base_uri":"https://maps.gstatic.com/mapfiles/place_api/icons/v2/restaurant_pinlet","name":"Burger King Deutschland GmbH","opening_hours":{"open_now":true},"photos":[{"height":4032,"html_attributions":["<a href=\"https://maps.google.com/maps/contrib/107843105183344159884\">Dominik Birkenfeld</a>"],"photo_reference":"AeJbb3dsGc10Euccr5HbUA_5Q_LafEIXKLkv1AU0FMnfVReC550qPMBDZDLofkEPQ-NgxHS6ZjLTRPfPImqfhMBLCxicCGuAqPSyIz5T-fUV9LyU1qtnsgYCGmTuYrFLBs01OtPIURcKq5OU2L2HgRii842rCRDshjysCCxtLxxVSQm_LZvm","width":3024}],"place_id":"ChIJ0SUUuUFzsEcR4a36BrP9qj4","plus_code":{"compound_code":"CP4P+38 Hanover","global_code":"9F4FCP4P+38"},"price_level":2,"rating":3.3,"reference":"ChIJ0SUUuUFzsEcR4a36BrP9qj4","types":["restaurant","food","point_of_interest","establishment"],"user_ratings_total":2645},{"business_status":"OPERATIONAL","formatted_address":"Burgdorfer Str. 106, 31275 Lehrte","geometry":{"location":{"lat":52.38756009999999,"lng":9.9728324},"viewport":{"northeast":{"lat":52.38889977989272,"lng":9.97418857989272},"southwest":{"lat":52.38620012010728,"lng":9.971488920107276}}},"icon":"https://maps.gstatic.com/mapfiles/place_api/icons/v1/png_71/restaurant-71.png","icon_background_color":"#FF9E67","icon_mask_base_uri":"https://maps.gstatic.com/mapfiles/place_api/icons/v2/restaurant_pinlet","name":"McDonald's","opening_hours":{"open_now":true},"photos":[{"height":2988,"html_attributions":["<a href=\"https://maps.google.com/maps/contrib/103230195457763993278\">A Google User</a>"],"photo_reference":"AeJbb3ege_qeaxus8ODgFeMkr0v5wvEORsisXo_K-BR2pE_b2RCg6lAn_R48474cwzRmh77zN-QitSdNUKEsP5hdJ6mS9myEaZ5vJg3yIu4VnlxHMEHstlROg4XqDcUNz_z1UholmO-oLbcrzn9k3_EQL8yGrn2JnPdzRLN2j06BKYMFbIe2","width":5312}],"place_id":"ChIJY1yQt0IPsEcRBby1Zlh6RZg","plus_code":{"compound_code":"9XQF+34 Lehrte","global_code":"9F4F9XQF+34"},"price_level":2,"rating":3.3,"reference":"ChIJY1yQt0IPsEcRBby1Zlh6RZg","types":["restaurant","food","point_of_interest","establishment"],"user_ratings_total":2181},{"business_status":"OPERATIONAL","formatted_address":"Andreaestraße 1, 30159 Hannover","geometry":{"location":{"lat":52.3751845,"lng":9.737795199999999},"viewport":{"northeast":{"lat":52.37681692989273,"lng":9.739134179892721},"southwest":{"lat":52.37411727010728,"lng":9.736434520107277}}},"icon":"https://maps.gstatic.com/mapfiles/place_api/icons/v1/png_71/restaurant-71.png","icon_background_color":"#FF9E67","icon_mask_base_uri":"https://maps.gstatic.com/mapfiles/place_api/icons/v2/restaurant_pinlet","name":"McDonald's","opening_hours":{"open_now":true},"photos":[{"height":3096,"html_attributions":["<a href=\"https://maps.google.com/maps/contrib/107324874619624975058\">A Google User</a>"],"photo_reference":"AeJbb3fKOr3mN8FMqPdV6cQH4-Z2sjSjHQ8N355oo_DivbklYmpnK8UH_GhgYTijiKF_gm6Y2GjovPb208L71fg68SwErp9XzlUioleFYjfecSEqOpdnu_iczeqdma8_k4blArRO1bKhwlIKIPWjlDKwzga0mNhzxgC11sVQ_dtx9ZEURL58","width":4128}],"place_id":"ChIJNzoOK7B0sEcRPz2ZmfNqrrQ","plus_code":{"compound_code":"9PGQ+34 Hanover","global_code":"9F4F9PGQ+34"},"price_level":2,"rating":3.3,"reference":"ChIJNzoOK7B0sEcRPz2ZmfNqrrQ","types":["restaurant","food","point_of_interest","establishment"],"user_ratings_total":1875},{"business_status":"OPERATIONAL","formatted_address":"Ernst-August-Platz 1, 30159 Hannover","geometry":{"location":{"lat":52.3777147,"lng":9.7422668},"viewport":{"northeast":{"lat":52.37855579999999,"lng":9.743617629892722},"southwest":{"lat":52.3751914,"lng":9.740917970107278}}},"icon":"https://maps.gstatic.com/mapfiles/place_api/icons/v1/png_71/restaurant-71.png","icon_background_color":"#FF9E67","icon_mask_base_uri":"https://maps.gstatic.com/mapfiles/place_api/icons/v2/restaurant_pinlet","name":"BURGER KING Deutschland GmbH","opening_hours":{"open_now":true},"photos":[{"height":1080,"html_attributions":["<a href=\"https://maps.google.com/maps/contrib/105032592584210532617\">David</a>"],"photo_reference":"AeJbb3fEc0QrAt2NMBfdVQyJNjnCp1vBwkeUB3yeX4Afvs8CEB_mn8tGPGXD2A5Y9EMMJKEi3cv79ckfRMkZBMOOmg-miZrXlYyV-6PEWGIVaOrmLpHFdrgAe8i9k8jpSfrq8YyMbILPAPkUNchWQFhkyCi3xXpyBs8a3xoLgHrBnQPifElk","width":1920}],"place_id":"ChIJNzoOK7B0sEcRw8bfd1mlItg","plus_code":{"compound_code":"9PHR+3W Hanover","global_code":"9F4F9PHR+3W"},"price_level":2,"rating":3.2,"reference":"ChIJNzoOK7B0sEcRw8bfd1mlItg","types":["restaurant","food","point_of_interest","establishment"],"user_ratings_total":2293},{"business_status":"OPERATIONAL","formatted_address":"Hildesheimer Str. 424, 30519 Hannover","geometry":{"location":{"lat":52.3243693,"lng":9.7823333},"viewport":{"northeast":{"lat":52.32579207989272,"lng":9.783536629892723},"southwest":{"lat":52.32309242010727,"lng":9.780836970107279}}},"icon":"https://maps.gstatic.com/mapfiles/place_api/icons/v1/png_71/restaurant-71.png","icon_background_color":"#FF9E67","icon_mask_base_uri":"https://maps.gstatic.com/mapfiles/place_api/icons/v2/restaurant_pinlet","name":"BURGER KING Deutschland GmbH","opening_hours":{"open_now":true},"photos":[{"height":3024,"html_attributions":["<a href=\"https://maps.google.com/maps/contrib/109608661049093072289\">Laurentiu Paun</a>"],"photo_reference":"AeJbb3f8PljnTqYCFVpGzcsbCRiyFn7Mdv0-6XPYzDGjQ4QdRog9ylH4VWOUpH_E9Exhw6MbR1wLxFOkG5HISHspep0VoVfmxSTNymftGtosKf-qaXGTJk4sfWXDQAKiZn3sntplbeh2QrJxAd_6hytt0KVCORZrnt08Wz_e_7YyW53eoPzw","width":4032}],"place_id":"ChIJE9eu3_MKsEcRfIHw9YjezRI","plus_code":{"compound_code":"8QFJ+PW Hanover","global_code":"9F4F8QFJ+PW"},"price_level":2,"rating":3.1,"reference":"ChIJE9eu3_MKsEcRfIHw9YjezRI","types":["restaurant","food","point_of_interest","establishment"],"user_ratings_total":2283},{"business_status":"OPERATIONAL","formatted_address":"Ernst-August-Platz 1 Hauptbahnhof, 30159 Hannover","geometry":{"location":{"lat":52.376556,"lng":9.7410598},"viewport":{"northeast":{"lat":52.37780812989272,"lng":9.742147800000003},"southwest":{"lat":52.37510847010728,"lng":9.738711399999998}}},"icon":"https://maps.gstatic.com/mapfiles/place_api/icons/v1/png_71/restaurant-71.png","icon_background_color":"#FF9E67","icon_mask_base_uri":"https://maps.gstatic.com/mapfiles/place_api/icons/v2/restaurant_pinlet","name":"McDonald's","opening_hours":{"open_now":true},"photos":[{"height":5664,"html_attributions":["<a href=\"https://maps.google.com/maps/contrib/108616542841140597913\">Erwin König</a>"],"photo_reference":"AeJbb3c7tRfXvwdup0wSdgiCOPk0OV1yXFFmgzxZtkrkBp5oU-qI9Q87JO9vPSe_IU6dobBUNWEEKe02MKeqQ7qA04LC0tBR8dOYmYP5SYQmXjWE8C6-S_YmxYP3d1V7Mprd668EIu9beI0UsbqLy8AOJlJZa7tJGM7wD8OKcNDXSKVSsWzF","width":4248}],"place_id":"ChIJEycOK7B0sEcRh5y2dbH_YUw","plus_code":{"compound_code":"9PGR+JC Hanover","global_code":"9F4F9PGR+JC"},"price_level":2,"rating":3.1,"reference":"ChIJEycOK7B0sEcRh5y2dbH_YUw","types":["restaurant","food","point_of_interest","establishment"],"user_ratings_total":1573},{"business_status":"OPERATIONAL","formatted_address":"Vahrenwalder Str. 250, 30179 Hannover","geometry":{"location":{"lat":52.4128575,"lng":9.7349847},"viewport":{"northeast":{"lat":52.41401932989272,"lng":9.736308929892722},"southwest":{"lat":52.41131967010728,"lng":9.733609270107278}}},"icon":"https://maps.gstatic.com/mapfiles/place_api/icons/v1/png_71/restaurant-71.png","icon_background_color":"#FF9E67","icon_mask_base_uri":"https://maps.gstatic.com/mapfiles/place_api/icons/v2/restaurant_pinlet","name":"McDonald's","opening_hours":{"open_now":true},"photos":[{"height":2184,"html_attributions":["<a href=\"https://maps.google.com/maps/contrib/110798225340712961074\">Ingolf Jordan</a>"],"photo_reference":"AeJbb3eLM7L400njbgVWR_HcBQelP0uvd2sKotm4RnwbvTPV9ASwlTGA3ZiDEiw_6Kp9SeOEseNX87NOduvpDExEvoQRD3m77maPrJYw33aFGVAXRUM4kyLDnB5_1f6AmJfacQuecpEWvXH7MMegBxjlSKPcIcqy-LYh_Uh3n91OzfTuSdov","width":4608}],"place_id":"ChIJuW83lBVzsEcRjSfsot7v_g8","plus_code":{"compound_code":"CP7M+4X Hanover","global_code":"9F4FCP7M+4X"},"price_level":2,"rating":3,"reference":"ChIJuW83lBVzsEcRjSfsot7v_g8","types":["restaurant","food","point_of_interest","establishment"],"user_ratings_total":3286},{"business_status":"OPERATIONAL","formatted_address":"Karlsruher Str. 12A, 30880 Laatzen","geometry":{"location":{"lat":52.31750839999999,"lng":9.7974451},"viewport":{"northeast":{"lat":52.31890902989272,"lng":9.79876382989272},"southwest":{"lat":52.31620937010727,"lng":9.796064170107277}}},"icon":"https://maps.gstatic.com/mapfiles/place_api/icons/v1/png_71/restaurant-71.png","icon_background_color":"#FF9E67","icon_mask_base_uri":"https://maps.gstatic.com/mapfiles/place_api/icons/v2/restaurant_pinlet","name":"McDonald's","opening_hours":{"open_now":true},"photos":[{"height":4032,"html_attributions":["<a href=\"https://maps.google.com/maps/contrib/100652493366156732908\">Сергей Ш.</a>"],"photo_reference":"AeJbb3eM5lv5cePp-YrL8YPAGoJVgvvmzMrU64b6_ei5MXLoFufyaZddJInKmTsd-fUMmhzHa7GpTPt8pIl3rML0ZzxFggx7PytW2ijzXaVKp2wJLKN66-LjF4KIlHlo_TU3QsUJhIfnywunU83PZPX8A5zYTbep4L4Al0SORqnk43xj9CVe","width":3024}],"place_id":"ChIJDz85WWcKsEcRsnD32R9MchU","plus_code":{"compound_code":"8Q9W+2X Laatzen","global_code":"9F4F8Q9W+2X"},"price_level":2,"rating":2.8,"reference":"ChIJDz85WWcKsEcRsnD32R9MchU","types":["restaurant","food","point_of_interest","establishment"],"user_ratings_total":2347}]