[{"business_status":"OPERATIONAL","formatted_address":"Garbsener Landstraße 12, 30419 Hannover","geometry":{"location":{"lat":52.4091,"lng":9.62816},"viewport":{"northeast":{"lat":52.41031222989272,"lng":9.629623479892722},"southwest":{"lat":52.40761257010728,"lng":9.626923820107278}}},"icon":"https://maps.gstatic.com/mapfiles/place_api/icons/v1/png_71/restaurant-71.png","icon_background_color":"#FF9E67","icon_mask_base_uri":"https://maps.gstatic.com/mapfiles/place_api/icons/v2/restaurant_pinlet","name":"Waldkauz \"Baykuş\" Holzkohle Grill Restaurant","opening_hours":{"open_now":true},"photos":[{"height":432,"html_attributions":["<a href=\"https://maps.google.com/maps/contrib/118068400429338993245\">A Google User</a>"],"photo_reference":"AeJbb3dJwSswhCkD94bTQSzevaCmTy_wZhuULY8LsU9LxDU4NlXP-im7rTAr6Y0CjFv4PCg6PCULo6rZk9b5ztS7BCtq2VUNkOCPKqOy16uGF97rTnB_MGRX2HK7OXOMqzUsHiPfLcSwn5FTNu-TH9D98bm9BDMwi-a97m_b8En-EmHTP4G6","width":768}],"place_id":"ChIJs9bbYA5xsEcR92lysBYJxI0","plus_code":{"compound_code":"CJ5H+J7 Hanover","global_code":"9F4FCJ5H+J7"},"rating":5,"reference":"ChIJs9bbYA5xsEcR92lysBYJxI0","types":["restaurant","point_of_interest","food","establishment"],"user_ratings_total":3},{"business_status":"OPERATIONAL","formatted_address":"Hannoversche Str. 5, 30629 Hannover","geometry":{"location":{"lat":52.39005479999999,"lng":9.8537211},"viewport":{"northeast":{"lat":52.39143527989273,"lng":9.854994329892723},"southwest":{"lat":52.38873562010728,"lng":9.852294670107279}}},"icon":"https://maps.gstatic.com/mapfiles/place_api/icons/v1/png_71/restaurant-71.png","icon_background_color":"#FF9E67","icon_mask_base_uri":"https://maps.gstatic.com/mapfiles/place_api/icons/v2/restaurant_pinlet","name":"Döner Treff Misburg","opening_hours":{"open_now":true},"photos":[{"height":3024,"html_attributions":["<a href=\"https://maps.google.com/maps/contrib/109198937359081496711\">A Google User</a>"],"photo_reference":"AeJbb3dxDQCnDBSDmOauE445XqhbHUNgN_olWqNIY0qVsyvUpwq5wzE0_vjnbrznBS7528qV_QizKmWk2eMWeA5RLz3OvR8IAW5ww299AzQcGhtVdycL4Rhch1rGaCN9eudC0ozEj_SGNvUNcUpEJ5NI90Hf2JvwfvJ-yTq3kaku1NJ2AOY5","width":4032}],"place_id":"ChIJ65alQKoNsEcR7dm6u7RoIII","plus_code":{"compound_code":"9VR3+2F Hanover","global_code":"9F4F9VR3+2F"},"rating":4.9,"reference":"ChIJ65alQKoNsEcR7dm6u7RoIII","types":["restaurant","point_of_interest","food","establishment"],"user_ratings_total":36},{"business_status":"OPERATIONAL","formatted_address":"Anderter Str. 128, 30559 Hannover","geometry":{"location":{"lat":52.371542,"lng":9.8619659},"viewport":{"northeast":{"lat":52.37284617989272,"lng":9.863520879892723},"southwest":{"lat":52.37014652010728,"lng":9.86082122010728}}},"icon":"https://maps.gstatic.com/mapfiles/place_api/icons/v1/png_71/restaurant-71.png","icon_background_color":"#FF9E67","icon_mask_base_uri":"https://maps.gstatic.com/mapfiles/place_api/icons/v2/restaurant_pinlet","name":"Güney Urfa kebab haus","opening_hours":{"open_now":true},"photos":[{"height":4032,"html_attributions":["<a href=\"https://maps.google.com/maps/contrib/110422728534849767262\">ssami</a>"],"photo_reference":"AeJbb3ceC7O6_a1VeUU2le0QdK-kYCudvBb-4ewaRaC101AbpPPmc_wzb7KsgX7mZi8IN49wOJmzPTRdmFwW-YmxV26GMD4Lgt6KsjTKshmfiezukrMooxUQht3CGN3D6h674MWdLbDnN2qm4xlCkSgFWK2iICrh6CJAt508MEF7ZRs11I2G","width":2268}],"place_id":"ChIJNZ_nxpcLsEcRQwtqOqhmOB4","plus_code":{"compound_code":"9VC6+JQ Hanover","global_code":"9F4F9VC6+JQ"},"rating":4.8,"reference":"ChIJNZ_nxpcLsEcRQwtqOqhmOB4","types":["restaurant","food","point_of_interest","establishment"],"user_ratings_total":108},{"business_status":"OPERATIONAL","formatted_address":"Groß-Buchholzer-Straße 9, 30655 Hannover","geometry":{"location":{"lat":52.3986586,"lng":9.8019876},"viewport":{"northeast":{"lat":52.39988727989272,"lng":9.803388529892722},"southwest":{"lat":52.39718762010727,"lng":9.800688870107278}}},"icon":"https://maps.gstatic.com/mapfiles/place_api/icons/v1/png_71/restaurant-71.png","icon_background_color":"#FF9E67","icon_mask_base_uri":"https://maps.gstatic.com/mapfiles/place_api/icons/v2/restaurant_pinlet","name":"Restaurant Pala 1581","opening_hours":{"open_now":true},"photos":[{"height":3024,"html_attributions":["<a href=\"https://maps.google.com/maps/contrib/113298350168204366800\">Sebastian Einbock</a>"],"photo_reference":"AeJbb3cmJMdnW2zEDdMntVcTS6mNCfeUexdoyofeQbEe70R9Jmc3uSsrelRlVZeesUXBE-wTXEy3Tfviykc5NFjdHPVkOU6uTeEH-pQa4mDTXnx-tjlB07Vr0YX8BSBUl1PH-Zq3xW1-pDI_wx_Dque15woCxltP04KH4rGsEweIoVzSoBw3","width":4032}],"place_id":"ChIJOW8JKEMNsEcRfNMgqqHVIZU","plus_code":{"compound_code":"9RX2+FQ Hanover","global_code":"9F4F9RX2+FQ"},"rating":4.8,"reference":"ChIJOW8JKEMNsEcRfNMgqqHVIZU","types":["restaurant","food","point_of_interest","establishment"],"user_ratings_total":30},{"business_status":"OPERATIONAL","formatted_address":"Kötnerholzweg 39, 30451 Hannover","geometry":{"location":{"lat":52.3740913,"lng":9.7046944},"viewport":{"northeast":{"lat":52.37546007989272,"lng":9.706185229892721},"southwest":{"lat":52.37276042010728,"lng":9.703485570107278}}},"icon":"https://maps.gstatic.com/mapfiles/place_api/icons/v1/png_71/restaurant-71.png","icon_background_color":"#FF9E67","icon_mask_base_uri":"https://maps.gstatic.com/mapfiles/place_api/icons/v2/restaurant_pinlet","name":"Doyum Döner - Burgerbote Hannover HALAL Food","opening_hours":{"open_now":true},"photos":[{"height":2620,"html_attributions":["<a href=\"https://maps.google.com/maps/contrib/114019695012697843748\">A Google User</a>"],"photo_reference":"AeJbb3dJMrPhLVp0JDnCLErGyYKLLdbzILciMbtg8K6gWW2bOzcjyWFR_0MgT6SOKmG36nAIQTursjOKh4YCLYPz1hwBHmiQVmBDWEo6zn535N29C8XECiF5vds71W82hxdyLNQ1HvjmOtbgiD1pxp2xtsufQaxpdz4z5L_hgal54DOTm1Gp","width":4656}],"place_id":"ChIJvRxGPZx1sEcRg2HHmJrNnp4","plus_code":{"compound_code":"9PF3+JV Hanover","global_code":"9F4F9PF3+JV"},"rating":4.7,"reference":"ChIJvRxGPZx1sEcRg2HHmJrNnp4","types":["meal_takeaway","restaurant","food","point_of_interest","establishment"],"user_ratings_total":480},{"business_status":"OPERATIONAL","formatted_address":"Schaumburgstraße 3, 30419 Hannover","geometry":{"location":{"lat":52.39446299999999,"lng":9.6935516},"viewport":{"northeast":{"lat":52.39581267989272,"lng":9.694855229892724},"southwest":{"lat":52.39311302010728,"lng":9.69215557010728}}},"icon":"https://maps.gstatic.com/mapfiles/place_api/icons/v1/png_71/restaurant-71.png","icon_background_color":"#FF9E67","icon_mask_base_uri":"https://maps.gstatic.com/mapfiles/place_api/icons/v2/restaurant_pinlet","name":"Sultan Palace","opening_hours":{"open_now":false},"photos":[{"height":3024,"html_attributions":["<a href=\"https://maps.google.com/maps/contrib/110303045960044865338\">Selçuk Meşeli</a>"],"photo_reference":"AeJbb3cq1da86yOXdCCOTBM6yq-s7M8GdHFEahP8JrGH1zY_2unxMarhhZg8DQXOPTtUjvywFjTE2BV5CmX0dwAg2WAyYKS8rngNPHDiIdbezK38CSoXaN89QjBN7Gn3d14hs3K-6RhPImFATxKMNMZTIsNEMj20u_z2LErpVq_BOEK_FE8T","width":4032}],"place_id":"ChIJmRAWMIFzsEcRPLCBsMcTn-o","plus_code":{"compound_code":"9MVV+QF Hanover","global_code":"9F4F9MVV+QF"},"price_level":2,"rating":4.6,"reference":"ChIJmRAWMIFzsEcRPLCBsMcTn-o","types":["restaurant","point_of_interest","food","establishment"],"user_ratings_total":1074},{"business_status":"OPERATIONAL","formatted_address":"Engelbosteler Damm 106, 30167 Hannover","geometry":{"location":{"lat":52.39100000000001,"lng":9.7212099},"viewport":{"northeast":{"lat":52.39258337989272,"lng":9.722398929892723},"southwest":{"lat":52.38988372010727,"lng":9.719699270107279}}},"icon":"https://maps.gstatic.com/mapfiles/place_api/icons/v1/png_71/restaurant-71.png","icon_background_color":"#FF9E67","icon_mask_base_uri":"https://maps.gstatic.com/mapfiles/place_api/icons/v2/restaurant_pinlet","name":"Tadim Gemüse Kebap","opening_hours":{"open_now":true},"photos":[{"height":764,"html_attributions":["<a href=\"https://maps.google.com/maps/contrib/104000104893999395714\">Kerem 63</a>"],"photo_reference":"AeJbb3frH2NaP-vMNFbOP_7uQRfDjRhL1NqpGdZdrEwRKVXHFbL9HfiusKGh2qQUYl2ed-5kgjHh-2FNEZMFjhRE79P7Q2Hw_Egt1uNWfpJfmt37RBE_sNNShceFG_7joTRRwHYK4ghgtnIz4n2GywJDZYItCd5uAqj4Gf3PSEbe-k8-vbMB","width":1500}],"place_id":"ChIJ8xKDKmJzsEcR4FqCAZCkd_o","plus_code":{"compound_code":"9PRC+CF Hanover","global_code":"9F4F9PRC+CF"},"price_level":1,"rating":4.6,"reference":"ChIJ8xKDKmJzsEcR4FqCAZCkd_o","types":["restaurant","food","point_of_interest","establishment"],"user_ratings_total":362},{"business_status":"OPERATIONAL","formatted_address":"Escherstraße 8, 30159 Hannover","geometry":{"location":{"lat":52.3758767,"lng":9.728811199999999},"viewport":{"northeast":{"lat":52.37717397989272,"lng":9.730209329892721},"southwest":{"lat":52.37447432010728,"lng":9.727509670107278}}},"icon":"https://maps.gstatic.com/mapfiles/place_api/icons/v1/png_71/restaurant-71.png","icon_background_color":"#FF9E67","icon_mask_base_uri":"https://maps.gstatic.com/mapfiles/place_api/icons/v2/restaurant_pinlet","name":"Selly's Kumpir Hannover","opening_hours":{"open_now":true},"photos":[{"height":1096,"html_attributions":["<a href=\"https://maps.google.com/maps/contrib/108951880403868200584\">A Google User</a>"],"photo_reference":"AeJbb3fbmhZ1EFnkNnQe6BgfcM4lcP6zCcImKNKeERiz3AYgkdtaltujFITFeKa48cRe55h9P4w7GCmhxMPrudopTdvKAnvdT1byWwCbuLSQMtdT-LoQpyGh01ChDecBt1mHS37URXEYyJMsMO9Y6cqWfQ5y0aRaoCP7ZHPJWUxmkTPoRFfb","width":881}],"place_id":"ChIJV9e8Glx1sEcRtwRHGrzkxxw","plus_code":{"compound_code":"9PGH+9G Hanover","global_code":"9F4F9PGH+9G"},"rating":4.6,"reference":"ChIJV9e8Glx1sEcRtwRHGrzkxxw","types":["meal_takeaway","restaurant","food","point_of_interest","establishment"],"user_ratings_total":253},{"business_status":"OPERATIONAL","formatted_address":"Voltastraße 16, 30165 Hannover","geometry":{"location":{"lat":52.39234769999999,"lng":9.733691},"viewport":{"northeast":{"lat":52.39360847989271,"lng":9.734908679892722},"southwest":{"lat":52.39090882010727,"lng":9.732209020107279}}},"icon":"https://maps.gstatic.com/mapfiles/place_api/icons/v1/png_71/restaurant-71.png","icon_background_color":"#FF9E67","icon_mask_base_uri":"https://maps.gstatic.com/mapfiles/place_api/icons/v2/restaurant_pinlet","name":"Incili Köşk","opening_hours":{"open_now":true},"photos":[{"height":1564,"html_attributions":["<a href=\"https://maps.google.com/maps/contrib/104314021908811620856\">A Google User</a>"],"photo_reference":"AeJbb3fbKTR-B7Ca69YH028uCdVZVdXNxB3gVGW4NuhJmaD90RMoW-rEBcfw3hfWxMPex655aksCsDmZyFqNIJyN05g99yXzxqjQHF3r3j3k1kYpFxKHwtbpxqG0hgNbzCMXx1BiYqgRvYVnJ5hQ0cu3uLCSghoNOn407MeUQX-2zJZLnjWy","width":1564}],"place_id":"ChIJlYzwmV5zsEcRALdDCaSecjw","plus_code":{"compound_code":"9PRM+WF Hanover","global_code":"9F4F9PRM+WF"},"price_level":1,"rating":4.6,"reference":"ChIJlYzwmV5zsEcRALdDCaSecjw","types":["restaurant","food","point_of_interest","establishment"],"user_ratings_total":191},{"business_status":"OPERATIONAL","formatted_address":"Schlägerstraße 3, 30171 Hannover","geometry":{"location":{"lat":52.365058,"lng":9.7480955},"viewport":{"northeast":{"lat":52.36635897989272,"lng":9.749400129892722},"southwest":{"lat":52.36365932010728,"lng":9.746700470107278}}},"icon":"https://maps.gstatic.com/mapfiles/place_api/icons/v1/png_71/restaurant-71.png","icon_background_color":"#FF9E67","icon_mask_base_uri":"https://maps.gstatic.com/mapfiles/place_api/icons/v2/restaurant_pinlet","name":"Urfa Tadim","opening_hours":{"open_now":true},"photos":[{"height":1600,"html_attributions":["<a href=\"https://maps.google.com/maps/contrib/112331066341265378225\">A Google User</a>"],"photo_reference":"AeJbb3ertexKkF75Gr_Q3LDqaGcFefnBNBKPPk4-HZpNNrutv5lC1Og7yJvhxZiNGznL8lXufDa_TGVw0WPcxp6r5sTHqzluRC8iov4QD4nCQsFrfQDfVM3-SlJR2AaeuNk-mA2SO3_FieUpdpjAm-kMHjGAbWYkW6GMk1mtl5PtNJWQ96wr","width":1200}],"place_id":"ChIJPz357vYLsEcRQOm9E_KU3dk","plus_code":{"compound_code":"9P8X+26 Hanover","global_code":"9F4F9P8X+26"},"rating":4.6,"reference":"ChIJPz357vYLsEcRQOm9E_KU3dk","types":["restaurant","point_of_interest","food","establishment"],"user_ratings_total":58},{"business_status":"OPERATIONAL","formatted_address":"Mainzer Str. 6, 30171 Hannover","geometry":{"location":{"lat":52.35682689999999,"lng":9.7689589},"viewport":{"northeast":{"lat":52.35816547989272,"lng":9.770254329892724},"southwest":{"lat":52.35546582010728,"lng":9.76755467010728}}},"icon":"https://maps.gstatic.com/mapfiles/place_api/icons/v1/png_71/restaurant-71.png","icon_background_color":"#FF9E67","icon_mask_base_uri":"https://maps.gstatic.com/mapfiles/place_api/icons/v2/restaurant_pinlet","name":"Kale Restaurant","opening_hours":{"open_now":false},"photos":[{"height":3024,"html_attributions":["<a href=\"https://maps.google.com/maps/contrib/105456024374648945512\">Michael Koeny</a>"],"photo_reference":"AeJbb3fEj6VNb6JwRtYJCCZOllEb8GB-U4y75exT-CHrN8gy69GIbFAjDLiXWysmd2fEp8uMq-qbdMDdCmt1sZ35t7WjiH6L79IsDmnAs47lN1iuWKiO65lERn-dYaonq10V3PNtCxmMeRlnF4wBNRAVGhYJWvIu9Hc2h8kVN1pxePICaC9J","width":4032}],"place_id":"ChIJfRxTIzwLsEcRnqDD0FuhizI","plus_code":{"compound_code":"9Q49+PJ Hanover","global_code":"9F4F9Q49+PJ"},"price_level":2,"rating":4.5,"reference":"ChIJfRxTIzwLsEcRnqDD0FuhizI","types":["meal_takeaway","restaurant","point_of_interest","food","establishment"],"user_ratings_total":549},{"business_status":"OPERATIONAL","formatted_address":"Steintorstraße 7, 30159 Hannover","geometry":{"location":{"lat":52.37504999999999,"lng":9.733426999999999},"viewport":{"northeast":{"lat":52.37637807989272,"lng":9.734852379892718},"southwest":{"lat":52.37367842010728,"lng":9.732152720107274}}},"icon":"https://maps.gstatic.com/mapfiles/place_api/icons/v1/png_71/restaurant-71.png","icon_background_color":"#FF9E67","icon_mask_base_uri":"https://maps.gstatic.com/mapfiles/place_api/icons/v2/restaurant_pinlet","name":"Karadeniz Lokantası - Restaurant Hannover","opening_hours":{"open_now":true},"photos":[{"height":8000,"html_attributions":["<a href=\"https://maps.google.com/maps/contrib/106517935211740448511\">Atakan acikbas</a>"],"photo_reference":"AeJbb3dmHqtqRtkHDu0IrUzmKZN1VT0q_iTFLfN2fzAUr82o7KIMlZObsubtJnHiJG4TussY3KL8HQNJeM4ECUvL_5VDHj54AfL8C28PosPe8KLFttCmorLGOHmepPDQP5GzKVGvTD4d4x4zBRDjeDR0SE4OM2ZQ8-JJ_RA6E0NUkY60ok7M","width":6000}],"place_id":"ChIJl5EHHrt0sEcRzoUt-g49Hh8","plus_code":{"compound_code":"9PGM+29 Hanover","global_code":"9F4F9PGM+29"},"price_level":1,"rating":4.5,"reference":"ChIJl5EHHrt0sEcRzoUt-g49Hh8","types":["meal_takeaway","restaurant","food","point_of_interest","establishment"],"user_ratings_total":516},{"business_status":"OPERATIONAL","formatted_address":"Stettiner Str. 1, 30916 Isernhagen","geometry":{"location":{"lat":52.4310668,"lng":9.8503636},"viewport":{"northeast":{"lat":52.43249792989272,"lng":9.851746879892723},"southwest":{"lat":52.42979827010728,"lng":9.849047220107279}}},"icon":"https://maps.gstatic.com/mapfiles/place_api/icons/v1/png_71/restaurant-71.png","icon_background_color":"#FF9E67","icon_mask_base_uri":"https://maps.gstatic.com/mapfiles/place_api/icons/v2/restaurant_pinlet","name":"Tandur","opening_hours":{"open_now":true},"photos":[{"height":1836,"html_attributions":["<a href=\"https://maps.google.com/maps/contrib/116342321060696646079\">Sascha Wolf</a>"],"photo_reference":"AeJbb3eYc_SrPT4PfL_qluTNeXpwM_ouIOTW0YsC1D7pVHOIlO3neB0-meta6Zh4YLcekiA2oYDBL3QA1N1ZPebVw4QmWZJ_AMxJ-ruAi3-4QUIccx3qyYGhauInODKIgY2GJ_u-leRvnkU8no1YAbpGUQr04CaFwOv1kr_IKFCSen4QlhFI","width":3264}],"place_id":"ChIJZbqFpbANsEcRjD5-6ASMUZY","plus_code":{"compound_code":"CVJ2+C4 Isernhagen","global_code":"9F4FCVJ2+C4"},"price_level":2,"rating":4.5,"reference":"ChIJZbqFpbANsEcRjD5-6ASMUZY","types":["restaurant","food","point_of_interest","establishment"],"user_ratings_total":429},{"business_status":"OPERATIONAL","formatted_address":"Kanalstraße 9, 30159 Hannover","geometry":{"location":{"lat":52.3761297,"lng":9.7350608},"viewport":{"northeast":{"lat":52.37748727989272,"lng":9.73644892989272},"southwest":{"lat":52.37478762010728,"lng":9.733749270107277}}},"icon":"https://maps.gstatic.com/mapfiles/place_api/icons/v1/png_71/restaurant-71.png","icon_background_color":"#FF9E67","icon_mask_base_uri":"https://maps.gstatic.com/mapfiles/place_api/icons/v2/restaurant_pinlet","name":"Kumkapi Restaurant","opening_hours":{"open_now":false},"photos":[{"height":4032,"html_attributions":["<a href=\"https://maps.google.com/maps/contrib/104034293726936854790\">Maig Pessel</a>"],"photo_reference":"AeJbb3f0nOUdD1KiHcJf-9fnclSZL0voDtfud5XVM51kDNbrTwgfcTMpvFMPwcSxtoCIoP8VsVY5FGszygnEZ8XFmBeu9gkPDSKVO2nt6fMzhXzdOaYmpB7erqMmCdlpAGTPLsEho_qjgzOhLZ360aAPAt2PzuwZefNqyb7BrZvvBuzL6yNy","width":2268}],"place_id":"ChIJe1Kxz7p0sEcRDSnAsTcwelU","plus_code":{"compound_code":"9PGP+F2 Hanover","global_code":"9F4F9PGP+F2"},"price_level":2,"rating":4.5,"reference":"ChIJe1Kxz7p0sEcRDSnAsTcwelU","types":["bar","restaurant","point_of_interest","food","establishment"],"user_ratings_total":421},{"business_status":"OPERATIONAL","formatted_address":"Gustav-Adolf-Straße 6, 30167 Hannover","geometry":{"location":{"lat":52.3820142,"lng":9.726735900000001},"viewport":{"northeast":{"lat":52.38339322989273,"lng":9.728064329892721},"southwest":{"lat":52.38069357010728,"lng":9.725364670107277}}},"icon":"https://maps.gstatic.com/mapfiles/place_api/icons/v1/png_71/restaurant-71.png","icon_background_color":"#FF9E67","icon_mask_base_uri":"https://maps.gstatic.com/mapfiles/place_api/icons/v2/restaurant_pinlet","name":"Kebapci Musa Hannover","opening_hours":{"open_now":true},"photos":[{"height":3648,"html_attributions":["<a href=\"https://maps.google.com/maps/contrib/107834740369048317536\">aysel uygun</a>"],"photo_reference":"AeJbb3d0_rbbnvUGQD5OOBiNFnt0oeUSSko1QrDmve3X3JL9I2GdC1k85Qg-8fuFL6ac1CbKAGCC7YQCCv6nNUwUNYb8j6tf1-ARhxRQtKtN0bCwMgwQNl0VI506nveMSQkiSb6yfjwMaBLyRjGoSNzFRnAeJVrXY4vJWN0lWvJia-mC1rCL","width":1824}],"place_id":"ChIJY1LyF6J0sEcRqLZumD5YA4c","plus_code":{"compound_code":"9PJG+RM Hanover","global_code":"9F4F9PJG+RM"},"rating":4.5,"reference":"ChIJY1LyF6J0sEcRqLZumD5YA4c","types":["restaurant","food","point_of_interest","establishment"],"user_ratings_total":395},{"business_status":"OPERATIONAL","formatted_address":"Roscherstraße 3, 30161 Hannover","geometry":{"location":{"lat":52.3763545,"lng":9.7484063},"viewport":{"northeast":{"lat":52.37772802989272,"lng":9.749797629892722},"southwest":{"lat":52.37502837010727,"lng":9.747097970107278}}},"icon":"https://maps.gstatic.com/mapfiles/place_api/icons/v1/png_71/restaurant-71.png","icon_background_color":"#FF9E67","icon_mask_base_uri":"https://maps.gstatic.com/mapfiles/place_api/icons/v2/restaurant_pinlet","name":"Restaurant Aspera","opening_hours":{"open_now":false},"photos":[{"height":450,"html_attributions":["<a href=\"https://maps.google.com/maps/contrib/115342367073648955236\">A Google User</a>"],"photo_reference":"AeJbb3d3Zmn_46zZ2MI42pg-UvrVmay2ZuwrHKUYZERgHuGsyaOKuIrERtFzAoFeFe1A2jbyIMeSurb71rABtvdKcM-Ci4krUH8WihTIIyzTC2drPvL0WlIwZjts8I1PPjvEJCeOgNr3of-TilSKNQJz54ox4fKQPY3TseuThRSquFXTt6Z4","width":603}],"place_id":"ChIJJRlyna10sEcRlAAPQbGDCcs","plus_code":{"compound_code":"9PGX+G9 Hanover","global_code":"9F4F9PGX+G9"},"price_level":2,"rating":4.5,"reference":"ChIJJRlyna10sEcRlAAPQbGDCcs","types":["restaurant","point_of_interest","food","establishment"],"user_ratings_total":371},{"business_status":"OPERATIONAL","formatted_address":"Hildesheimer Str. 47, 30880 Laatzen","geometry":{"location":{"lat":52.31734059999999,"lng":9.7897319},"viewport":{"northeast":{"lat":52.31868042989272,"lng":9.791201729892721},"southwest":{"lat":52.31598077010727,"lng":9.788502070107278}}},"icon":"https://maps.gstatic.com/mapfiles/place_api/icons/v1/png_71/restaurant-71.png","icon_background_color":"#FF9E67","icon_mask_base_uri":"https://maps.gstatic.com/mapfiles/place_api/icons/v2/restaurant_pinlet","name":"Alt-Laatzener Döner","opening_hours":{"open_now":true},"photos":[{"height":1485,"html_attributions":["<a href=\"https://maps.google.com/maps/contrib/102749593942176392933\">Nozat Khalil</a>"],"photo_reference":"AeJbb3edQ7_DohzxQjah97w3GfJiGe8sOAlsiuHkngWRAaJywJGJKvyeTz1wTNEhRkqhTy18zlxo0syu7W6KYfDJZbVQ-8rKKBgAkTUVsJhfF3Ub0oTGFiqRRiGUYoGe_G_tFHiYB34TyyAihfbofqHhPaE5Db6W5HfeL8WfwazVTPEAlQO2","width":1485}],"place_id":"ChIJKwvGrYQLsEcRDjt-94PysqM","plus_code":{"compound_code":"8Q8Q+WV Laatzen","global_code":"9F4F8Q8Q+WV"},"price_level":1,"rating":4.5,"reference":"ChIJKwvGrYQLsEcRDjt-94PysqM","types":["restaurant","food","point_of_interest","establishment"],"user_ratings_total":86},{"business_status":"OPERATIONAL","formatted_address":"Schulenburger Landstraße 103, 30165 Hannover","geometry":{"location":{"lat":52.4052675,"lng":9.711407},"viewport":{"northeast":{"lat":52.40666397989272,"lng":9.71271682989272},"southwest":{"lat":52.40396432010727,"lng":9.710017170107276}}},"icon":"https://maps.gstatic.com/mapfiles/place_api/icons/v1/png_71/restaurant-71.png","icon_background_color":"#FF9E67","icon_mask_base_uri":"https://maps.gstatic.com/mapfiles/place_api/icons/v2/restaurant_pinlet","name":"Atas Kebab House - Halal","opening_hours":{"open_now":true},"photos":[{"height":2184,"html_attributions":["<a href=\"https://maps.google.com/maps/contrib/113310095802604244284\">Fabian-Ali Krüger</a>"],"photo_reference":"AeJbb3e1KAFNRDF7RCFRaLJ5FSrv4xBojEhCMb2SyigFZ-4fQ7Tc7P0A6y-T-X_UE0ecmU-vorvQaLza3kGIYc8PbDs9dBCIeSieKD96aBh_oSq9LoKv92-9HDGWajgjr0XW_Yc10PimOYoFDGk2q6QuYCYOSd9uWjTDP5n6Mq4F6vAahDOk","width":4608}],"place_id":"ChIJN8nxr3ZzsEcRXK6mmyQFVwA","plus_code":{"compound_code":"CP46+4H Hanover","global_code":"9F4FCP46+4H"},"rating":4.4,"reference":"ChIJN8nxr3ZzsEcRXK6mmyQFVwA","types":["restaurant","food","point_of_interest","establishment"],"user_ratings_total":652},{"business_status":"OPERATIONAL","formatted_address":"Podbielskistraße 348, 30659 Hannover","geometry":{"location":{"lat":52.4058316,"lng":9.8010897},"viewport":{"northeast":{"lat":52.40739557989272,"lng":9.802185879892722},"southwest":{"lat":52.40469592010727,"lng":9.799486220107278}}},"icon":"https://maps.gstatic.com/mapfiles/place_api/icons/v1/png_71/restaurant-71.png","icon_background_color":"#FF9E67","icon_mask_base_uri":"https://maps.gstatic.com/mapfiles/place_api/icons/v2/restaurant_pinlet","name":"Sultan Kebap Schnellrestaurant","opening_hours":{"open_now":true},"photos":[{"height":1200,"html_attributions":["<a href=\"https://maps.google.com/maps/contrib/117552479470978529746\">ilyas chaabane</a>"],"photo_reference":"AeJbb3epjKgLIwu1nfOKqB9jtdDfIWJ3HmxVIaeU426tCWNWt_k9iNDUcPmQPCSR63ZvM0rSnw-lH0fLxeCzxV2vAoUvDP6e5-KSYG8XFxEDgqAwFcgspq8DV-42jq0qWfQWvRiIbiEqVQumdcjwdQYO68FApwKvZrMkWb4altYY7PEQrEME","width":1600}],"place_id":"ChIJOe6E9uwMsEcR7aHHr82mU1A","plus_code":{"compound_code":"CR42+8C Hanover","global_code":"9F4FCR42+8C"},"price_level":1,"rating":4.4,"reference":"ChIJOe6E9uwMsEcR7aHHr82mU1A","types":["restaurant","food","point_of_interest","establishment"],"user_ratings_total":558},{"business_status":"OPERATIONAL","formatted_address":"Hildesheimer Str. 272, 30519 Hannover","geometry":{"location":{"lat":52.3372222,"lng":9.7688889},"viewport":{"northeast":{"lat":52.33856042989272,"lng":9.77024847989272},"southwest":{"lat":52.33586077010727,"lng":9.767548820107276}}},"icon":"https://maps.gstatic.com/mapfiles/place_api/icons/v1/png_71/restaurant-71.png","icon_background_color":"#FF9E67","icon_mask_base_uri":"https://maps.gstatic.com/mapfiles/place_api/icons/v2/restaurant_pinlet","name":"Back For You","opening_hours":{"open_now":true},"photos":[{"height":1600,"html_attributions":["<a href=\"https://maps.google.com/maps/contrib/118056483096202637049\">A Google User</a>"],"photo_reference":"AeJbb3dodsN-dqe5mtPEJtmnGNMfcvOzeSJ81sQGV3QQYq6hsVzmFvaMW7e_xb3o7eoYo0yLH_kv2x2qqCwPyY_W3YEO_ZbTBo_abASrnXbqQL3rNWPI5bAqLLAi-uthMWafYHV8U6kTdKTNcbB72_234LtNoWFdTskCGk0CRXZ_9bb9QNg","width":1200}],"place_id":"ChIJ2borftMLsEcRY_Fr-CSyINs","plus_code":{"compound_code":"8QP9+VH Hanover","global_code":"9F4F8QP9+VH"},"price_level":1,"rating":4.4,"reference":"ChIJ2borftMLsEcRY_Fr-CSyINs","types":["restaurant","food","point_of_interest","establishment"],"user_ratings_total":251},{"business_status":"OPERATIONAL","formatted_address":"Ritter-Brüning-Straße 22, 30449 Hannover","geometry":{"location":{"lat":52.36118,"lng":9.720799999999999},"viewport":{"northeast":{"lat":52.36254857989272,"lng":9.72231967989272},"southwest":{"lat":52.35984892010728,"lng":9.719620020107277}}},"icon":"https://maps.gstatic.com/mapfiles/place_api/icons/v1/png_71/restaurant-71.png","icon_background_color":"#FF9E67","icon_mask_base_uri":"https://maps.gstatic.com/mapfiles/place_api/icons/v2/restaurant_pinlet","name":"Döner-Kebab Haus","opening_hours":{"open_now":true},"photos":[{"height":4624,"html_attributions":["<a href=\"https://maps.google.com/maps/contrib/100625293269552969395\">A Google User</a>"],"photo_reference":"AeJbb3ei6Ga4iY_5gJDPG8o8WrYFWmd1KdBvvZe6sbj2TnmsVWT83B6lE0Egt1P4sRMucdeCZqQtEgb4U-sUarPxFuuHrtvTLgU5PjgqsVdgtaxi4OzUDVYRe8ANSyBp3zTLLX0geW_DjEXmdEkzM10P9x_MUymtGJWRCZgWHLS7Y7IlUDxf","width":3472}],"place_id":"ChIJm0R_LsJ0sEcRraPard2ZE2c","plus_code":{"compound_code":"9P6C+F8 Hanover","global_code":"9F4F9P6C+F8"},"price_level":1,"rating":4.4,"reference":"ChIJm0R_LsJ0sEcRraPard2ZE2c","types":["meal_takeaway","restaurant","point_of_interest","food","establishment"],"user_ratings_total":242},{"business_status":"OPERATIONAL","formatted_address":"Degerser Str. 30, 30974 Wennigsen (Deister)","geometry":{"location":{"lat":52.2818681,"lng":9.5757756},"viewport":{"northeast":{"lat":52.28296927989273,"lng":9.576756579892722},"southwest":{"lat":52.28026962010728,"lng":9.574056920107278}}},"icon":"https://maps.gstatic.com/mapfiles/place_api/icons/v1/png_71/restaurant-71.png","icon_background_color":"#FF9E67","icon_mask_base_uri":"https://maps.gstatic.com/mapfiles/place_api/icons/v2/restaurant_pinlet","name":"URFA STAR KEBAP HAUS","opening_hours":{"open_now":true},"photos":[{"height":3922,"html_attributions":["<a href=\"https://maps.google.com/maps/contrib/116572435980515430526\">A Google User</a>"],"photo_reference":"AeJbb3e_PuOiWD_ajIQ2l0aSOcD5bWJyv8TDc6WtaVVmzAnxjEdOUS03Xqot9V4bOCii3P3zOc1WQm2KrOrAd_itUPO58rz9ylKdUmfBgK1-SibkM2Tx4dHNvTebDmBMzVL2yc93iFltD6-zdPubw4ZGKirASO91M2EfJsC7FCCdpMANXsZS","width":2232}],"place_id":"ChIJfdtJ0sydukcRFLzDgsagbn0","plus_code":{"compound_code":"7HJG+P8 Wennigsen","global_code":"9F4F7HJG+P8"},"rating":4.4,"reference":"ChIJfdtJ0sydukcRFLzDgsagbn0","types":["restaurant","point_of_interest","food","establishment"],"user_ratings_total":236},{"business_status":"OPERATIONAL","formatted_address":"Hogrefestraße 45, 30419 Hannover","geometry":{"location":{"lat":52.41463359999999,"lng":9.6657884},"viewport":{"northeast":{"lat":52.41569537989272,"lng":9.667109679892723},"southwest":{"lat":52.41299572010728,"lng":9.66441002010728}}},"icon":"https://maps.gstatic.com/mapfiles/place_api/icons/v1/png_71/restaurant-71.png","icon_background_color":"#FF9E67","icon_mask_base_uri":"https://maps.gstatic.com/mapfiles/place_api/icons/v2/restaurant_pinlet","name":"Alaturka Grill","opening_hours":{"open_now":true},"photos":[{"height":3968,"html_attributions":["<a href=\"https://maps.google.com/maps/contrib/101836652964343429729\">A Google User</a>"],"photo_reference":"AeJbb3ck09q9sZFWz-eMfP96Niy6hEjT1j2W81SXSxkBYqG_UK3Oo8GASKA3dWq4R_IHLuGC5lhiDk6VnfcZvy9plH4Ja6lj-s29SyYnuB1c11K3v6oDLxPp_Fmcw7QP4J-q-Mhsr03SdaeVIT3YUyYqgFnw95I6Wzdp40NJ1UjurQ_HPtI","width":2240}],"place_id":"ChIJ7yueH-hzsEcRJiJrFnEo-5Y","plus_code":{"compound_code":"CM78+R8 Hanover","global_code":"9F4FCM78+R8"},"price_level":1,"rating":4.4,"reference":"ChIJ7yueH-hzsEcRJiJrFnEo-5Y","types":["restaurant","food","point_of_interest","establishment"],"user_ratings_total":195},{"business_status":"OPERATIONAL","formatted_address":"Kurt-Schumacher-Straße 33, 30159 Hannover","geometry":{"location":{"lat":52.37645939999999,"lng":9.7334289},"viewport":{"northeast":{"lat":52.37791112989272,"lng":9.73478897989272},"southwest":{"lat":52.37521147010727,"lng":9.732089320107276}}},"icon":"https://maps.gstatic.com/mapfiles/place_api/icons/v1/png_71/restaurant-71.png","icon_background_color":"#FF9E67","icon_mask_base_uri":"https://maps.gstatic.com/mapfiles/place_api/icons/v2/restaurant_pinlet","name":"Nazar Restaurant Hannover","opening_hours":{"open_now":true},"photos":[{"height":4032,"html_attributions":["<a href=\"https://maps.google.com/maps/contrib/103833460910035272055\">A Google User</a>"],"photo_reference":"AeJbb3cHbeOCzDWIGcBSikHWwOFESSUjUNti6LcD3mB9c6Py_ANNMzxKY2AkWEIfP1esGiy16RiJb9n4dEFMSZ65QqtPFcjoP5TKyhmSA1CsMBdbtGe37vDWGdMWcFfZh4wu6nuzWqGAP9b7ffjVkieysku7s-4X-ruP7uDnPCo_dp3mR5CM","width":3024}],"place_id":"ChIJcfQ6ZGN1sEcRHU8X2_tsawA","plus_code":{"compound_code":"9PGM+H9 Hanover","global_code":"9F4F9PGM+H9"},"rating":4.4,"reference":"ChIJcfQ6ZGN1sEcRHU8X2_tsawA","types":["meal_delivery","meal_takeaway","restaurant","food","point_of_interest","store","establishment"],"user_ratings_total":111},{"business_status":"OPERATIONAL","formatted_address":"Vahrenwalder Str. 61, 30165 Hannover","geometry":{"location":{"lat":52.39060800000001,"lng":9.7343584},"viewport":{"northeast":{"lat":52.39196177989272,"lng":9.735734529892722},"southwest":{"lat":52.38926212010728,"lng":9.733034870107279}}},"icon":"https://maps.gstatic.com/mapfiles/place_api/icons/v1/png_71/generic_business-71.png","icon_background_color":"#7B9EB0","icon_mask_base_uri":"https://maps.gstatic.com/mapfiles/place_api/icons/v2/generic_pinlet","name":"Pala's Samsun","opening_hours":{"open_now":true},"photos":[{"height":4624,"html_attributions":["<a href=\"https://maps.google.com/maps/contrib/110050466134377499222\">Enes Putin</a>"],"photo_reference":"AeJbb3eJKukv3Dtdai2Bg-B_DJHzXgy9MO0LndX79sTsyiyMLXDC5pSSWhixaJDMtcHf2p4gcTXLsUM-8992CArYy8mL5RR_zhoiOMAM-JbTXtnY-0DIwRJ_63nPH3HN9_zU6H-UocgB6PC5dA7UIpsNAxefuWTPE4Ii3-zCh_qDwQpFdVgn","width":3472}],"place_id":"ChIJB-UM-ERzsEcRe7PBXiVbJu8","plus_code":{"compound_code":"9PRM+6P Hanover","global_code":"9F4F9PRM+6P"},"rating":4.4,"reference":"ChIJB-UM-ERzsEcRe7PBXiVbJu8","types":["cafe","restaurant","food","point_of_interest","establishment"],"user_ratings_total":20},{"business_status":"OPERATIONAL","formatted_address":"Hildesheimer Str. 209, 30519 Hannover","geometry":{"location":{"lat":52.34488,"lng":9.763029999999999},"viewport":{"northeast":{"lat":52.34616227989272,"lng":9.764269179892722},"southwest":{"lat":52.34346262010727,"lng":9.761569520107278}}},"icon":"https://maps.gstatic.com/mapfiles/place_api/icons/v1/png_71/restaurant-71.png","icon_background_color":"#FF9E67","icon_mask_base_uri":"https://maps.gstatic.com/mapfiles/place_api/icons/v2/restaurant_pinlet","name":"Döner King","opening_hours":{"open_now":true},"photos":[{"height":4032,"html_attributions":["<a href=\"https://maps.google.com/maps/contrib/106018881384148412536\">Mikael Gyllhamn</a>"],"photo_reference":"AeJbb3dH0GuLJATpVbWmtB9ncMIKp4vAP7MO2REyckzbgZVEYlxi93V78yxri9xwsIwGxsjw82DLhB81WqCDnFuUWgrPVs6uODN6lOK_zMz343y_59BwNPHpkk5LYB0KDpo7_joNnbe12kJJFkmAJcvgD0zlriSefYNvuQzyzZT7bR1Aw2Dj","width":3024}],"place_id":"ChIJwdaQKSELsEcRrpcjxO0HlV8","plus_code":{"compound_code":"8QV7+X6 Hanover","global_code":"9F4F8QV7+X6"},"price_level":1,"rating":4.3,"reference":"ChIJwdaQKSELsEcRrpcjxO0HlV8","types":["restaurant","point_of_interest","food","establishment"],"user_ratings_total":735},{"business_status":"OPERATIONAL","formatted_address":"Hildesheimer Str. 27, 30880 Laatzen","geometry":{"location":{"lat":52.31924,"lng":9.78755},"viewport":{"northeast":{"lat":52.32049382989272,"lng":9.788798629892723},"southwest":{"lat":52.31779417010728,"lng":9.786098970107279}}},"icon":"https://maps.gstatic.com/mapfiles/place_api/icons/v1/png_71/restaurant-71.png","icon_background_color":"#FF9E67","icon_mask_base_uri":"https://maps.gstatic.com/mapfiles/place_api/icons/v2/restaurant_pinlet","name":"Bosporus Kebap Haus","opening_hours":{"open_now":true},"photos":[{"height":3024,"html_attributions":["<a href=\"https://maps.google.com/maps/contrib/107057114696984033122\">Karsten Steuer</a>"],"photo_reference":"AeJbb3cAGTpqgHOyoddXJxWngFyz3oNOuHyMX8HTzf-jn0hyB08LFvHbMU3L-oRxkeZoCFGr3na_Kjo5NMzh-u62FHZR8eKnkKlamqpzU2pz9ia_ZRz_5DfTfOf_vIsFHMMd954RZcEelJUSSfLFmkctR1dXQAFuJRZ2t1EDfnFh9oNYsM8Q","width":4032}],"place_id":"ChIJw7koOPUKsEcRNb_MYipdFio","plus_code":{"compound_code":"8Q9Q+M2 Laatzen","global_code":"9F4F8Q9Q+M2"},"price_level":1,"rating":4.3,"reference":"ChIJw7koOPUKsEcRNb_MYipdFio","types":["restaurant","food","point_of_interest","establishment"],"user_ratings_total":702},{"business_status":"OPERATIONAL","formatted_address":"Thie 1, 30539 Hannover","geometry":{"location":{"lat":52.3383714,"lng":9.834291499999999},"viewport":{"northeast":{"lat":52.33955557989272,"lng":9.835434679892721},"southwest":{"lat":52.33685592010728,"lng":9.832735020107277}}},"icon":"https://maps.gstatic.com/mapfiles/place_api/icons/v1/png_71/restaurant-71.png","icon_background_color":"#FF9E67","icon_mask_base_uri":"https://maps.gstatic.com/mapfiles/place_api/icons/v2/restaurant_pinlet","name":"Restaurant Istanbul","opening_hours":{"open_now":true},"photos":[{"height":3024,"html_attributions":["<a href=\"https://maps.google.com/maps/contrib/109922055251459401493\">Piotr Bak</a>"],"photo_reference":"AeJbb3doCJExixpRlAczbYahYjKLjrdHfnkAsSwdiopV3E_pQrTx5a2he1PahKXKoibvspAG7cacCpH7DRhO3Wfgrhj44NOPoC8FmBpHlbw7rkeKU0Rs1CfI7ZMV1ZMV9sMsmvnr45cgNxyHtE5G4YeIB99bU3pYEj_dqIAvoNG5t0I71TQ","width":4032}],"place_id":"ChIJL0TM8swLsEcRXa9hCN7ohow","plus_code":{"compound_code":"8RQM+8P Hanover","global_code":"9F4F8RQM+8P"},"price_level":1,"rating":4.3,"reference":"ChIJL0TM8swLsEcRXa9hCN7ohow","types":["restaurant","food","point_of_interest","establishment"],"user_ratings_total":589},{"business_status":"OPERATIONAL","formatted_address":"Ricklinger Stadtweg 42, 30459 Hannover","geometry":{"location":{"lat":52.3472138,"lng":9.7241865},"viewport":{"northeast":{"lat":52.34855207989271,"lng":9.725465329892721},"southwest":{"lat":52.34585242010727,"lng":9.722765670107277}}},"icon":"https://maps.gstatic.com/mapfiles/place_api/icons/v1/png_71/restaurant-71.png","icon_background_color":"#FF9E67","icon_mask_base_uri":"https://maps.gstatic.com/mapfiles/place_api/icons/v2/restaurant_pinlet","name":"Ricklinger Döner","opening_hours":{"open_now":true},"photos":[{"height":1080,"html_attributions":["<a href=\"https://maps.google.com/maps/contrib/106525377918315516338\">Tro Lolo</a>"],"photo_reference":"AeJbb3dSKlpncCzTh3X_hpdeFuPfxEr0SXyuI0wADu_AN9D6bqcMe5zvREVURW0TiZw1Z7THqoke9fh31pUqjMJaQzs5S3q4iFUchX3ATmdYWERnwLbwu5qj6QA7OUvxrAQTqdhet05MQncgI7Wftx21OJ6Tr5_rFTcG7FK9FrsFxA3ciFju","width":1920}],"place_id":"ChIJXwhcWth0sEcRQHpfclbbaeg","plus_code":{"compound_code":"8PWF+VM Hanover","global_code":"9F4F8PWF+VM"},"price_level":1,"rating":4.3,"reference":"ChIJXwhcWth0sEcRQHpfclbbaeg","types":["meal_takeaway","restaurant","point_of_interest","food","establishment"],"user_ratings_total":344},{"business_status":"OPERATIONAL","formatted_address":"Ihmer Tor 16, 30952 Ronnenberg","geometry":{"location":{"lat":52.3164323,"lng":9.6621759},"viewport":{"northeast":{"lat":52.31783312989273,"lng":9.663467729892723},"southwest":{"lat":52.31513347010728,"lng":9.66076807010728}}},"icon":"https://maps.gstatic.com/mapfiles/place_api/icons/v1/png_71/restaurant-71.png","icon_background_color":"#FF9E67","icon_mask_base_uri":"https://maps.gstatic.com/mapfiles/place_api/icons/v2/restaurant_pinlet","name":"Dönerium 2","opening_hours":{"open_now":true},"photos":[{"height":2752,"html_attributions":["<a href=\"https://maps.google.com/maps/contrib/108357196940903262042\">A Google User</a>"],"photo_reference":"AeJbb3fvpljnI96DB-v0zE_sp-mAj8WiZaDHPKTDTq1g3YPLEPaNQPcUovG-U2YAVTQ-XRVkek6pvOBOItWUY6XHhPjOY-mIoFWmeP1JyLSAWLfWOFxUGtY1B1bhSeQhY3mX66BjxjmD93DAa35G7FqklTfNYzKILQaocW_XkdHCBXmPLMi8","width":5664}],"place_id":"ChIJWwmTV1R1sEcREtg2xInuABM","plus_code":{"compound_code":"8M86+HV Ronnenberg","global_code":"9F4F8M86+HV"},"rating":4.3,"reference":"ChIJWwmTV1R1sEcREtg2xInuABM","types":["restaurant","food","point_of_interest","establishment"],"user_ratings_total":253},{"business_status":"OPERATIONAL","formatted_address":"Schillerstraße 34, 30159 Hannover","geometry":{"location":{"lat":52.375511,"lng":9.7360049},"viewport":{"northeast":{"lat":52.37691552989272,"lng":9.737982129892721},"southwest":{"lat":52.37421587010728,"lng":9.735282470107277}}},"icon":"https://maps.gstatic.com/mapfiles/place_api/icons/v1/png_71/restaurant-71.png","icon_background_color":"#FF9E67","icon_mask_base_uri":"https://maps.gstatic.com/mapfiles/place_api/icons/v2/restaurant_pinlet","name":"MC Döner Restaurant","opening_hours":{"open_now":true},"photos":[{"height":945,"html_attributions":["<a href=\"https://maps.google.com/maps/contrib/118288924361445456282\">A Google User</a>"],"photo_reference":"AeJbb3c7I5lH6cNP7vhzc8I-3z79-hWZLCNlVeQJLo4FbHjAKr4BZtm2PUcAIYag3LiwC9nh8uTaqRzkxhHJRkAgkNap0qm5FkLUSfqx5Kp5d-uUBQfuYGAXTokf1d-LUmM_ZjL8fNRJlvs3oWcseSvjLBHiwrnfgTbnnTtM9ugDB38a4qOt","width":1530}],"place_id":"ChIJG1X-nJl1sEcR25M8cZz4N3Y","plus_code":{"compound_code":"9PGP+6C Hanover","global_code":"9F4F9PGP+6C"},"price_level":1,"rating":4.3,"reference":"ChIJG1X-nJl1sEcR25M8cZz4N3Y","types":["restaurant","food","point_of_interest","establishment"],"user_ratings_total":168},{"business_status":"OPERATIONAL","formatted_address":"Engelbosteler Damm 10, 30167 Hannover","geometry":{"location":{"lat":52.3829034,"lng":9.7257277},"viewport":{"northeast":{"lat":52.38423602989272,"lng":9.726945179892722},"southwest":{"lat":52.38153637010728,"lng":9.724245520107278}}},"icon":"https://maps.gstatic.com/mapfiles/place_api/icons/v1/png_71/restaurant-71.png","icon_background_color":"#FF9E67","icon_mask_base_uri":"https://maps.gstatic.com/mapfiles/place_api/icons/v2/restaurant_pinlet","name":"Kebap 44","opening_hours":{"open_now":true},"photos":[{"height":2988,"html_attributions":["<a href=\"https://maps.google.com/maps/contrib/114530041103782032263\">Azad Azad13</a>"],"photo_reference":"AeJbb3emGeWasKWPQivYTxXfQoi5vLqnHYDzc7n_P-q-UvBiZS_nXsLWNL_zqL32uu92x_qMEqx7GT3gHwTy9XKvmOiGl0QnmsN-c8ngLd0u49g7geThydUcwUtJl4YqXa78NOWUsS36ee7c0O8FiJM2BHecUBpUuPHdfZ5Y0KhPRvXJuhtD","width":5312}],"place_id":"ChIJUTYu7n85ZUERwrfRZ9BpJHg","plus_code":{"compound_code":"9PMG+57 Hanover","global_code":"9F4F9PMG+57"},"price_level":1,"rating":4.2,"reference":"ChIJUTYu7n85ZUERwrfRZ9BpJHg","types":["restaurant","food","point_of_interest","establishment"],"user_ratings_total":666},{"business_status":"OPERATIONAL","formatted_address":"Ricklinger Stadtweg 38, 30459 Hannover","geometry":{"location":{"lat":52.346581,"lng":9.724341700000002},"viewport":{"northeast":{"lat":52.34792822989272,"lng":9.725672929892722},"southwest":{"lat":52.34522857010727,"lng":9.722973270107278}}},"icon":"https://maps.gstatic.com/mapfiles/place_api/icons/v1/png_71/restaurant-71.png","icon_background_color":"#FF9E67","icon_mask_base_uri":"https://maps.gstatic.com/mapfiles/place_api/icons/v2/restaurant_pinlet","name":"ÖZ ANTALYA KEBAP","opening_hours":{"open_now":true},"photos":[{"height":2736,"html_attributions":["<a href=\"https://maps.google.com/maps/contrib/115155543190747415286\">A Google User</a>"],"photo_reference":"AeJbb3cjwDb3rEmzEsrkGS1YoPOtV6mg2XxU154f5jWl7tEpuh9OnJ0guZ7Y3Ze_o3tT5_za0-e9-e4vHMUIa3qNs8oxF3gSl2NRQCGaIc10XkkaIHMiXvp5jMya_9ei5y1xP8gvRRcxE2fOjamFispg_FPaOgwcq9F_RNAEmg_aNUr9qKMb","width":3648}],"place_id":"ChIJ89NJaNh0sEcR4ClV0vZW1IQ","plus_code":{"compound_code":"8PWF+JQ Hanover","global_code":"9F4F8PWF+JQ"},"price_level":1,"rating":4.2,"reference":"ChIJ89NJaNh0sEcR4ClV0vZW1IQ","types":["restaurant","food","point_of_interest","establishment"],"user_ratings_total":661},{"business_status":"OPERATIONAL","formatted_address":"Kreuzkirchhof 5, 30159 Hannover","geometry":{"location":{"lat":52.37316,"lng":9.73218},"viewport":{"northeast":{"lat":52.37450842989272,"lng":9.733642229892721},"southwest":{"lat":52.37180877010728,"lng":9.730942570107278}}},"icon":"https://maps.gstatic.com/mapfiles/place_api/icons/v1/png_71/restaurant-71.png","icon_background_color":"#FF9E67","icon_mask_base_uri":"https://maps.gstatic.com/mapfiles/place_api/icons/v2/restaurant_pinlet","name":"Kreuzklappe - Türkisches Restaurant","opening_hours":{"open_now":true},"photos":[{"height":3024,"html_attributions":["<a href=\"https://maps.google.com/maps/contrib/108843971656254975769\">Joerg Schwenk</a>"],"photo_reference":"AeJbb3dxP87zrEo7caGi88tUwJIBOeYlVLilr-umgWbgV_VdJ34PAiniZk2f8_OT8W4DrO0SSadxFWppVaGQzob_pG_8mLJI35rzK3uOhBPkYFgKJQ5bkeMmg3tp-BMXPGlIR1Gy4n2K2xKzZJ4oB_cY0ivbJFvz-TryQ8tsUeJm_uc_kaRs","width":4032}],"place_id":"ChIJQUFCsbt0sEcRw3GS5Z5HAGs","plus_code":{"compound_code":"9PFJ+7V Hanover","global_code":"9F4F9PFJ+7V"},"price_level":2,"rating":4.2,"reference":"ChIJQUFCsbt0sEcRw3GS5Z5HAGs","types":["restaurant","food","point_of_interest","establishment"],"user_ratings_total":359},{"business_status":"OPERATIONAL","formatted_address":"Vahrenwalder Str. 287, 30179 Hannover","geometry":{"location":{"lat":52.4179198,"lng":9.7331627},"viewport":{"northeast":{"lat":52.41927912989272,"lng":9.734591579892722},"southwest":{"lat":52.41657947010728,"lng":9.731891920107278}}},"icon":"https://maps.gstatic.com/mapfiles/place_api/icons/v1/png_71/restaurant-71.png","icon_background_color":"#FF9E67","icon_mask_base_uri":"https://maps.gstatic.com/mapfiles/place_api/icons/v2/restaurant_pinlet","name":"ÖZ Urfa Bistro","opening_hours":{"open_now":true},"photos":[{"height":3024,"html_attributions":["<a href=\"https://maps.google.com/maps/contrib/106125484866672714294\">Leslie P. Polzer</a>"],"photo_reference":"AeJbb3cw3lfLZ3GGo6mkASJb8ttFmzyRT-vGgoKVHONMQ0Hid9g-eXSHfh6cnCVGC5nUeP1M3CTD8iv5Fndy34oTXdF_icZzpyDAMthvlRi_gHLsJfgt_90Lohk_2tJFF0eyhz-OJ4oEmMdi8D7v2-JLQamIpxMB32qG9qsDQ0EtTfcbiom5","width":4032}],"place_id":"ChIJY8SjERdzsEcRUeyTargaXAo","plus_code":{"compound_code":"CP9M+56 Hanover","global_code":"9F4FCP9M+56"},"price_level":1,"rating":4.2,"reference":"ChIJY8SjERdzsEcRUeyTargaXAo","types":["meal_takeaway","restaurant","food","point_of_interest","establishment"],"user_ratings_total":247},{"business_status":"OPERATIONAL","formatted_address":"Nelkenstraße 1, 30167 Hannover","geometry":{"location":{"lat":52.3840349,"lng":9.7249996},"viewport":{"northeast":{"lat":52.38530117989272,"lng":9.726355129892722},"southwest":{"lat":52.38260152010727,"lng":9.723655470107278}}},"icon":"https://maps.gstatic.com/mapfiles/place_api/icons/v1/png_71/restaurant-71.png","icon_background_color":"#FF9E67","icon_mask_base_uri":"https://maps.gstatic.com/mapfiles/place_api/icons/v2/restaurant_pinlet","name":"Master Kebap Haus","opening_hours":{"open_now":true},"photos":[{"height":2208,"html_attributions":["<a href=\"https://maps.google.com/maps/contrib/105457185957216515089\">A Google User</a>"],"photo_reference":"AeJbb3dFzNOe9IvhC4HBTCMiJmfad7smaJta8Wlrsj5wslpAh6PXKNxVH0iVxLbfhUPlUNl5pSmw4lWV6bKz8Vx6m-BfuuvcecgqEAOaVux3jv-EhiJgCXxIbKwFzk8M0RU_DU9ZoSB-XxOkdKZSwA1yW1oLtXBzvfWl0_DISHWgMJCKQaKO","width":1242}],"place_id":"ChIJyWnZPhp1sEcRnC78TalXbQc","plus_code":{"compound_code":"9PMG+J2 Hanover","global_code":"9F4F9PMG+J2"},"rating":4.2,"reference":"ChIJyWnZPhp1sEcRnC78TalXbQc","types":["restaurant","food","point_of_interest","establishment"],"user_ratings_total":232},{"business_status":"OPERATIONAL","formatted_address":"Hildesheimer Str. 520, 30880 Laatzen","geometry":{"location":{"lat":52.2751483,"lng":9.8384698},"viewport":{"northeast":{"lat":52.27650337989272,"lng":9.839828229892719},"southwest":{"lat":52.27380372010727,"lng":9.837128570107275}}},"icon":"https://maps.gstatic.com/mapfiles/place_api/icons/v1/png_71/restaurant-71.png","icon_background_color":"#FF9E67","icon_mask_base_uri":"https://maps.gstatic.com/mapfiles/place_api/icons/v2/restaurant_pinlet","name":"Antalya Grill","opening_hours":{"open_now":true},"photos":[{"height":2988,"html_attributions":["<a href=\"https://maps.google.com/maps/contrib/110878577453580054493\">A Google User</a>"],"photo_reference":"AeJbb3d2oUS8aHYAimo2jMAKUickBTL0sXyIY7pCPca1VIT8oirKwEOwlAD6xsFLqLuEj2EphtV92NmV32HbK3PDyPIFObFBH0T9zkFtr4JdY9nP0wHTujljawjgXoe_aHUnMcSd9atInrSz0YYhqyk6Sf9ohZ3IHJ3Oxxr8nPpsk9d1bNrX","width":5312}],"place_id":"ChIJy77o3UunukcR6kuz6uRulLc","plus_code":{"compound_code":"7RGQ+39 Laatzen","global_code":"9F4F7RGQ+39"},"price_level":1,"rating":4.2,"reference":"ChIJy77o3UunukcR6kuz6uRulLc","types":["restaurant","point_of_interest","food","establishment"],"user_ratings_total":219},{"business_status":"OPERATIONAL","formatted_address":"Weidendamm 9, 30167 Hannover","geometry":{"location":{"lat":52.3840762,"lng":9.7295328},"viewport":{"northeast":{"lat":52.38540262989272,"lng":9.730996729892722},"southwest":{"lat":52.38270297010727,"lng":9.728297070107278}}},"icon":"https://maps.gstatic.com/mapfiles/place_api/icons/v1/png_71/restaurant-71.png","icon_background_color":"#FF9E67","icon_mask_base_uri":"https://maps.gstatic.com/mapfiles/place_api/icons/v2/restaurant_pinlet","name":"Nefis Restaurant","opening_hours":{"open_now":true},"photos":[{"height":2519,"html_attributions":["<a href=\"https://maps.google.com/maps/contrib/108195231868800886189\">Piotr K.</a>"],"photo_reference":"AeJbb3dhixI6VcnVxG-k9Xzji9NQweueyIIcND-uWWA5O0S2O1bg4y0Pw0RvObSJjySVljXyBMSnnPdJQ55mVooSJaGUzNV56d2Lfc_MSPX1EmmccvO1SiZupkv-yTVhR0YYlbBYR_J8KBFjqYMetXEswqJzI-nJdCMLztHSt9MUysvlk69f","width":4028}],"place_id":"ChIJT0k4CqF0sEcRqu-c6jU4tyo","plus_code":{"compound_code":"9PMH+JR Hanover","global_code":"9F4F9PMH+JR"},"rating":4.2,"reference":"ChIJT0k4CqF0sEcRqu-c6jU4tyo","types":["restaurant","point_of_interest","food","establishment"],"user_ratings_total":186},{"business_status":"OPERATIONAL","formatted_address":"Am Marstall 8, 30159 Hannover","geometry":{"location":{"lat":52.3745062,"lng":9.732477399999999},"viewport":{"northeast":{"lat":52.37583952989272,"lng":9.733860779892723},"southwest":{"lat":52.37313987010727,"lng":9.731161120107279}}},"icon":"https://maps.gstatic.com/mapfiles/place_api/icons/v1/png_71/restaurant-71.png","icon_background_color":"#FF9E67","icon_mask_base_uri":"https://maps.gstatic.com/mapfiles/place_api/icons/v2/restaurant_pinlet","name":"Hürtürk","opening_hours":{"open_now":true},"photos":[{"height":2268,"html_attributions":["<a href=\"https://maps.google.com/maps/contrib/106828971875335181983\">kurdo hannover</a>"],"photo_reference":"AeJbb3cu_q8dNmCxiDxKGGJovn789o9yPaAxkk284e8s2QhtH16D1gkEy43b1CJflxmiygYo753BxRPeUgUFz_Q5dIflI3h5ZwOoL-aV6k5TP0DUdnLgHFPxVqjTR2_N_3wpKxwnfV2wDkBqcAzuoAI6lmxfqn0CyhZ9Fpl-zVdtnJ2xPgI-","width":4032}],"place_id":"ChIJecmxCLt0sEcR2T7nqfvLink","plus_code":{"compound_code":"9PFJ+RX Hanover","global_code":"9F4F9PFJ+RX"},"rating":4.2,"reference":"ChIJecmxCLt0sEcR2T7nqfvLink","types":["restaurant","point_of_interest","food","establishment"],"user_ratings_total":75},{"business_status":"OPERATIONAL","formatted_address":"Nordmannpassage 2, 30159 Hannover","geometry":{"location":{"lat":52.3760026,"lng":9.7338492},"viewport":{"northeast":{"lat":52.37767492989272,"lng":9.735153529892722},"southwest":{"lat":52.37497527010728,"lng":9.732453870107278}}},"icon":"https://maps.gstatic.com/mapfiles/place_api/icons/v1/png_71/restaurant-71.png","icon_background_color":"#FF9E67","icon_mask_base_uri":"https://maps.gstatic.com/mapfiles/place_api/icons/v2/restaurant_pinlet","name":"Urfa Sofrasi","opening_hours":{"open_now":true},"photos":[{"height":3024,"html_attributions":["<a href=\"https://maps.google.com/maps/contrib/105377990725961732458\">Bünni S.</a>"],"photo_reference":"AeJbb3cLA9EB-QaX909YcmHKhGT_iXLBEEopkUJVe7Tf7PG9JNicHPY19rYcl6IMl9vHbMnTfAsbh_M6lvDntPkAaMT3bnp0SG0bDvy4jfTYkWbfmavSo2JW0bRvN1FbaAuelQBrXSPAs1sAj-eCtQ8wqJgYeZ5f6A94x8q6X92ZBEiijLDA","width":4032}],"place_id":"ChIJN1hTaLt0sEcRdT3auN8EOuA","plus_code":{"compound_code":"9PGM+CG Hanover","global_code":"9F4F9PGM+CG"},"price_level":2,"rating":4.1,"reference":"ChIJN1hTaLt0sEcRdT3auN8EOuA","types":["restaurant","food","point_of_interest","establishment"],"user_ratings_total":1681},{"business_status":"OPERATIONAL","formatted_address":"Deisterstraße 17D, 30449 Hannover","geometry":{"location":{"lat":52.367564,"lng":9.720695},"viewport":{"northeast":{"lat":52.36876967989272,"lng":9.722107429892723},"southwest":{"lat":52.36607002010727,"lng":9.71940777010728}}},"icon":"https://maps.gstatic.com/mapfiles/place_api/icons/v1/png_71/restaurant-71.png","icon_background_color":"#FF9E67","icon_mask_base_uri":"https://maps.gstatic.com/mapfiles/place_api/icons/v2/restaurant_pinlet","name":"Tandure","opening_hours":{"open_now":true},"photos":[{"height":3024,"html_attributions":["<a href=\"https://maps.google.com/maps/contrib/102226815377270959895\">A Google User</a>"],"photo_reference":"AeJbb3eXu39BmQVkNVhS6JxSXNUdzNYcDTQHfBrGUx-TaJJVJn02uw-fsnT0wc0YCjvomCG-9AVyup_X-KkC1sWJsv-yvXHNr7jUr1tpM6OLHwhrMjqsboByq5hWsVbQ-1cyzmW0YzaHfJFGoY3n5VVcEjxnHb8S7d-KcrLL1BNwkBpnOEy1","width":4032}],"place_id":"ChIJX_I0AsB0sEcRR5-poIWiLbA","plus_code":{"compound_code":"9P9C+27 Hanover","global_code":"9F4F9P9C+27"},"price_level":2,"rating":4.1,"reference":"ChIJX_I0AsB0sEcRR5-poIWiLbA","types":["bar","restaurant","food","point_of_interest","establishment"],"user_ratings_total":1108},{"business_status":"OPERATIONAL","formatted_address":"Große Packhofstraße 27, 30159 Hannover","geometry":{"location":{"lat":52.37542999999999,"lng":9.737969999999999},"viewport":{"northeast":{"lat":52.37700167989271,"lng":9.739476979892723},"southwest":{"lat":52.37430202010727,"lng":9.73677732010728}}},"icon":"https://maps.gstatic.com/mapfiles/place_api/icons/v1/png_71/restaurant-71.png","icon_background_color":"#FF9E67","icon_mask_base_uri":"https://maps.gstatic.com/mapfiles/place_api/icons/v2/restaurant_pinlet","name":"Sesam Restaurant","opening_hours":{"open_now":true},"photos":[{"height":1200,"html_attributions":["<a href=\"https://maps.google.com/maps/contrib/109573671238672045100\">A Google User</a>"],"photo_reference":"AeJbb3cfjdCwXPqCPsn3qI-4MfRFX6RqUuyuqMpPXdAL1A_cgawHgbu4RaOyRAsgz8naPQtqiPdYbOmwdV2_eqTHyhW4z28ngIv0J9ivbsWYqeFii0xxsfBUdrecu7owGVjrME0YpST5680_KUAvxn37VvH8GxymcFRlTv66scXidtBLzyoP","width":1600}],"place_id":"ChIJY4INDrB0sEcRCv86omX0_bQ","plus_code":{"compound_code":"9PGQ+55 Hanover","global_code":"9F4F9PGQ+55"},"price_level":2,"rating":4.1,"reference":"ChIJY4INDrB0sEcRCv86omX0_bQ","types":["restaurant","food","point_of_interest","establishment"],"user_ratings_total":789},{"business_status":"OPERATIONAL","formatted_address":"Limmerstraße 91, 30451 Hannover","geometry":{"location":{"lat":52.375,"lng":9.7019444},"viewport":{"northeast":{"lat":52.37638132989272,"lng":9.703402679892722},"southwest":{"lat":52.37368167010727,"lng":9.700703020107278}}},"icon":"https://maps.gstatic.com/mapfiles/place_api/icons/v1/png_71/restaurant-71.png","icon_background_color":"#FF9E67","icon_mask_base_uri":"https://maps.gstatic.com/mapfiles/place_api/icons/v2/restaurant_pinlet","name":"Falafel Sultan","opening_hours":{"open_now":true},"photos":[{"height":1280,"html_attributions":["<a href=\"https://maps.google.com/maps/contrib/113289762779629489635\">Delo B</a>"],"photo_reference":"AeJbb3ea7W2lNpR0-XWi4XMDbLX5mEzSsH-CnncClDY8FOcKEBCEBYCrL0jZF7f6464PsgE1WQZRVGJVZbPe33TzR73WkrNEjoAO0uNZi1cCYuikP3TXNopY56r7MWkwlZS41DD1GFZ3ZCr1hKObqF-DXcrlE5h2yVDgitKAbm7Sgil7XL70","width":1280}],"place_id":"ChIJWdiJuY50sEcRxx_UqxEMSkw","plus_code":{"compound_code":"9PF2+XQ Hanover","global_code":"9F4F9PF2+XQ"},"price_level":1,"rating":4.1,"reference":"ChIJWdiJuY50sEcRxx_UqxEMSkw","types":["restaurant","point_of_interest","food","establishment"],"user_ratings_total":342},{"business_status":"OPERATIONAL","formatted_address":"Melanchthonstraße 57, 30165 Hannover","geometry":{"location":{"lat":52.39892889999999,"lng":9.732476000000002},"viewport":{"northeast":{"lat":52.40024337989272,"lng":9.734165529892723},"southwest":{"lat":52.39754372010728,"lng":9.731465870107279}}},"icon":"https://maps.gstatic.com/mapfiles/place_api/icons/v1/png_71/restaurant-71.png","icon_background_color":"#FF9E67","icon_mask_base_uri":"https://maps.gstatic.com/mapfiles/place_api/icons/v2/restaurant_pinlet","name":"Urfa Palace","opening_hours":{"open_now":true},"photos":[{"height":3264,"html_attributions":["<a href=\"https://maps.google.com/maps/contrib/104388374989488373408\">Daniela Gollart</a>"],"photo_reference":"AeJbb3elcLv5CmxPe3tQJ45tI2uKvS3LFOCNe_mRtF9RiSx2pJjsgRFTt7tiLo4_0VrcCbbvJZcAlYau2WPUMZeQV1BOAApkTv6a1DkAfJ8YyhJkp0wD0SZcnlKtaaq7BcFl5l-Db9RBJl_yKuU4N0LdwosCIHz18oMj7j0_0vBHWPEYn37L","width":1836}],"place_id":"ChIJGaYXt0JzsEcR9exLKVCM0Uw","plus_code":{"compound_code":"9PXJ+HX Hanover","global_code":"9F4F9PXJ+HX"},"price_level":1,"rating":4.1,"reference":"ChIJGaYXt0JzsEcR9exLKVCM0Uw","types":["restaurant","food","point_of_interest","establishment"],"user_ratings_total":316},{"business_status":"OPERATIONAL","formatted_address":"Rathauspl. 12, 30966 Hemmingen","geometry":{"location":{"lat":52.325701,"lng":9.725878},"viewport":{"northeast":{"lat":52.32698252989272,"lng":9.727320029892722},"southwest":{"lat":52.32428287010728,"lng":9.724620370107278}}},"icon":"https://maps.gstatic.com/mapfiles/place_api/icons/v1/png_71/restaurant-71.png","icon_background_color":"#FF9E67","icon_mask_base_uri":"https://maps.gstatic.com/mapfiles/place_api/icons/v2/restaurant_pinlet","name":"Restaurant","opening_hours":{"open_now":true},"photos":[{"height":2736,"html_attributions":["<a href=\"https://maps.google.com/maps/contrib/114960351917146722128\">Christian Koch</a>"],"photo_reference":"AeJbb3cHqj9jVFj4n8nDg9lKKKvzazeX5iVhelIwoF1gaghv9LslKNxcQ5_E2StPdfbNyjbPAGQHxk_vK3XghhrwM7nocnhN_oClEpGjfeCywDhKf0c75tsVYufgIg7V752vinjU2T8EqqJQa_P66OHk0zI1zXz8K6yiSOf4TIoaJFfpm09l","width":3648}],"place_id":"ChIJR3WnejZ1sEcRUZswOkKRJtE","plus_code":{"compound_code":"8PGG+79 Hemmingen","global_code":"9F4F8PGG+79"},"price_level":1,"rating":4.1,"reference":"ChIJR3WnejZ1sEcRUZswOkKRJtE","types":["restaurant","food","point_of_interest","establishment"],"user_ratings_total":245},{"business_status":"OPERATIONAL","formatted_address":"Hildesheimer Str. 223, 30519 Hannover","geometry":{"location":{"lat":52.3421831,"lng":9.7656798},"viewport":{"northeast":{"lat":52.34355082989272,"lng":9.766847279892719},"southwest":{"lat":52.34085117010727,"lng":9.764147620107275}}},"icon":"https://maps.gstatic.com/mapfiles/place_api/icons/v1/png_71/restaurant-71.png","icon_background_color":"#FF9E67","icon_mask_base_uri":"https://maps.gstatic.com/mapfiles/place_api/icons/v2/restaurant_pinlet","name":"Öz Istanbul Grill Hannover","opening_hours":{"open_now":true},"photos":[{"height":2112,"html_attributions":["<a href=\"https://maps.google.com/maps/contrib/110849690147071270060\">Detlef Meister</a>"],"photo_reference":"AeJbb3duTLY8pT0aNIwCiVKJIpbNhre1V8unuEPVtpAUulmACf-F6VuXyze9LwISCrNFm4Bde0xlR1RgQsr1Q9vS6nOZfYc0oAcU9pZRRxS0evnqBDIB_45fHxRrL1X6Svw5fQaDOpBg_-ja61Nd4NEZV7p1rPxVVKilkdaDwMX-OY2jDmp1","width":4608}],"place_id":"ChIJK-NYeSALsEcR7ivY3RmqKWo","plus_code":{"compound_code":"8QR8+V7 Hanover","global_code":"9F4F8QR8+V7"},"price_level":1,"rating":4.1,"reference":"ChIJK-NYeSALsEcR7ivY3RmqKWo","types":["meal_delivery","meal_takeaway","restaurant","food","point_of_interest","establishment"],"user_ratings_total":195},{"business_status":"OPERATIONAL","formatted_address":"Nenndorfer Str. 67, 30952 Ronnenberg","geometry":{"location":{"lat":52.34191,"lng":9.662922499999999},"viewport":{"northeast":{"lat":52.34327692989272,"lng":9.664186679892723},"southwest":{"lat":52.34057727010727,"lng":9.661487020107279}}},"icon":"https://maps.gstatic.com/mapfiles/place_api/icons/v1/png_71/restaurant-71.png","icon_background_color":"#FF9E67","icon_mask_base_uri":"https://maps.gstatic.com/mapfiles/place_api/icons/v2/restaurant_pinlet","name":"Bülbül Grill","opening_hours":{"open_now":true},"photos":[{"height":3024,"html_attributions":["<a href=\"https://maps.google.com/maps/contrib/108030674223080150255\">A Google User</a>"],"photo_reference":"AeJbb3eUKrFF4Ct5m2rgnS_uaUfoIWnx-lrURNMijGV-fOGr9GuT1__2W7fysDHSjswt91kRUoDMZvJYGNbMmIYOLCCiom6Qr6AGoy49TnCATdoAh8TujjCWvPMVSpl5v7UqeoEViaGfZ-k38VdRStHy3UVJ9zOQ4g6muYzby2r4toVDFXz2","width":4032}],"place_id":"ChIJnYrgtAB1sEcR-Bws8hNHFYI","plus_code":{"compound_code":"8MR7+Q5 Ronnenberg","global_code":"9F4F8MR7+Q5"},"rating":4.1,"reference":"ChIJnYrgtAB1sEcR-Bws8hNHFYI","types":["restaurant","point_of_interest","food","establishment"],"user_ratings_total":108},{"business_status":"OPERATIONAL","formatted_address":"Davenstedter Str., 30449 Hannover","geometry":{"location":{"lat":52.3672671,"lng":9.708019300000002},"viewport":{"northeast":{"lat":52.36859422989272,"lng":9.709366679892721},"southwest":{"lat":52.36589457010727,"lng":9.706667020107277}}},"icon":"https://maps.gstatic.com/mapfiles/place_api/icons/v1/png_71/restaurant-71.png","icon_background_color":"#FF9E67","icon_mask_base_uri":"https://maps.gstatic.com/mapfiles/place_api/icons/v2/restaurant_pinlet","name":"Antalya Kebab","opening_hours":{"open_now":true},"photos":[{"height":3024,"html_attributions":["<a href=\"https://maps.google.com/maps/contrib/106301348490611278053\">Samuel Koranteng</a>"],"photo_reference":"AeJbb3eryae8PJJ8Zmo7NLb0bM3QcdCsppPhEvugyu209ZdDl56ny_pdEN38OewHvQ5aELmAZKzO9E9GIAcQmbWNaAPjBquappR2wdSDw5JTcnhnSBQ2tV6rqUNiB0xe8r_SCgBVtejVL2zS37g2AoXQ0NPeMk-gzqx6SsGTgK1WrBG_pJ6l","width":4032}],"place_id":"ChIJHaPWM190sEcRnd8lmhIiTqA","plus_code":{"compound_code":"9P85+W6 Hanover","global_code":"9F4F9P85+W6"},"rating":4,"reference":"ChIJHaPWM190sEcRnd8lmhIiTqA","types":["restaurant","food","point_of_interest","establishment"],"user_ratings_total":455},{"business_status":"OPERATIONAL","formatted_address":"Goethestraße 5, 30169 Hannover","geometry":{"location":{"lat":52.3751577,"lng":9.732145599999999},"viewport":{"northeast":{"lat":52.37664612989272,"lng":9.73346767989272},"southwest":{"lat":52.37394647010728,"lng":9.730768020107277}}},"icon":"https://maps.gstatic.com/mapfiles/place_api/icons/v1/png_71/restaurant-71.png","icon_background_color":"#FF9E67","icon_mask_base_uri":"https://maps.gstatic.com/mapfiles/place_api/icons/v2/restaurant_pinlet","name":"Restaurant Yakamoz","opening_hours":{"open_now":true},"photos":[{"height":2368,"html_attributions":["<a href=\"https://maps.google.com/maps/contrib/101973940602460580949\">samanya pattarachokchai</a>"],"photo_reference":"AeJbb3djimophaFd8bMEjGtEew2vbA4B_Ag_Dsi6UvB0xtL03Q7_GX5qXA9VufEVsngrSprPGi9r6_yWq10iLiSQOSQu8klSwRCdfncUsvTzKO3yniD_APZj6FynuSbK_aRxOTl9Bp6dkCW5-Sj83kVVH99M-13Ev8kBmWPMMTu2FAwDLXs4","width":4208}],"place_id":"ChIJoUNVEbt0sEcRA9rN0-a7biQ","plus_code":{"compound_code":"9PGJ+3R Hanover","global_code":"9F4F9PGJ+3R"},"price_level":2,"rating":3.9,"reference":"ChIJoUNVEbt0sEcRA9rN0-a7biQ","types":["restaurant","food","point_of_interest","establishment"],"user_ratings_total":1166},{"business_status":"OPERATIONAL","formatted_address":"Podbielskistraße 313, 30659 Hannover","geometry":{"location":{"lat":52.4062111,"lng":9.7991382},"viewport":{"northeast":{"lat":52.40746157989273,"lng":9.800598629892724},"southwest":{"lat":52.40476192010728,"lng":9.79789897010728}}},"icon":"https://maps.gstatic.com/mapfiles/place_api/icons/v1/png_71/restaurant-71.png","icon_background_color":"#FF9E67","icon_mask_base_uri":"https://maps.gstatic.com/mapfiles/place_api/icons/v2/restaurant_pinlet","name":"Alanya Restaurant","opening_hours":{"open_now":true},"photos":[{"height":3120,"html_attributions":["<a href=\"https://maps.google.com/maps/contrib/106004820258125883899\">Jedrzej Tymczuk</a>"],"photo_reference":"AeJbb3es67MLSb_0FFH-e7p6v748jQt0Nnb999OcuRQnUgipW4_9v-Ce3E98rR8wKNHMQLCp6VY_8PajL4nCyEGgv7CPz9Yr-JEDRl5WKw3-v1MkavW7lrVLJLpCJvY0UJXy34-YprNpEnP_QX5goegmT6sM7JPofYA0dVORmEB7KbNH2qHR","width":4160}],"place_id":"ChIJyRcegewMsEcRYnimgiNDftQ","plus_code":{"compound_code":"CQ4X+FM Hanover","global_code":"9F4FCQ4X+FM"},"price_level":2,"rating":3.9,"reference":"ChIJyRcegewMsEcRYnimgiNDftQ","types":["meal_delivery","restaurant","food","point_of_interest","establishment"],"user_ratings_total":884},{"business_status":"OPERATIONAL","formatted_address":"Engelbosteler Damm 1 Ecke, 30167 Hannover","geometry":{"location":{"lat":52.3818016,"lng":9.7254265},"viewport":{"northeast":{"lat":52.38318027989271,"lng":9.726841829892722},"southwest":{"lat":52.38048062010727,"lng":9.724142170107278}}},"icon":"https://maps.gstatic.com/mapfiles/place_api/icons/v1/png_71/restaurant-71.png","icon_background_color":"#FF9E67","icon_mask_base_uri":"https://maps.gstatic.com/mapfiles/place_api/icons/v2/restaurant_pinlet","name":"Erciyes Kebap","opening_hours":{"open_now":true},"photos":[{"height":667,"html_attributions":["<a href=\"https://maps.google.com/maps/contrib/101822312351516855068\">A Google User</a>"],"photo_reference":"AeJbb3eyW4aqKYCvIRyzzlOTBN_q3qi3C8cf5ETzEjFqmHPyT_z7fqrnIamoN7jXy-4xRonOz1o54HGTaLD2SpsGUABTSRF_lh2qxcuS3o5_1ujaPONdCKy2P8FJh5RQ4MHMO62-Rd7v53WxtuFT2nYMByiWaxKtqIpoIf0gJF-aAp8r_Xx1","width":1003}],"place_id":"ChIJK3mwqph0sEcRYXPXYmkA_Uk","plus_code":{"compound_code":"9PJG+P5 Hanover","global_code":"9F4F9PJG+P5"},"price_level":2,"rating":3.9,"reference":"ChIJK3mwqph0sEcRYXPXYmkA_Uk","types":["meal_delivery","meal_takeaway","restaurant","food","store","point_of_interest","establishment"],"user_ratings_total":578},{"business_status":"OPERATIONAL","formatted_address":"Vahrenheider Markt 33, 30179 Hannover","geometry":{"location":{"lat":52.411625,"lng":9.751142},"viewport":{"northeast":{"lat":52.41285782989272,"lng":9.75309237989272},"southwest":{"lat":52.41015817010728,"lng":9.750392720107277}}},"icon":"https://maps.gstatic.com/mapfiles/place_api/icons/v1/png_71/restaurant-71.png","icon_background_color":"#FF9E67","icon_mask_base_uri":"https://maps.gstatic.com/mapfiles/place_api/icons/v2/restaurant_pinlet","name":"İstanbul Ocakbaşı","opening_hours":{"open_now":true},"photos":[{"height":3024,"html_attributions":["<a href=\"https://maps.google.com/maps/contrib/101511119043708635466\">A Google User</a>"],"photo_reference":"AeJbb3do_2hb48hyt0eUrt55Sb3I_19B4BSLcb8x7wuu4H7isbaI0nQ5zmi5vvkHda9YuPBxreRYvmWLI0ZDa2RUU3DkRSCPM6qw8k3LoiFICx1RVTdzjHTagspKMbdnHGgZILlwNhp57-0scx3pqJ0gBfWtxv-KWDn_lVCteP6zhhOJKzla","width":4032}],"place_id":"ChIJh-5o6oNzsEcR_EJjg1S1i2Q","plus_code":{"compound_code":"CQ62+MF Hanover","global_code":"9F4FCQ62+MF"},"rating":3.9,"reference":"ChIJh-5o6oNzsEcR_EJjg1S1i2Q","types":["restaurant","food","point_of_interest","establishment"],"user_ratings_total":24},{"business_status":"OPERATIONAL","formatted_address":"Goethestraße 8, 30169 Hannover","geometry":{"location":{"lat":52.374899,"lng":9.7299899},"viewport":{"northeast":{"lat":52.37619502989272,"lng":9.731315929892723},"southwest":{"lat":52.37349537010728,"lng":9.72861627010728}}},"icon":"https://maps.gstatic.com/mapfiles/place_api/icons/v1/png_71/restaurant-71.png","icon_background_color":"#FF9E67","icon_mask_base_uri":"https://maps.gstatic.com/mapfiles/place_api/icons/v2/restaurant_pinlet","name":"Öz Urfa, Helal Restaurant Hannover","opening_hours":{"open_now":true},"photos":[{"height":3024,"html_attributions":["<a href=\"https://maps.google.com/maps/contrib/117743499451010748840\">A Google User</a>"],"photo_reference":"AeJbb3fTme_O7M2skDOlLjSk_sz32nFoOL2MAFWDkCUEsxb5xW8haf-ludMDu_4wC-agpfUigZfaVxIORfc_OaiM8To9pcCWOi-RBjPuBdcd-bmPJL-26kzNODkz-NR1VkMEpDHsCNx5q05-WPcnzuGfdFwcxbnVdDITdU4OJCTexoXo5SUB","width":4032}],"place_id":"ChIJxy9Zfbt0sEcRwbXl8iVj2G8","plus_code":{"compound_code":"9PFH+XX Hanover","global_code":"9F4F9PFH+XX"},"price_level":2,"rating":3.8,"reference":"ChIJxy9Zfbt0sEcRwbXl8iVj2G8","types":["restaurant","food","point_of_interest","establishment"],"user_ratings_total":2510},{"business_status":"OPERATIONAL","formatted_address":"Mühlenbergzentrum 14, 30457 Hannover","geometry":{"location":{"lat":52.3402778,"lng":9.6913889},"viewport":{"northeast":{"lat":52.34173492989271,"lng":9.692653379892722},"southwest":{"lat":52.33903527010727,"lng":9.689953720107278}}},"icon":"https://maps.gstatic.com/mapfiles/place_api/icons/v1/png_71/restaurant-71.png","icon_background_color":"#FF9E67","icon_mask_base_uri":"https://maps.gstatic.com/mapfiles/place_api/icons/v2/restaurant_pinlet","name":"Antalya Kebap Mühlenberg 1","opening_hours":{"open_now":true},"photos":[{"height":3024,"html_attributions":["<a href=\"https://maps.google.com/maps/contrib/104807034055257059570\">A Google User</a>"],"photo_reference":"AeJbb3fJgsLqP_5Dzb0NEHika6x1kiBjJXFBagDQJriRCrSYxJcPu3tmzePP1Wy6wVUiMRjTICXjF4j1n0nhNIFTKnto5Ielg7mHXRnqFQG-0YKora8jBI1nl9pPICcRI3TaSDQwbl5sGLMkLNq0wYg74ribYa05e62b1TytFR28dMsygLJA","width":4032}],"place_id":"ChIJZctqUQR1sEcRpB1n-xIkdvk","plus_code":{"compound_code":"8MRR+4H Hanover","global_code":"9F4F8MRR+4H"},"price_level":1,"rating":3.8,"reference":"ChIJZctqUQR1sEcRpB1n-xIkdvk","types":["restaurant","point_of_interest","food","establishment"],"user_ratings_total":421},{"business_status":"OPERATIONAL","formatted_address":"Fiedelerstraße 4, 30519 Hannover","geometry":{"location":{"lat":52.342067,"lng":9.7642452},"viewport":{"northeast":{"lat":52.34339377989272,"lng":9.765665229892722},"southwest":{"lat":52.34069412010728,"lng":9.762965570107278}}},"icon":"https://maps.gstatic.com/mapfiles/place_api/icons/v1/png_71/restaurant-71.png","icon_background_color":"#FF9E67","icon_mask_base_uri":"https://maps.gstatic.com/mapfiles/place_api/icons/v2/restaurant_pinlet","name":"Eura Döner Express","opening_hours":{"open_now":true},"photos":[{"height":2976,"html_attributions":["<a href=\"https://maps.google.com/maps/contrib/112310629335809478909\">Deni Dugarov</a>"],"photo_reference":"AeJbb3c_C2e1YlVSuxc7G3fVNDtT84O332T9oZdqF7QOAVkPr-4YlqcVN1OO8-2-wcIybDzl8GLGl4OXjLFcj4tzSz2d3_-Wk-zeAXogjnpb9IXw1G7qPqzyq840vCr3otiegjrrl4i3ckmJzO3MbhUbljRiKF06TroPMo0iqAcE2Tl_6r4","width":3968}],"place_id":"ChIJT3Y0nSALsEcRw1wjXWNrR5I","plus_code":{"compound_code":"8QR7+RM Hanover","global_code":"9F4F8QR7+RM"},"price_level":1,"rating":3.8,"reference":"ChIJT3Y0nSALsEcRw1wjXWNrR5I","types":["restaurant","point_of_interest","food","establishment"],"user_ratings_total":264},{"business_status":"OPERATIONAL","formatted_address":"Roderbruchmarkt 20, 30627 Hannover","geometry":{"location":{"lat":52.3893816,"lng":9.813817199999999},"viewport":{"northeast":{"lat":52.39091097989272,"lng":9.81505532989272},"southwest":{"lat":52.38821132010727,"lng":9.812355670107276}}},"icon":"https://maps.gstatic.com/mapfiles/place_api/icons/v1/png_71/restaurant-71.png","icon_background_color":"#FF9E67","icon_mask_base_uri":"https://maps.gstatic.com/mapfiles/place_api/icons/v2/restaurant_pinlet","name":"Öz Urfa - Turkish Restaurant","opening_hours":{"open_now":true},"photos":[{"height":3024,"html_attributions":["<a href=\"https://maps.google.com/maps/contrib/107892225403899910074\">Nizam Uddin</a>"],"photo_reference":"AeJbb3elmWbENQ2WAustXejoK5lTQBqHznjcJ-AI5ShtyayP-cpuS7gigsxfNA0NfpV8i3ybI46CrOklcu_NYYS8nECyDH_irxjOXlX8aE_p_wxyChG7rRqrkCDytnOItkEgQ2EujI9uA6odw8N-iElYKyglEB_lx7oqlp_yCb3ZLLTuIXtp","width":4032}],"place_id":"ChIJWxpOYkINsEcRYRWX2cB8vGA","plus_code":{"compound_code":"9RQ7+QG Hanover","global_code":"9F4F9RQ7+QG"},"rating":3.8,"reference":"ChIJWxpOYkINsEcRYRWX2cB8vGA","types":["restaurant","food","point_of_interest","establishment"],"user_ratings_total":104},{"business_status":"OPERATIONAL","formatted_address":"Münchener Str. 3, 30880 Laatzen","geometry":{"location":{"lat":52.3189422,"lng":9.7939968},"viewport":{"northeast":{"lat":52.32033627989272,"lng":9.795369129892723},"southwest":{"lat":52.31763662010727,"lng":9.79266947010728}}},"icon":"https://maps.gstatic.com/mapfiles/place_api/icons/v1/png_71/restaurant-71.png","icon_background_color":"#FF9E67","icon_mask_base_uri":"https://maps.gstatic.com/mapfiles/place_api/icons/v2/restaurant_pinlet","name":"Prinz Restaurant","opening_hours":{"open_now":true},"photos":[{"height":2976,"html_attributions":["<a href=\"https://maps.google.com/maps/contrib/110529008575865486447\">Marcus Kirste</a>"],"photo_reference":"AeJbb3c3iG_uxZqODsZAQ-WsEpNxjYH8An_ZD5H7dijsXfiDSDqf9uc7meMsugvatneWgyYsySKVfjoJ7TkI4dLB7PPO06ICEsRh-R_Vfyg7XX3A4SgHsDJ-3fUHGOnsZHpDx6Kd59hAYGQX346Tcxxru666E-xeJ0iaj-VPjfT50yTQ7UhT","width":3968}],"place_id":"ChIJl-K3PF4KsEcRVo4Kb4M1zqc","plus_code":{"compound_code":"8Q9V+HH Laatzen","global_code":"9F4F8Q9V+HH"},"rating":3.7,"reference":"ChIJl-K3PF4KsEcRVo4Kb4M1zqc","types":["restaurant","food","point_of_interest","establishment"],"user_ratings_total":66}]