[{"business_status":"OPERATIONAL","formatted_address":"Alameda Santa Marta do Pinhal, 2855-576 Corroios","geometry":{"location":{"lat":38.6291148,"lng":-9.1536035},"viewport":{"northeast":{"lat":38.63043722989271,"lng":-9.152273620107277},"southwest":{"lat":38.62773757010727,"lng":-9.15497327989272}}},"icon":"https://maps.gstatic.com/mapfiles/place_api/icons/v1/png_71/restaurant-71.png","icon_background_color":"#FF9E67","icon_mask_base_uri":"https://maps.gstatic.com/mapfiles/place_api/icons/v2/restaurant_pinlet","name":"The Kitchen Smoked House","photos":[{"height":3024,"html_attributions":["<a href=\"https://maps.google.com/maps/contrib/102087076448354809662\">Alexandre Saramago</a>"],"photo_reference":"AeJbb3djB0MMVskhNBcccJpmD0bWLAcu7l6E5Fb9Jcfz5q2EeImnC4yLgDZAM0ZEa5L2N2nion5IiE_MExogfRfgK8FhzDVjSAsEXQ6GFti-5eBvnoU8T58GpbxOXEC-C5Hs4pLaUrM19BaL0TmI2wUfOUPEgCVlJZmgWYMc3Gf5rHYJHILv","width":4032}],"place_id":"ChIJ3bK2HlE1GQ0RQCMq7e-0Bo4","plus_code":{"compound_code":"JRHW+JH Corroios","global_code":"8CCGJRHW+JH"},"rating":5,"reference":"ChIJ3bK2HlE1GQ0RQCMq7e-0Bo4","types":["restaurant","food","point_of_interest","establishment"],"user_ratings_total":1},{"business_status":"OPERATIONAL","formatted_address":"R. Gomes Freire 123C r/c, 1150-176 Lisboa","geometry":{"location":{"lat":38.724749,"lng":-9.140402},"viewport":{"northeast":{"lat":38.72611882989272,"lng":-9.13898642010728},"southwest":{"lat":38.72341917010728,"lng":-9.141686079892724}}},"icon":"https://maps.gstatic.com/mapfiles/place_api/icons/v1/png_71/restaurant-71.png","icon_background_color":"#FF9E67","icon_mask_base_uri":"https://maps.gstatic.com/mapfiles/place_api/icons/v2/restaurant_pinlet","name":"Ember Restaurant & Bar","opening_hours":{"open_now":true},"photos":[{"height":3024,"html_attributions":["<a href=\"https://maps.google.com/maps/contrib/109428560527336338186\">A Google User</a>"],"photo_reference":"AeJbb3eAS62rmRAL1gxYGPyZO0l0Nu7NrTFfQH5TGL13quJt3iJRW_QQbuig2sOPgVGhZxj3P08yT0YhO4HJeeU5WeGxN7iYMMLwAtzzeRTxRcmb6dEuxYq6czoHWOLDI9hNWg3gN27eBiACrg78vnYUt-uzC5BPpoQ24M0je6k4H20EVOvC","width":4032}],"place_id":"ChIJ0b-9H_YzGQ0Rvuvn0PMzRMo","plus_code":{"compound_code":"PVF5+VR Lisbon","global_code":"8CCGPVF5+VR"},"rating":4.8,"reference":"ChIJ0b-9H_YzGQ0Rvuvn0PMzRMo","types":["restaurant","meal_takeaway","bar","food","point_of_interest","establishment"],"user_ratings_total":69},{"business_status":"OPERATIONAL","formatted_address":"R. da Paz 80, 1200-319 Lisboa","geometry":{"location":{"lat":38.7123656,"lng":-9.151838},"viewport":{"northeast":{"lat":38.71373557989273,"lng":-9.150533970107277},"southwest":{"lat":38.71103592010728,"lng":-9.153233629892721}}},"icon":"https://maps.gstatic.com/mapfiles/place_api/icons/v1/png_71/restaurant-71.png","icon_background_color":"#FF9E67","icon_mask_base_uri":"https://maps.gstatic.com/mapfiles/place_api/icons/v2/restaurant_pinlet","name":"Churrasqueira da Paz","opening_hours":{"open_now":false},"photos":[{"height":1440,"html_attributions":["<a href=\"https://maps.google.com/maps/contrib/116357324166313304251\">dumazeau edouard</a>"],"photo_reference":"AeJbb3cSTp9FjdCX0coiB9E8mWPtIZZQ9DNyENu9g1jocA1UPL8vpLUaFz3H_uISkWjZhoySqo6JNHUww0MNW7_c-FZ_9slp5fYIZZ0xMoUHCIDFPPjVIfnPMX5f_jDOZwidKuRrwbw2vNUzmWxFfJRmOw2s4148Jw_w08BIzCWGE6DiIf04","width":2560}],"place_id":"ChIJ_-v_B4I0GQ0R_hIxAEjEFrc","plus_code":{"compound_code":"PR6X+W7 Lisbon","global_code":"8CCGPR6X+W7"},"price_level":1,"rating":4.7,"reference":"ChIJ_-v_B4I0GQ0R_hIxAEjEFrc","types":["restaurant","food","point_of_interest","establishment"],"user_ratings_total":1169},{"business_status":"OPERATIONAL","formatted_address":"R. Carlos Reis 24, 1600-033 Lisboa","geometry":{"location":{"lat":38.7434676,"lng":-9.1564347},"viewport":{"northeast":{"lat":38.74479932989272,"lng":-9.155034470107278},"southwest":{"lat":38.74209967010728,"lng":-9.157734129892722}}},"icon":"https://maps.gstatic.com/mapfiles/place_api/icons/v1/png_71/restaurant-71.png","icon_background_color":"#FF9E67","icon_mask_base_uri":"https://maps.gstatic.com/mapfiles/place_api/icons/v2/restaurant_pinlet","name":"Adega dos Unidos do Bairro de Santos","opening_hours":{"open_now":false},"photos":[{"height":3024,"html_attributions":["<a href=\"https://maps.google.com/maps/contrib/102222132667899862337\">A Google User</a>"],"photo_reference":"AeJbb3fURAgkuIbkwbBFEVCOEludiUtZZ0x4FaZxMw0oB8sxoDmbNQgEQN-m8qSvEhkFMeWtslnN4npZFgW02thwjaZBEY4g5-zaxV3jmAQr_Sov5Vx6C-gTQMEZScoYL1aAgCNipP1Y3P_-vfO_vzEt6hpZoxPEMP5jTbtYkOOJzAO6GrKC","width":4032}],"place_id":"ChIJD76qVgUzGQ0RbAFho82a2YA","plus_code":{"compound_code":"PRVV+9C Lisbon","global_code":"8CCGPRVV+9C"},"rating":4.7,"reference":"ChIJD76qVgUzGQ0RbAFho82a2YA","types":["restaurant","food","point_of_interest","establishment"],"user_ratings_total":65},{"business_status":"OPERATIONAL","formatted_address":"R. Afonso de Paiva 3, 2780-265 Oeiras","geometry":{"location":{"lat":38.6839748,"lng":-9.320224099999999},"viewport":{"northeast":{"lat":38.68548392989273,"lng":-9.318719070107276},"southwest":{"lat":38.68278427010728,"lng":-9.321418729892722}}},"icon":"https://maps.gstatic.com/mapfiles/place_api/icons/v1/png_71/restaurant-71.png","icon_background_color":"#FF9E67","icon_mask_base_uri":"https://maps.gstatic.com/mapfiles/place_api/icons/v2/restaurant_pinlet","name":"Grelha da Barra","opening_hours":{"open_now":false},"photos":[{"height":3264,"html_attributions":["<a href=\"https://maps.google.com/maps/contrib/112494083721217371922\">António Paulino</a>"],"photo_reference":"AeJbb3eueT_nca_P9_fUJr5f31BP_DalI1NJQ0kdyU4Mwjm-4_n2UVhEby5kerSO7yVApAQvCT7Z_uCHumPxeJv-YR8caDm6pA7kCri3YQyoslMvyyksdnvmn7syeYtBxyxVmqvgnOdSqcu77MtCXTMud0OnqaWubA8MEa85UitcXCd9Ebne","width":2448}],"place_id":"ChIJl3gOKCfJHg0R_B49_OUZLyg","plus_code":{"compound_code":"MMMH+HW Oeiras","global_code":"8CCGMMMH+HW"},"price_level":2,"rating":4.6,"reference":"ChIJl3gOKCfJHg0R_B49_OUZLyg","types":["restaurant","food","point_of_interest","establishment"],"user_ratings_total":982},{"business_status":"OPERATIONAL","formatted_address":"R. Gomes Freire 11B, 1150-119 Lisboa","geometry":{"location":{"lat":38.7245433,"lng":-9.1402965},"viewport":{"northeast":{"lat":38.72588687989273,"lng":-9.138882120107276},"southwest":{"lat":38.72318722010728,"lng":-9.14158177989272}}},"icon":"https://maps.gstatic.com/mapfiles/place_api/icons/v1/png_71/restaurant-71.png","icon_background_color":"#FF9E67","icon_mask_base_uri":"https://maps.gstatic.com/mapfiles/place_api/icons/v2/restaurant_pinlet","name":"Han Table Barbecue","opening_hours":{"open_now":false},"photos":[{"height":9072,"html_attributions":["<a href=\"https://maps.google.com/maps/contrib/103837769905473351735\">A Google User</a>"],"photo_reference":"AeJbb3fU5yHMTwbIMUpUk6LBWOHXTZjWl0_H4OLxO2a1BgLDnAXcYoAjN_LqyGxVms1OnBpGG5pCjDJQYEEOHWhXU0LWuNOtMDPE6gSujmRpAJvJUqDCGkZg6Ejluo5L0QkQpzjzBpcDL5XxAw4np0GdBF0UDAGTjzCKW9ftP6A1jwBYwP4y","width":9072}],"place_id":"ChIJDaxL06czGQ0RKhrQksYaySg","plus_code":{"compound_code":"PVF5+RV Lisbon","global_code":"8CCGPVF5+RV"},"price_level":2,"rating":4.6,"reference":"ChIJDaxL06czGQ0RKhrQksYaySg","types":["restaurant","food","point_of_interest","establishment"],"user_ratings_total":639},{"business_status":"OPERATIONAL","formatted_address":"Rua do Zaire 40B, 1170-096 Lisboa","geometry":{"location":{"lat":38.7280987,"lng":-9.1340002},"viewport":{"northeast":{"lat":38.72944577989272,"lng":-9.13268147010728},"southwest":{"lat":38.72674612010728,"lng":-9.135381129892723}}},"icon":"https://maps.gstatic.com/mapfiles/place_api/icons/v1/png_71/restaurant-71.png","icon_background_color":"#FF9E67","icon_mask_base_uri":"https://maps.gstatic.com/mapfiles/place_api/icons/v2/restaurant_pinlet","name":"Zubir","opening_hours":{"open_now":false},"photos":[{"height":2340,"html_attributions":["<a href=\"https://maps.google.com/maps/contrib/106401976104585233876\">Mansoor Ahmed</a>"],"photo_reference":"AeJbb3dQpr1gSVWC_1TXp2RASSu3S_uWAjL_p-Ra0TwFFbqagUSjNKSwbfL6PQL4Uh8HzlCE-ylDZQyNwIiu6p6qboUunyd2O_hSSm6YxJHTmF0B0rFmChjP6JYCkJemzfcwtxZOfLCKRJMu4muzZjxY5MIhNNl9ydebEn9I9gi1UV9QHEBf","width":4160}],"place_id":"ChIJ47OIopAzGQ0ROBArI8S9qYg","plus_code":{"compound_code":"PVH8+69 Lisbon","global_code":"8CCGPVH8+69"},"price_level":1,"rating":4.5,"reference":"ChIJ47OIopAzGQ0ROBArI8S9qYg","types":["restaurant","bakery","store","food","point_of_interest","establishment"],"user_ratings_total":1298},{"business_status":"OPERATIONAL","formatted_address":"Av. da Igreja 25D, 1700-266 Lisboa","geometry":{"location":{"lat":38.7534306,"lng":-9.142491999999999},"viewport":{"northeast":{"lat":38.75485337989272,"lng":-9.141180820107277},"southwest":{"lat":38.75215372010727,"lng":-9.14388047989272}}},"icon":"https://maps.gstatic.com/mapfiles/place_api/icons/v1/png_71/restaurant-71.png","icon_background_color":"#FF9E67","icon_mask_base_uri":"https://maps.gstatic.com/mapfiles/place_api/icons/v2/restaurant_pinlet","name":"Rio de Mel","opening_hours":{"open_now":true},"photos":[{"height":4032,"html_attributions":["<a href=\"https://maps.google.com/maps/contrib/101804431966664770728\">Avdhey Tiwari</a>"],"photo_reference":"AeJbb3d1ztYjNgpkHYjsjZV3lq_EcJDm1xiJxekt-heZmT8rlEkgwzuQwHsAbG0DR8k2t4WHki2aLah6WCxyw-QH2WnJyCKt3BXw8wGAgQE3liDWeQDsCe_NJ7c4R31t1CZyAjWOYgofFQaxUo4oFCt-uPwStbZc1eRh8cM_wZ0kp_VSZD1N","width":3024}],"place_id":"ChIJd1-SIaszGQ0RkFiTq6ATkHU","plus_code":{"compound_code":"QV35+92 Lisbon","global_code":"8CCGQV35+92"},"price_level":1,"rating":4.5,"reference":"ChIJd1-SIaszGQ0RkFiTq6ATkHU","types":["restaurant","food","point_of_interest","establishment"],"user_ratings_total":631},{"business_status":"CLOSED_TEMPORARILY","formatted_address":"R. dos Fanqueiros 203, 1100-229 Lisboa","geometry":{"location":{"lat":38.7121434,"lng":-9.136652699999999},"viewport":{"northeast":{"lat":38.71350942989272,"lng":-9.135242020107277},"southwest":{"lat":38.71080977010728,"lng":-9.137941679892721}}},"icon":"https://maps.gstatic.com/mapfiles/place_api/icons/v1/png_71/restaurant-71.png","icon_background_color":"#FF9E67","icon_mask_base_uri":"https://maps.gstatic.com/mapfiles/place_api/icons/v2/restaurant_pinlet","name":"BBQ Tonight","permanently_closed":true,"photos":[{"height":1200,"html_attributions":["<a href=\"https://maps.google.com/maps/contrib/114408363365434441854\">Bimal Gautam</a>"],"photo_reference":"AeJbb3cdL7K-KBkTNN4szcm3GuZIvqcOX0Hr2pqQ4Kf449LhftbFJXuM-rOulAuZAolmq892KEHjSO2tFn_ltO88-rAz1WNXX7iP73CnoCGximPQ9DjIq6O1wdsIHHETtj5kAZ3qET1BMNdjfE4c1W7XZ405-BKBXsLygt1798zkUlCLQTS0","width":1600}],"place_id":"ChIJy9KJwxo1GQ0R781eIOMlO1E","plus_code":{"compound_code":"PV67+V8 Lisbon","global_code":"8CCGPV67+V8"},"rating":4.5,"reference":"ChIJy9KJwxo1GQ0R781eIOMlO1E","types":["restaurant","food","point_of_interest","establishment"],"user_ratings_total":617},{"business_status":"OPERATIONAL","formatted_address":"Av. Gen. Humberto Delgado 5, 2745-162 Queluz","geometry":{"location":{"lat":38.7615644,"lng":-9.2593829},"viewport":{"northeast":{"lat":38.76289007989273,"lng":-9.257984970107278},"southwest":{"lat":38.76019042010728,"lng":-9.260684629892722}}},"icon":"https://maps.gstatic.com/mapfiles/place_api/icons/v1/png_71/restaurant-71.png","icon_background_color":"#FF9E67","icon_mask_base_uri":"https://maps.gstatic.com/mapfiles/place_api/icons/v2/restaurant_pinlet","name":"Churrasqueira do Jamor","opening_hours":{"open_now":false},"photos":[{"height":3120,"html_attributions":["<a href=\"https://maps.google.com/maps/contrib/114672080541981480304\">joao silva</a>"],"photo_reference":"AeJbb3fCPCvYxHvJSL4jAXd24j0pZ_jiPggcyfR5krhCMTlo36HZxbk-7-qZQWz4-hqw_LLZe5KzBvh9ByxVfTEwe7Ddbo_eiRGY8ylBXegk57irgF_2rfZ-lYZ7WH8rwZOSQFUXt6jxdwKJ5A-R8QKIAvdfZgEVwORcwk-KGnCDTIIj1vtH","width":4160}],"place_id":"ChIJ7y7hLsHNHg0R8Z1F-eT1EO8","plus_code":{"compound_code":"QP6R+J6 Queluz","global_code":"8CCGQP6R+J6"},"price_level":2,"rating":4.5,"reference":"ChIJ7y7hLsHNHg0R8Z1F-eT1EO8","types":["restaurant","food","point_of_interest","establishment"],"user_ratings_total":481},{"business_status":"OPERATIONAL","formatted_address":"R. Conde das Alcáçovas 12, 2770-080 Paço de Arcos","geometry":{"location":{"lat":38.69825100000001,"lng":-9.290844},"viewport":{"northeast":{"lat":38.69958172989272,"lng":-9.289552070107277},"southwest":{"lat":38.69688207010728,"lng":-9.29225172989272}}},"icon":"https://maps.gstatic.com/mapfiles/place_api/icons/v1/png_71/restaurant-71.png","icon_background_color":"#FF9E67","icon_mask_base_uri":"https://maps.gstatic.com/mapfiles/place_api/icons/v2/restaurant_pinlet","name":"A Grelha d'Arcos","opening_hours":{"open_now":false},"photos":[{"height":1274,"html_attributions":["<a href=\"https://maps.google.com/maps/contrib/113462083684705285282\">A Google User</a>"],"photo_reference":"AeJbb3dhvQoX0kenVSjYLR6qR1zAtemGVQgLQZznobBlznoo371WZOUek47KM6Ri6g7-PscrISmxheG2RMI3H-WL72jlvY7M8mHzT-VWpIPjLY6zqft7AGtpfh3_-zIoD0UZUiXSM-4YGL-l0tIuikwfjAg9vtyQl2tBP17zmdhUUoRdtLfR","width":1512}],"place_id":"ChIJfXOsmU3JHg0RKTkBXL8yIt0","plus_code":{"compound_code":"MPX5+8M Paço de Arcos","global_code":"8CCGMPX5+8M"},"price_level":1,"rating":4.5,"reference":"ChIJfXOsmU3JHg0RKTkBXL8yIt0","types":["restaurant","food","point_of_interest","establishment"],"user_ratings_total":180},{"business_status":"OPERATIONAL","formatted_address":"Tv. do Benformoso 10, 1100-089 Lisboa","geometry":{"location":{"lat":38.7198684,"lng":-9.1352651},"viewport":{"northeast":{"lat":38.72118417989271,"lng":-9.133916320107279},"southwest":{"lat":38.71848452010727,"lng":-9.136615979892722}}},"icon":"https://maps.gstatic.com/mapfiles/place_api/icons/v1/png_71/restaurant-71.png","icon_background_color":"#FF9E67","icon_mask_base_uri":"https://maps.gstatic.com/mapfiles/place_api/icons/v2/restaurant_pinlet","name":"MEETUP PIZZA AND GRILL","opening_hours":{"open_now":true},"photos":[{"height":3000,"html_attributions":["<a href=\"https://maps.google.com/maps/contrib/100986228812116543465\">A Google User</a>"],"photo_reference":"AeJbb3fgXLQl-kZyJjZoZUn-dMO1ykfBHv8XY_MhReB97cYq4wQDum7wO0KOrG8bxT1ENSQYO7FoC5fFU6keNH68qiSZJugaSCMmAi7-M3dwCmvBE-Gfw3nenQ1u2IC-Cmakaeb0tbnV363NRIdDkUoYqufsQBSzAmeoZfXNNPqyvwIgtWsP","width":4000}],"place_id":"ChIJ5dyn0yIzGQ0RXwIKiRgOyHE","plus_code":{"compound_code":"PV97+WV Lisbon","global_code":"8CCGPV97+WV"},"rating":4.5,"reference":"ChIJ5dyn0yIzGQ0RXwIKiRgOyHE","types":["restaurant","food","point_of_interest","establishment"],"user_ratings_total":19},{"business_status":"OPERATIONAL","formatted_address":"R. Pulido Valente n5 Loja3, 2675-670 Odivelas","geometry":{"location":{"lat":38.7893899,"lng":-9.1903042},"viewport":{"northeast":{"lat":38.79073817989272,"lng":-9.188801420107277},"southwest":{"lat":38.78803852010728,"lng":-9.19150107989272}}},"icon":"https://maps.gstatic.com/mapfiles/place_api/icons/v1/png_71/restaurant-71.png","icon_background_color":"#FF9E67","icon_mask_base_uri":"https://maps.gstatic.com/mapfiles/place_api/icons/v2/restaurant_pinlet","name":"Ribs & Company","opening_hours":{"open_now":false},"photos":[{"height":3840,"html_attributions":["<a href=\"https://maps.google.com/maps/contrib/108827231708810732210\">Ribs &amp; Company</a>"],"photo_reference":"AeJbb3cV11jatk5QO0lvpprwDK9s7n8wYcMSgZ_JMrYWi1pZ2svVHLzMB7KJaH7NLMB2YewrxgIDkQ_n7dmJHf1L2BKV5qjcOljYibiLMWbGVUSkatZTKv-LhHqsVjhX9Loc70Chzu4OwEEwo7admvKjuO5WUNkHNecukS6VsTHgbzAevzJs","width":5760}],"place_id":"ChIJefibLlXNHg0RJi7Qj8xMTYw","plus_code":{"compound_code":"QRQ5+QV Odivelas","global_code":"8CCGQRQ5+QV"},"price_level":2,"rating":4.4,"reference":"ChIJefibLlXNHg0RJi7Qj8xMTYw","types":["bar","restaurant","food","point_of_interest","establishment"],"user_ratings_total":4431},{"business_status":"OPERATIONAL","formatted_address":"R. São Salvador da Baía 11, 2800-201 Almada","geometry":{"location":{"lat":38.6791164,"lng":-9.1594581},"viewport":{"northeast":{"lat":38.68047817989272,"lng":-9.158211820107276},"southwest":{"lat":38.67777852010727,"lng":-9.16091147989272}}},"icon":"https://maps.gstatic.com/mapfiles/place_api/icons/v1/png_71/restaurant-71.png","icon_background_color":"#FF9E67","icon_mask_base_uri":"https://maps.gstatic.com/mapfiles/place_api/icons/v2/restaurant_pinlet","name":"Ribs & Company Almada","opening_hours":{"open_now":false},"photos":[{"height":3024,"html_attributions":["<a href=\"https://maps.google.com/maps/contrib/104750971907080984704\">Sämir E. Tarcheh</a>"],"photo_reference":"AeJbb3cWtqCMUqeSAPc3wn8iXUJ-LurGM9AvJ8927U2v-QPXT4ueC3I81Z0TXgQ3nYKcKzRq9DkKm30plzl6-R1NylK9UmKAOnXaW7SNI1ZkTfQOByZh4ZeD_gFsn43UNubNa93Pd-fs-W8A36bAQfK1AKqen6h7-IxMVXQqnV03_dJdyPo8","width":4032}],"place_id":"ChIJ6QbIbOU0GQ0RL9HdbdI2TI0","plus_code":{"compound_code":"MRHR+J6 Almada","global_code":"8CCGMRHR+J6"},"price_level":2,"rating":4.4,"reference":"ChIJ6QbIbOU0GQ0RL9HdbdI2TI0","types":["restaurant","food","point_of_interest","establishment"],"user_ratings_total":2894},{"business_status":"OPERATIONAL","formatted_address":"R. Martens Ferrão Nº28 A, 1050-160 Lisboa","geometry":{"location":{"lat":38.729468,"lng":-9.1482648},"viewport":{"northeast":{"lat":38.73077227989272,"lng":-9.146939670107278},"southwest":{"lat":38.72807262010728,"lng":-9.149639329892722}}},"icon":"https://maps.gstatic.com/mapfiles/place_api/icons/v1/png_71/restaurant-71.png","icon_background_color":"#FF9E67","icon_mask_base_uri":"https://maps.gstatic.com/mapfiles/place_api/icons/v2/restaurant_pinlet","name":"Fogo de Chão","opening_hours":{"open_now":false},"photos":[{"height":3456,"html_attributions":["<a href=\"https://maps.google.com/maps/contrib/101957894103634732005\">philippe alg</a>"],"photo_reference":"AeJbb3fEgSA2n0Zi-4sgFWCYTh2rjYaMKr-AFs8GnxGj_o2CcP_b2hnZDTKmPiybSMKHHRWTnVYZW8KZ3cmh4RG-AjKZdoq5PYeq6r6lCVyPKwEk3aaHhM25f9gQTu46Bldk-0VlabHRfxLtwJGwpfVhZjqiHss5o6X8_rQ2IVW4iRJUavaz","width":4608}],"place_id":"ChIJ4c6ZynUzGQ0ReblosMmZohc","plus_code":{"compound_code":"PVH2+QM Lisbon","global_code":"8CCGPVH2+QM"},"price_level":2,"rating":4.4,"reference":"ChIJ4c6ZynUzGQ0ReblosMmZohc","types":["restaurant","food","point_of_interest","establishment"],"user_ratings_total":2707},{"business_status":"OPERATIONAL","formatted_address":"Avenida Ressano Garcia 41A, 1070-234 Lisboa","geometry":{"location":{"lat":38.7349177,"lng":-9.1572087},"viewport":{"northeast":{"lat":38.73633707989272,"lng":-9.155833920107277},"southwest":{"lat":38.73363742010727,"lng":-9.15853357989272}}},"icon":"https://maps.gstatic.com/mapfiles/place_api/icons/v1/png_71/restaurant-71.png","icon_background_color":"#FF9E67","icon_mask_base_uri":"https://maps.gstatic.com/mapfiles/place_api/icons/v2/restaurant_pinlet","name":"K-BOB São Sebastião","opening_hours":{"open_now":false},"photos":[{"height":2268,"html_attributions":["<a href=\"https://maps.google.com/maps/contrib/105449261356100947493\">Carlos Lanero García</a>"],"photo_reference":"AeJbb3cc91HY5p803A4Au5ejxJ_47YGGFxvZy0CUcLKkd8h-febkW2B14Sw0W3Mn8_jQ9WQ7MI6SXQf5ddOWpItpIp1HL4JtyTP5OXAXm_g-9KSL-erk7tFR_CH24WANgNkq7_FytFEmRkrE5bjsyj2QZOYFKLQQ5eUE3Q9l6cDiyf_6AXER","width":4032}],"place_id":"ChIJdyHHRpkzGQ0RXiTLjLchJps","plus_code":{"compound_code":"PRMV+X4 Lisbon","global_code":"8CCGPRMV+X4"},"price_level":2,"rating":4.4,"reference":"ChIJdyHHRpkzGQ0RXiTLjLchJps","types":["restaurant","food","point_of_interest","establishment"],"user_ratings_total":613},{"business_status":"OPERATIONAL","formatted_address":"R. Sacadura Cabral 3, 2790-072 Carnaxide","geometry":{"location":{"lat":38.7250719,"lng":-9.2445962},"viewport":{"northeast":{"lat":38.72640137989272,"lng":-9.243239420107278},"southwest":{"lat":38.72370172010728,"lng":-9.245939079892722}}},"icon":"https://maps.gstatic.com/mapfiles/place_api/icons/v1/png_71/restaurant-71.png","icon_background_color":"#FF9E67","icon_mask_base_uri":"https://maps.gstatic.com/mapfiles/place_api/icons/v2/restaurant_pinlet","name":"Churrasqueira Ideal de Carnaxide","opening_hours":{"open_now":false},"photos":[{"height":4128,"html_attributions":["<a href=\"https://maps.google.com/maps/contrib/101593590688853220321\">Paulo Lourenço</a>"],"photo_reference":"AeJbb3eUHZN-4WH2G4BSJJw-BBUYFE26qfvfq-YMxBH8udFj9S2FBkKhqKJ2rTZJTzA_7-Z4PpKcngjih64Ou9pmOIEkaliPxfVUMmnqHW4bWPAJbe_Oei7QrdxVQA_LTlHPPjBQg-tj0uZpzpDWYEAnMOyLLmgolTr6so45pUCpzc-Mki18","width":3096}],"place_id":"ChIJwYy15GfMHg0RZf_k0mw-iNA","plus_code":{"compound_code":"PQG4+24 Carnaxide","global_code":"8CCGPQG4+24"},"price_level":1,"rating":4.4,"reference":"ChIJwYy15GfMHg0RZf_k0mw-iNA","types":["meal_takeaway","restaurant","food","point_of_interest","establishment"],"user_ratings_total":338},{"business_status":"OPERATIONAL","formatted_address":"Av. Jose Garces - Shopping Ubbo, Loja G2, 2650-505 Amadora","geometry":{"location":{"lat":38.7768582,"lng":-9.221614599999999},"viewport":{"northeast":{"lat":38.77823092989271,"lng":-9.220524670107277},"southwest":{"lat":38.77553127010727,"lng":-9.223224329892721}}},"icon":"https://maps.gstatic.com/mapfiles/place_api/icons/v1/png_71/restaurant-71.png","icon_background_color":"#FF9E67","icon_mask_base_uri":"https://maps.gstatic.com/mapfiles/place_api/icons/v2/restaurant_pinlet","name":"Ribs & Company Ubbo","opening_hours":{"open_now":true},"photos":[{"height":5359,"html_attributions":["<a href=\"https://maps.google.com/maps/contrib/111266824675270563514\">A Google User</a>"],"photo_reference":"AeJbb3djLhq9Fur3A5NX_QmGSPHLCRQhFGqv0Ph83ddCr-KINefKHofrJ9KAXAWCuKPKHkOUt0vZcQVRBfvHsGsDsvSURDeHD42tc5sJ9fm-mefiOn51IK07lPHooEg04Pb5CJBDuAq3ryhFCzaWE0rvPMGJyREZPaUcmu1f40mZJxcZW12p","width":3573}],"place_id":"ChIJ4SlIqynNHg0RVpXg4dK8yWQ","plus_code":{"compound_code":"QQGH+P9 Amadora","global_code":"8CCGQQGH+P9"},"price_level":2,"rating":4.4,"reference":"ChIJ4SlIqynNHg0RVpXg4dK8yWQ","types":["restaurant","food","point_of_interest","establishment"],"user_ratings_total":275},{"business_status":"OPERATIONAL","formatted_address":"Praça do Chile 6, 1000-098 Lisboa","geometry":{"location":{"lat":38.7337632,"lng":-9.133744499999999},"viewport":{"northeast":{"lat":38.73501492989272,"lng":-9.132433020107278},"southwest":{"lat":38.73231527010728,"lng":-9.135132679892722}}},"icon":"https://maps.gstatic.com/mapfiles/place_api/icons/v1/png_71/restaurant-71.png","icon_background_color":"#FF9E67","icon_mask_base_uri":"https://maps.gstatic.com/mapfiles/place_api/icons/v2/restaurant_pinlet","name":"GRILL N CHILL Restaurant","opening_hours":{"open_now":true},"photos":[{"height":4000,"html_attributions":["<a href=\"https://maps.google.com/maps/contrib/114951314670052812561\">A Google User</a>"],"photo_reference":"AeJbb3daB_898UYHBW80O3lfUx3z_YsgGT3QH8br6Qi-4ypcNhn_SL5v3xO_oRE50J0pJ281SzfODetPCzgnWlL52vfC1zc6oF9daOd06YrB4KHCX_SaAg_WgA_gyLq6bj6pXo6w4gnDhU5zFTMoJiltIqCiWr4vFsq4iYsbHnz7UlOUq4sv","width":6000}],"place_id":"ChIJWevl6GszGQ0Ru8Hof8RpgyY","plus_code":{"compound_code":"PVM8+GG Lisbon","global_code":"8CCGPVM8+GG"},"price_level":2,"rating":4.4,"reference":"ChIJWevl6GszGQ0Ru8Hof8RpgyY","types":["restaurant","food","point_of_interest","establishment"],"user_ratings_total":156},{"business_status":"OPERATIONAL","formatted_address":"R. Sampaio Bruno 61B, 1350-282 Lisboa","geometry":{"location":{"lat":38.7193659,"lng":-9.1697572},"viewport":{"northeast":{"lat":38.72071797989272,"lng":-9.168348320107278},"southwest":{"lat":38.71801832010727,"lng":-9.171047979892721}}},"icon":"https://maps.gstatic.com/mapfiles/place_api/icons/v1/png_71/restaurant-71.png","icon_background_color":"#FF9E67","icon_mask_base_uri":"https://maps.gstatic.com/mapfiles/place_api/icons/v2/restaurant_pinlet","name":"PAK Grelha Churrasqueira Restaurante Halal","opening_hours":{"open_now":true},"photos":[{"height":3024,"html_attributions":["<a href=\"https://maps.google.com/maps/contrib/103894187642981422091\">Shahzaib Naqeebi</a>"],"photo_reference":"AeJbb3dBW4bsipu923y7abwoaIMCvhAb8vzF_7GuO9ctVTrHwhk_eIdv4fXgFTR3n5KqwJIyHCNZEfSEIqVSlRXyXvc6oCA8ljnKYB_6FB9NEU7eYCL_xRTXP_TCpf5PGz6k9wzAX9LSTlTu5t3Uk3dYcdK-L0CgFC4FjGAXDsvptLNB_yOQ","width":4032}],"place_id":"ChIJx94xozAzGQ0RO6msHEuV1UY","plus_code":{"compound_code":"PR9J+P3 Lisbon","global_code":"8CCGPR9J+P3"},"price_level":1,"rating":4.4,"reference":"ChIJx94xozAzGQ0RO6msHEuV1UY","types":["store","restaurant","food","point_of_interest","establishment"],"user_ratings_total":111},{"business_status":"OPERATIONAL","formatted_address":"Largo José João Farinha Júnior, 1600-302 Lisboa","geometry":{"location":{"lat":38.7645122,"lng":-9.1800572},"viewport":{"northeast":{"lat":38.76598502989272,"lng":-9.178605920107278},"southwest":{"lat":38.76328537010728,"lng":-9.181305579892722}}},"icon":"https://maps.gstatic.com/mapfiles/place_api/icons/v1/png_71/restaurant-71.png","icon_background_color":"#FF9E67","icon_mask_base_uri":"https://maps.gstatic.com/mapfiles/place_api/icons/v2/restaurant_pinlet","name":"Chickinho","opening_hours":{"open_now":false},"photos":[{"height":4480,"html_attributions":["<a href=\"https://maps.google.com/maps/contrib/107457463358099049221\">A Google User</a>"],"photo_reference":"AeJbb3cJ5ZOwD9FeVArTeVKIsC3RWnU-V0sBgxOyHAX51MOMD8kFydKQJ8ppVvwwFP8bTOB27jUZret36fne0JfrtS47FKjY25VTxyYJPfMzJOnLMa-O_xYZKxwFOlyZ0zCEnixkWppdvFCXHExadpUr4-hYa3e249QmvoUdw7HHc4Qfizka","width":6720}],"place_id":"ChIJB4aCO_MzGQ0RKWB6a47UFf8","plus_code":{"compound_code":"QR79+RX Lisbon","global_code":"8CCGQR79+RX"},"rating":4.4,"reference":"ChIJB4aCO_MzGQ0RKWB6a47UFf8","types":["restaurant","food","point_of_interest","establishment"],"user_ratings_total":43},{"business_status":"OPERATIONAL","formatted_address":"Av. António Augusto de Aguiar, 1600-442 Lisboa","geometry":{"location":{"lat":38.7296286,"lng":-9.150556000000002},"viewport":{"northeast":{"lat":38.73100787989272,"lng":-9.14923067010728},"southwest":{"lat":38.72830822010727,"lng":-9.151930329892723}}},"icon":"https://maps.gstatic.com/mapfiles/place_api/icons/v1/png_71/restaurant-71.png","icon_background_color":"#FF9E67","icon_mask_base_uri":"https://maps.gstatic.com/mapfiles/place_api/icons/v2/restaurant_pinlet","name":"Bram bbq restaurant","opening_hours":{"open_now":true},"photos":[{"height":675,"html_attributions":["<a href=\"https://maps.google.com/maps/contrib/111939954258454901873\">A Google User</a>"],"photo_reference":"AeJbb3dDFVOFCL4qwTMUBNb4OsrVtGwND-vCc1WxVUEVlSn3R92tLtvchvf9yLQIOtATd3a5Pd1ypWj1dadf5ggKYMGWhPkdIxd1n4VYmLrNOmD3BQYuz80MfnR67v5e_87Lr9dCSQ0v4_npE2U6lCBBZIr89O0CfTPv6dFNjGWEMLqcdgW3","width":1200}],"place_id":"ChIJ23OBhvUzGQ0R1vL328WquGI","plus_code":{"compound_code":"PRHX+VQ Lisbon","global_code":"8CCGPRHX+VQ"},"rating":4.4,"reference":"ChIJ23OBhvUzGQ0R1vL328WquGI","types":["restaurant","food","point_of_interest","establishment"],"user_ratings_total":8},{"business_status":"OPERATIONAL","formatted_address":"Av. Elias Garcia 13, 1000-145 Lisboa","geometry":{"location":{"lat":38.739622,"lng":-9.143259},"viewport":{"northeast":{"lat":38.74096272989272,"lng":-9.141845670107278},"southwest":{"lat":38.73826307010728,"lng":-9.144545329892722}}},"icon":"https://maps.gstatic.com/mapfiles/place_api/icons/v1/png_71/restaurant-71.png","icon_background_color":"#FF9E67","icon_mask_base_uri":"https://maps.gstatic.com/mapfiles/place_api/icons/v2/restaurant_pinlet","name":"Fogo de Chão (Campo Pequeno)","opening_hours":{"open_now":false},"photos":[{"height":4032,"html_attributions":["<a href=\"https://maps.google.com/maps/contrib/109974714455057138989\">Krasimira Banova</a>"],"photo_reference":"AeJbb3cgCqTONfPY-IRJDcv84N9TNXGJsnB8zB9k0iDJPeeIlOf5Lg9dURcSNiO9Z_kDyU-93jnZhq0g_x4S4TBa_FgIesaqY_5zW7fhQlIrvAbZujWOvsjV9FEvsz2ETzAm_QROqFtrUmdFiVni6Uey2BENn1XErhtwYW4zbGTCzvoXjyTd","width":3024}],"place_id":"ChIJG15ZL6czGQ0RQPTuGfeXib0","plus_code":{"compound_code":"PVQ4+RM Lisbon","global_code":"8CCGPVQ4+RM"},"price_level":2,"rating":4.3,"reference":"ChIJG15ZL6czGQ0RQPTuGfeXib0","types":["restaurant","food","point_of_interest","establishment"],"user_ratings_total":2566},{"business_status":"OPERATIONAL","formatted_address":"Tv. Monte do Carmo 19, 1200-276 Lisboa","geometry":{"location":{"lat":38.71669,"lng":-9.1505135},"viewport":{"northeast":{"lat":38.71791807989272,"lng":-9.14918787010728},"southwest":{"lat":38.71521842010727,"lng":-9.151887529892724}}},"icon":"https://maps.gstatic.com/mapfiles/place_api/icons/v1/png_71/restaurant-71.png","icon_background_color":"#FF9E67","icon_mask_base_uri":"https://maps.gstatic.com/mapfiles/place_api/icons/v2/restaurant_pinlet","name":"Frangasqueira Nacional","opening_hours":{"open_now":false},"photos":[{"height":3024,"html_attributions":["<a href=\"https://maps.google.com/maps/contrib/112919344948624032125\">Ken Ly</a>"],"photo_reference":"AeJbb3ch7tC_a29GGOhZnRsvcsauy5Nd0Eq7Yp_zHY6p2BxOacRdc_55DEL6XKDMlDUaLA-GK4ZndSEG8wP9HQF0t_HzpEYyJXRyOQ9GSQqkAguQ8C0D13ZH3WqztFiliSDHgOxQkNAQF04JfxCm2VqnLzATunRP2YtFcaifb3mL2W5-bGZ0","width":4032}],"place_id":"ChIJYaxgCHwzGQ0R70P53eONqLg","plus_code":{"compound_code":"PR8X+MQ Lisbon","global_code":"8CCGPR8X+MQ"},"price_level":1,"rating":4.3,"reference":"ChIJYaxgCHwzGQ0R70P53eONqLg","types":["restaurant","food","point_of_interest","establishment"],"user_ratings_total":1175},{"business_status":"OPERATIONAL","formatted_address":"Passeio do Parque da Cidade A, 2670-331 Loures","geometry":{"location":{"lat":38.8248496,"lng":-9.1614572},"viewport":{"northeast":{"lat":38.82619942989272,"lng":-9.160107370107278},"southwest":{"lat":38.82349977010728,"lng":-9.162807029892722}}},"icon":"https://maps.gstatic.com/mapfiles/place_api/icons/v1/png_71/restaurant-71.png","icon_background_color":"#FF9E67","icon_mask_base_uri":"https://maps.gstatic.com/mapfiles/place_api/icons/v2/restaurant_pinlet","name":"BBQ Fish & Steakhouse","opening_hours":{"open_now":false},"photos":[{"height":3120,"html_attributions":["<a href=\"https://maps.google.com/maps/contrib/112105831697671326535\">Antonia Soeiro</a>"],"photo_reference":"AeJbb3cjBIPxJkYE5CjUdlY6pyy4snvt7VlOAejTE9gZNC6GZLMYixccplkPdu-1X_phTMwWyX6bHbvhigjgsYkHXMoBpj8iFcnBwtVPFhdpdN2LAflzwXBSQBaIgSWgKmOJxzbTodQ_lxhval__fIEpUQ5Sd8ZfnT-Z7sEjH4hnKr6Jvi_A","width":4160}],"place_id":"ChIJi-72rhAtGQ0R-6aR68kQ95o","plus_code":{"compound_code":"RRFQ+WC Loures","global_code":"8CCGRRFQ+WC"},"price_level":2,"rating":4.3,"reference":"ChIJi-72rhAtGQ0R-6aR68kQ95o","types":["restaurant","food","point_of_interest","establishment"],"user_ratings_total":398},{"business_status":"OPERATIONAL","formatted_address":"R. Dom Afonso de Albuquerque 88, 2830-174 Barreiro","geometry":{"location":{"lat":38.6444053,"lng":-9.0595955},"viewport":{"northeast":{"lat":38.64573037989272,"lng":-9.05823922010728},"southwest":{"lat":38.64303072010728,"lng":-9.060938879892724}}},"icon":"https://maps.gstatic.com/mapfiles/place_api/icons/v1/png_71/restaurant-71.png","icon_background_color":"#FF9E67","icon_mask_base_uri":"https://maps.gstatic.com/mapfiles/place_api/icons/v2/restaurant_pinlet","name":"Churrasqueira Porta Aberta-a Grelha Do Vital","opening_hours":{"open_now":true},"photos":[{"height":1536,"html_attributions":["<a href=\"https://maps.google.com/maps/contrib/105486659490249940768\">Jorge</a>"],"photo_reference":"AeJbb3cxg6ec7Liz2EiPXYKua5GHbgadH1-sUpxUnKeVYCywUdNWAhb-JkGq6utkTLxs41phmZemI03tAZ-9AR8VmVbGaCdzYsUhoXYFIAOvnTho7o806Oof7DAnpMzXa8-SP5Iz4EqhYelOgnwmRi8pHltUJ7W-PJ65HlzQAcSGX5hVsAT2","width":2048}],"place_id":"ChIJf5-gAS02GQ0R06gj405tICQ","plus_code":{"compound_code":"JWVR+Q5 Barreiro","global_code":"8CCGJWVR+Q5"},"price_level":1,"rating":4.3,"reference":"ChIJf5-gAS02GQ0R06gj405tICQ","types":["restaurant","food","point_of_interest","establishment"],"user_ratings_total":396},{"business_status":"OPERATIONAL","formatted_address":"R. Jorge Pereira 6B, 2810-235 Almada","geometry":{"location":{"lat":38.6535594,"lng":-9.1543998},"viewport":{"northeast":{"lat":38.65485742989273,"lng":-9.153036020107278},"southwest":{"lat":38.65215777010729,"lng":-9.155735679892722}}},"icon":"https://maps.gstatic.com/mapfiles/place_api/icons/v1/png_71/restaurant-71.png","icon_background_color":"#FF9E67","icon_mask_base_uri":"https://maps.gstatic.com/mapfiles/place_api/icons/v2/restaurant_pinlet","name":"SR Grill, Pizza e Kebab","opening_hours":{"open_now":true},"photos":[{"height":960,"html_attributions":["<a href=\"https://maps.google.com/maps/contrib/104091546653317915304\">A Google User</a>"],"photo_reference":"AeJbb3e31xlf0CPn7NHTQaGmrybRxPDSYYuDsJgldv-917aPYoguhnbawdrwrmejWjnzWUmhifSVufMPx-qx1mMNPpkgI2zFxAl5NuI3K6epkFNtbszHsS19RwtX_zJl9jdAVgs6SlgFXS_sWvMrnq30gRPzEdqJFCmDcPMZgO4tKudRY-NC","width":1280}],"place_id":"ChIJHcJYtg01GQ0RQ5NiprOgvT0","plus_code":{"compound_code":"MR3W+C6 Almada","global_code":"8CCGMR3W+C6"},"rating":4.3,"reference":"ChIJHcJYtg01GQ0RQ5NiprOgvT0","types":["restaurant","food","point_of_interest","establishment"],"user_ratings_total":66},{"business_status":"OPERATIONAL","formatted_address":"R. de Santa Marta N 31 D E, 1150-292 Lisboa","geometry":{"location":{"lat":38.7230556,"lng":-9.1458333},"viewport":{"northeast":{"lat":38.72439457989272,"lng":-9.144427720107277},"southwest":{"lat":38.72169492010728,"lng":-9.147127379892721}}},"icon":"https://maps.gstatic.com/mapfiles/place_api/icons/v1/png_71/restaurant-71.png","icon_background_color":"#FF9E67","icon_mask_base_uri":"https://maps.gstatic.com/mapfiles/place_api/icons/v2/restaurant_pinlet","name":"Chú-Chú","opening_hours":{"open_now":true},"photos":[{"height":2268,"html_attributions":["<a href=\"https://maps.google.com/maps/contrib/100787986735098992299\">Alexandru Grigore</a>"],"photo_reference":"AeJbb3cuzgSaefMB2DCunH_kZaKsDnsQmom61fOXZz6MkG6YFOdSdlbdhRJ7OPWfZqco-bh2DtrMsxiw3t2FsvHgwXxF6e3q7SnMUhX7knoTVRx_we-OYF5LOiWbANis2A2u1ULBgjQkJUSYg5CT8d493Xi1WC2Hd3Yr53nL71eE5oV4thxj","width":4032}],"place_id":"ChIJdaPMAXgzGQ0R2SLzsCS4chM","plus_code":{"compound_code":"PVF3+6M Lisbon","global_code":"8CCGPVF3+6M"},"price_level":2,"rating":4.2,"reference":"ChIJdaPMAXgzGQ0R2SLzsCS4chM","types":["restaurant","food","point_of_interest","establishment"],"user_ratings_total":1105},{"business_status":"OPERATIONAL","formatted_address":"R. De Dona Estefânia 19 A, 1150-130 Lisboa","geometry":{"location":{"lat":38.72770939999999,"lng":-9.1407305},"viewport":{"northeast":{"lat":38.72903427989272,"lng":-9.139433370107277},"southwest":{"lat":38.72633462010727,"lng":-9.14213302989272}}},"icon":"https://maps.gstatic.com/mapfiles/place_api/icons/v1/png_71/restaurant-71.png","icon_background_color":"#FF9E67","icon_mask_base_uri":"https://maps.gstatic.com/mapfiles/place_api/icons/v2/restaurant_pinlet","name":"Happy Lisboa Ramen","opening_hours":{"open_now":false},"photos":[{"height":4160,"html_attributions":["<a href=\"https://maps.google.com/maps/contrib/106334885077801131276\">Kaichiro Fukuda</a>"],"photo_reference":"AeJbb3efvwocsO_0HABsBFyF8Xn7ynPjOzHdnu2lbcjCpNYHdJss0FDDtEduHi5t3XKifS0kMSs3TkYcE-uyw-u47nXGNza0s1ylRZ_1S9645ceHjY7UmGbjjeQGkOscm21nyRBCKG_Cx7qAzmpWtrs8WSBpmsZ7RWEAIMQWtO4rojZepIw","width":3120}],"place_id":"ChIJcdxZh54zGQ0RcFdSCtVf0MY","plus_code":{"compound_code":"PVH5+4P Lisbon","global_code":"8CCGPVH5+4P"},"price_level":2,"rating":4.2,"reference":"ChIJcdxZh54zGQ0RcFdSCtVf0MY","types":["restaurant","food","point_of_interest","establishment"],"user_ratings_total":192},{"business_status":"OPERATIONAL","formatted_address":"R. Artilharia 1 51, 1250-000 Lisboa","geometry":{"location":{"lat":38.7235273,"lng":-9.1559518},"viewport":{"northeast":{"lat":38.72466302989272,"lng":-9.15466367010728},"southwest":{"lat":38.72196337010728,"lng":-9.157363329892723}}},"icon":"https://maps.gstatic.com/mapfiles/place_api/icons/v1/png_71/restaurant-71.png","icon_background_color":"#FF9E67","icon_mask_base_uri":"https://maps.gstatic.com/mapfiles/place_api/icons/v2/restaurant_pinlet","name":"Fogo de Chão","opening_hours":{"open_now":false},"photos":[{"height":4032,"html_attributions":["<a href=\"https://maps.google.com/maps/contrib/105963688184465971145\">A Google User</a>"],"photo_reference":"AeJbb3dqEHtsZav3l0Gf40TzTi8IAaskjAP2eMqehpVzfCFWaue3PgmgcgBJQs7IaVJg6vK10DxIwP82kf6drr2jRrW-2zRwU8bgljnY7gRCD6u92pqh2yocDClSmAZ2i8_E4fXQCKEG1Y5y3sjPJJcBAGoCvdx2lfQfNRpFnM0AZmFVlfV9","width":3024}],"place_id":"ChIJTx_AQHAzGQ0RHmcku-WNJz4","plus_code":{"compound_code":"PRFV+CJ Lisbon","global_code":"8CCGPRFV+CJ"},"price_level":2,"rating":4.1,"reference":"ChIJTx_AQHAzGQ0RHmcku-WNJz4","types":["restaurant","food","point_of_interest","establishment"],"user_ratings_total":1208},{"business_status":"OPERATIONAL","formatted_address":"Av. Dom José I 61, 2720-208 Amadora","geometry":{"location":{"lat":38.7500108,"lng":-9.2316255},"viewport":{"northeast":{"lat":38.75140902989272,"lng":-9.230319670107278},"southwest":{"lat":38.74870937010728,"lng":-9.233019329892722}}},"icon":"https://maps.gstatic.com/mapfiles/place_api/icons/v1/png_71/restaurant-71.png","icon_background_color":"#FF9E67","icon_mask_base_uri":"https://maps.gstatic.com/mapfiles/place_api/icons/v2/restaurant_pinlet","name":"BB Grill","opening_hours":{"open_now":true},"photos":[{"height":2448,"html_attributions":["<a href=\"https://maps.google.com/maps/contrib/104527013338946027577\">Ana Só</a>"],"photo_reference":"AeJbb3ev4AbjqeMaT5STi97KntB6iTKcFoYBNFxJvXueRysNmNMiIzeCLIHsD2KbT69Yyg4B4PFa8ujZ5Zh5SNF-pyOovVmWdk5E_XnY6KkHspvS8wf3VzimzpolA9GWqsyvnGlcsPiLu1BUaXnTmcNwLBZI07m3H1cGr0mw_FKScirt__EP","width":3264}],"place_id":"ChIJiVjLVgDNHg0RZ_OUJe3IenU","plus_code":{"compound_code":"QQ29+28 Amadora","global_code":"8CCGQQ29+28"},"price_level":1,"rating":4.1,"reference":"ChIJiVjLVgDNHg0RZ_OUJe3IenU","types":["meal_takeaway","restaurant","food","point_of_interest","establishment"],"user_ratings_total":583},{"business_status":"OPERATIONAL","formatted_address":"R. Ilha Terceira 298, 2775-796 Carcavelos","geometry":{"location":{"lat":38.6989588,"lng":-9.3228531},"viewport":{"northeast":{"lat":38.70027272989272,"lng":-9.32148977010728},"southwest":{"lat":38.69757307010727,"lng":-9.324189429892725}}},"icon":"https://maps.gstatic.com/mapfiles/place_api/icons/v1/png_71/restaurant-71.png","icon_background_color":"#FF9E67","icon_mask_base_uri":"https://maps.gstatic.com/mapfiles/place_api/icons/v2/restaurant_pinlet","name":"Churrasqueira AL's","opening_hours":{"open_now":false},"photos":[{"height":324,"html_attributions":["<a href=\"https://maps.google.com/maps/contrib/108448174414010292895\">Vitor Cabeça</a>"],"photo_reference":"AeJbb3cdj6mnTo9GTRUKTBHP4lm4usY6w4qat3z9i9Ygs5JV4dT-08-LYYhTXs0mmO2kfEUXtZcoxz2ZILZE5fpKZGYHbvrgi3pht1jr3ffGMgWWNcVwc900Hd6bMhkVLbKeeeSK9zoKeDPt58yfM-FZMDXUAx9CC8nu6A_uoZpg0uzl5N-M","width":1680}],"place_id":"ChIJH6nZrizPHg0R6EthnQj4-fw","plus_code":{"compound_code":"MMXG+HV Carcavelos","global_code":"8CCGMMXG+HV"},"price_level":2,"rating":4.1,"reference":"ChIJH6nZrizPHg0R6EthnQj4-fw","types":["restaurant","food","point_of_interest","establishment"],"user_ratings_total":507},{"business_status":"OPERATIONAL","formatted_address":"Calçada da Estrela 193 205, 1200-663 Lisboa","geometry":{"location":{"lat":38.7129426,"lng":-9.158454299999999},"viewport":{"northeast":{"lat":38.71432782989271,"lng":-9.157127170107279},"southwest":{"lat":38.71162817010727,"lng":-9.159826829892722}}},"icon":"https://maps.gstatic.com/mapfiles/place_api/icons/v1/png_71/restaurant-71.png","icon_background_color":"#FF9E67","icon_mask_base_uri":"https://maps.gstatic.com/mapfiles/place_api/icons/v2/restaurant_pinlet","name":"O Lavrador","opening_hours":{"open_now":false},"photos":[{"height":473,"html_attributions":["<a href=\"https://maps.google.com/maps/contrib/118277246908376747002\">J Mattos</a>"],"photo_reference":"AeJbb3eOLqxGTaq3fVF_2o5f_IfTdb6GhmSqY7HkXM-AtIBL-KMpnH9ZbCVpB-QMwDWO3-bPlTmmnp3xaX55OO6JFzVJjkrLIGueVI6ab2rql_BucylHCSolSgPMu10r77M32FuCoNgigORyeKJhmBahdvoyGQJHiDfqHoECp736-Lg5_kc","width":950}],"place_id":"ChIJd2uBk2IzGQ0RWeyY_jlgUu0","plus_code":{"compound_code":"PR7R+5J Lisbon","global_code":"8CCGPR7R+5J"},"price_level":1,"rating":4.1,"reference":"ChIJd2uBk2IzGQ0RWeyY_jlgUu0","types":["restaurant","food","point_of_interest","establishment"],"user_ratings_total":440},{"business_status":"OPERATIONAL","formatted_address":"R. República Popular de Moçambique 6, 2725-079 Algueirão-Mem Martins","geometry":{"location":{"lat":38.7952705,"lng":-9.339370899999999},"viewport":{"northeast":{"lat":38.79660667989272,"lng":-9.337999220107276},"southwest":{"lat":38.79390702010728,"lng":-9.34069887989272}}},"icon":"https://maps.gstatic.com/mapfiles/place_api/icons/v1/png_71/restaurant-71.png","icon_background_color":"#FF9E67","icon_mask_base_uri":"https://maps.gstatic.com/mapfiles/place_api/icons/v2/restaurant_pinlet","name":"BB grill","opening_hours":{"open_now":true},"photos":[{"height":3024,"html_attributions":["<a href=\"https://maps.google.com/maps/contrib/114983104025802568360\">Victor Dominges</a>"],"photo_reference":"AeJbb3f-P0Ng5yjwnCSAqhjIH_Sk8Oxur0096R81zW4NFacRpWyQXfhEheW8dDuwWaLyZyJpI20GL6WTstfFVVGA6HYWHT0godqxtjP4OQkdtsTJGGq6gP-16BaKwDG6r6CKZA4Ux4Sh4EM0pJcdxYxQPHFC9AuH_OXxkdqC1O8ZMSzjHihE","width":4032}],"place_id":"ChIJO5Lj9jvQHg0RC200XfqJdZ0","plus_code":{"compound_code":"QMW6+47 Algueirão–Mem Martins","global_code":"8CCGQMW6+47"},"price_level":1,"rating":4.1,"reference":"ChIJO5Lj9jvQHg0RC200XfqJdZ0","types":["restaurant","food","point_of_interest","establishment"],"user_ratings_total":307},{"business_status":"OPERATIONAL","formatted_address":"CH, R. Latino Coelho 10A B R, 1050-136 Lisboa","geometry":{"location":{"lat":38.732625,"lng":-9.148558099999999},"viewport":{"northeast":{"lat":38.73396547989272,"lng":-9.14721872010728},"southwest":{"lat":38.73126582010728,"lng":-9.149918379892723}}},"icon":"https://maps.gstatic.com/mapfiles/place_api/icons/v1/png_71/restaurant-71.png","icon_background_color":"#FF9E67","icon_mask_base_uri":"https://maps.gstatic.com/mapfiles/place_api/icons/v2/restaurant_pinlet","name":"KING KIMCHI (SALDANHA)","opening_hours":{"open_now":false},"photos":[{"height":4032,"html_attributions":["<a href=\"https://maps.google.com/maps/contrib/100283988920260018578\">Betty</a>"],"photo_reference":"AeJbb3dA9kzI4K091aVyxr6lDfrjabcBkzJNUjCCBb4iyPASbh9IkfD06gLaFlwDN3MfJ4QkZ7FmeHJnea5eRGgOMmQZDxeZrqAE_ZlAp1DqF0Q2dvL3PIPd3Hp3uqr-L0H2ynL8QQ9pkiYsFcfwXOb83SWMhR7_NVJXSDRVbuE-zHSAMe7D","width":3024}],"place_id":"ChIJzSzHZ4wzGQ0RPGiCD4W0q7Y","plus_code":{"compound_code":"PVM2+2H Lisbon","global_code":"8CCGPVM2+2H"},"rating":4.1,"reference":"ChIJzSzHZ4wzGQ0RPGiCD4W0q7Y","types":["restaurant","food","point_of_interest","establishment"],"user_ratings_total":117},{"business_status":"OPERATIONAL","formatted_address":"Alameda António Sérgio 76D, 2795-022 Linda-a-Velha","geometry":{"location":{"lat":38.7165345,"lng":-9.2367665},"viewport":{"northeast":{"lat":38.71780392989272,"lng":-9.235383270107278},"southwest":{"lat":38.71510427010728,"lng":-9.238082929892721}}},"icon":"https://maps.gstatic.com/mapfiles/place_api/icons/v1/png_71/restaurant-71.png","icon_background_color":"#FF9E67","icon_mask_base_uri":"https://maps.gstatic.com/mapfiles/place_api/icons/v2/restaurant_pinlet","name":"Chickinho Linda-a-Velha","opening_hours":{"open_now":false},"photos":[{"height":1689,"html_attributions":["<a href=\"https://maps.google.com/maps/contrib/106237989335519163334\">Swagat Felon</a>"],"photo_reference":"AeJbb3fdhtYAmEHhLzN0xU_EwPELnnGQBLZbYT9z_RSgf-XbUy3eTELaEkOoTNl3pMWI8PM0jQt4jVi8NyN20IcOlvK7-fSNfVXCTgZB_OCIuoZ8pXk-l0z85JwahJD31O554mM73T6XaXmyaInYxhJcHK01wuZ4l3otVSzbYBoBYmIOXI09","width":1677}],"place_id":"ChIJPTHwJAfNHg0R82nQJPMOQ6E","plus_code":{"compound_code":"PQ87+J7 Linda-a-Velha","global_code":"8CCGPQ87+J7"},"price_level":2,"rating":4.1,"reference":"ChIJPTHwJAfNHg0R82nQJPMOQ6E","types":["restaurant","food","point_of_interest","establishment"],"user_ratings_total":63},{"business_status":"OPERATIONAL","formatted_address":"R. Francisco Sanches 37, 1170-141 Lisboa","geometry":{"location":{"lat":38.7313398,"lng":-9.1337678},"viewport":{"northeast":{"lat":38.73267947989272,"lng":-9.132317220107279},"southwest":{"lat":38.72997982010728,"lng":-9.135016879892722}}},"icon":"https://maps.gstatic.com/mapfiles/place_api/icons/v1/png_71/restaurant-71.png","icon_background_color":"#FF9E67","icon_mask_base_uri":"https://maps.gstatic.com/mapfiles/place_api/icons/v2/restaurant_pinlet","name":"BBQ Asiático/秦淮炭烤","opening_hours":{"open_now":false},"photos":[{"height":1440,"html_attributions":["<a href=\"https://maps.google.com/maps/contrib/117431744757704005680\">A Google User</a>"],"photo_reference":"AeJbb3frLSAMEzlJ_aQ94A42xl-X8YTXBfZMQ3_HvpHr0FKQj1RP5l-Du45Gb2W6apWoKp9oY582ZVGrAopM6-k8mIy3DS-ttevsjvllpI3iMKpLInQPgjTg6VXRNeXcj_oPjlsr8548MIKpiKAmj3YP-ii2JaA_Rlv3h_t7Qftm-O-ATJR7","width":1080}],"place_id":"ChIJEXp-xsIzGQ0RdH4JSMORKp4","plus_code":{"compound_code":"PVJ8+GG Lisbon","global_code":"8CCGPVJ8+GG"},"rating":4.1,"reference":"ChIJEXp-xsIzGQ0RdH4JSMORKp4","types":["restaurant","food","point_of_interest","establishment"],"user_ratings_total":55},{"business_status":"OPERATIONAL","formatted_address":"Rua Marquês de Fronteira 117F, 1070-292 Lisboa","geometry":{"location":{"lat":38.7293029,"lng":-9.1586382},"viewport":{"northeast":{"lat":38.73066637989272,"lng":-9.157325770107278},"southwest":{"lat":38.72796672010728,"lng":-9.160025429892722}}},"icon":"https://maps.gstatic.com/mapfiles/place_api/icons/v1/png_71/restaurant-71.png","icon_background_color":"#FF9E67","icon_mask_base_uri":"https://maps.gstatic.com/mapfiles/place_api/icons/v2/restaurant_pinlet","name":"Chickinho","opening_hours":{"open_now":false},"photos":[{"height":4032,"html_attributions":["<a href=\"https://maps.google.com/maps/contrib/113732878460683819228\">Carline Napo</a>"],"photo_reference":"AeJbb3fGFklnN9_FcwxK1vw84EDxLp5qvSGsFpY2bNoPod2hlW8D9fepByCQOm0sBmQTj9nw0mP5pjQpCnx5wzfb26mn9ybjsvuHM8CrrW_MFqnCIPTXez5NNicY2IlnnGia9wxOsyu0hJqqTL9EBH4CpMrt90Ezre0fb4yG5smbEN2hhYXs","width":3024}],"place_id":"ChIJhWbDum0zGQ0RiLLwiWOA4lA","plus_code":{"compound_code":"PRHR+PG Lisbon","global_code":"8CCGPRHR+PG"},"price_level":2,"rating":4,"reference":"ChIJhWbDum0zGQ0RiLLwiWOA4lA","types":["restaurant","food","point_of_interest","establishment"],"user_ratings_total":286},{"business_status":"OPERATIONAL","formatted_address":"Av. Dom João II 40 LOJA 2.014, 1990-094 Lisboa","geometry":{"location":{"lat":38.7681195,"lng":-9.0962975},"viewport":{"northeast":{"lat":38.76949332989272,"lng":-9.095601400000001},"southwest":{"lat":38.76679367010728,"lng":-9.098385800000003}}},"icon":"https://maps.gstatic.com/mapfiles/place_api/icons/v1/png_71/restaurant-71.png","icon_background_color":"#FF9E67","icon_mask_base_uri":"https://maps.gstatic.com/mapfiles/place_api/icons/v2/restaurant_pinlet","name":"Ribs True American Barbecue","opening_hours":{"open_now":true},"photos":[{"height":1920,"html_attributions":["<a href=\"https://maps.google.com/maps/contrib/104168811643396697207\">André Gouveia</a>"],"photo_reference":"AeJbb3dKd24e7JqGHl9WTW4M6bBwfiYmNr1QnGS9kZkX-Qd3MfYT78yU_yDaukaEh4ELAMEavavVlq3k4qokWEbrrqx187Kky7SMMBgUiL6jBpoQUS4Mqin3U3TC6HwP6_piQyMj81v8TqPxtuSsjbwX4hdPrPrUmFN7zJVAtsTPP4WOURhw","width":1440}],"place_id":"ChIJR2LFDoYxGQ0RgLPz1qn_5ME","plus_code":{"compound_code":"QW93+6F Lisbon","global_code":"8CCGQW93+6F"},"rating":4,"reference":"ChIJR2LFDoYxGQ0RgLPz1qn_5ME","types":["restaurant","food","point_of_interest","establishment"],"user_ratings_total":193},{"business_status":"CLOSED_TEMPORARILY","formatted_address":"R. Saraiva de Carvalho 266, 1350-302 Lisboa","geometry":{"location":{"lat":38.7154309,"lng":-9.1648141},"viewport":{"northeast":{"lat":38.71673992989273,"lng":-9.163504120107278},"southwest":{"lat":38.71404027010728,"lng":-9.166203779892722}}},"icon":"https://maps.gstatic.com/mapfiles/place_api/icons/v1/png_71/restaurant-71.png","icon_background_color":"#FF9E67","icon_mask_base_uri":"https://maps.gstatic.com/mapfiles/place_api/icons/v2/restaurant_pinlet","name":"BBQcome","permanently_closed":true,"photos":[{"height":4000,"html_attributions":["<a href=\"https://maps.google.com/maps/contrib/107370502859024753238\">Andreia Rocha</a>"],"photo_reference":"AeJbb3dCVuaQFyuG7LtZuvvlg6_uVMoAUhb35QHTXRkfTuRkUVDJqTomU_DAWziL8qXENranz13agyWzWp0QM4JBP8DL6HKJ67kGtUsgoEESESEgNbnF-ujFrx6l3WX4sHYrZX-4arSEM0Bl-5d1K3FE2J0E0gjImRMtHZM8hcsdeInTXP8B","width":3000}],"place_id":"ChIJDe1QdBszGQ0RbuvXcRhWfh4","plus_code":{"compound_code":"PR8P+53 Lisbon","global_code":"8CCGPR8P+53"},"rating":4,"reference":"ChIJDe1QdBszGQ0RbuvXcRhWfh4","types":["restaurant","food","point_of_interest","establishment"],"user_ratings_total":52},{"business_status":"OPERATIONAL","formatted_address":"Av. Cruzeiro Seixas 5 e 7, 2650-505 Amadora","geometry":{"location":{"lat":38.7768465,"lng":-9.220477599999999},"viewport":{"northeast":{"lat":38.77819762989272,"lng":-9.219111670107278},"southwest":{"lat":38.77549797010727,"lng":-9.221811329892722}}},"icon":"https://maps.gstatic.com/mapfiles/place_api/icons/v1/png_71/restaurant-71.png","icon_background_color":"#FF9E67","icon_mask_base_uri":"https://maps.gstatic.com/mapfiles/place_api/icons/v2/restaurant_pinlet","name":"Chickinho Amadora","opening_hours":{"open_now":true},"photos":[{"height":6720,"html_attributions":["<a href=\"https://maps.google.com/maps/contrib/106202305473892092311\">A Google User</a>"],"photo_reference":"AeJbb3fSnf3NztxB3mKEvXN-ZS1hosjUq2fHcZqf7W6sa7O-NuYWiaIYATHidMmZBy2_Z37wH_hBKXYTn1boJWXuZDcgXsIJGMq4BTP5e-5LAhvUpfGci5rWuItv9TKURtROelNmms2xZp5rzOT5hjsjUpwoON9in2bQ9iFp4Y6ea-aeV0nx","width":4480}],"place_id":"ChIJkewSUmLNHg0Ro9LHz134jLU","plus_code":{"compound_code":"QQGH+PR Amadora","global_code":"8CCGQQGH+PR"},"rating":4,"reference":"ChIJkewSUmLNHg0Ro9LHz134jLU","types":["restaurant","food","point_of_interest","establishment"],"user_ratings_total":34},{"business_status":"OPERATIONAL","formatted_address":"Av. Dom Nuno Álvares Pereira 70, 2700-324 Amadora","geometry":{"location":{"lat":38.7580722,"lng":-9.246577199999999},"viewport":{"northeast":{"lat":38.75937697989271,"lng":-9.24523942010728},"southwest":{"lat":38.75667732010727,"lng":-9.247939079892724}}},"icon":"https://maps.gstatic.com/mapfiles/place_api/icons/v1/png_71/restaurant-71.png","icon_background_color":"#FF9E67","icon_mask_base_uri":"https://maps.gstatic.com/mapfiles/place_api/icons/v2/restaurant_pinlet","name":"Churrasqueira Bom Frango","photos":[{"height":4032,"html_attributions":["<a href=\"https://maps.google.com/maps/contrib/115125651219742989323\">Talha Ch</a>"],"photo_reference":"AeJbb3evvfyyUI4SLW7rcDUE3Y3ke_47Kv9U14dyCuO18TjQLjf2qE5wH6pQBZwrR1eIVAqMRysIv_JOfsvRuBGSkeiGaz50yesJV5rsvh6areH84haevp7gc4ZCgSoDGmpSNnMS_ZtkXTJ99mq4FHYja1aAymRDFRmGd7q4h2q3jRnp-jaB","width":3024}],"place_id":"ChIJYcDU66nNHg0R6GevcrVoi5M","plus_code":{"compound_code":"QQ53+69 Amadora","global_code":"8CCGQQ53+69"},"rating":4,"reference":"ChIJYcDU66nNHg0R6GevcrVoi5M","types":["restaurant","food","point_of_interest","establishment"],"user_ratings_total":20},{"business_status":"OPERATIONAL","formatted_address":"Largo da Graça n43, 1170-165 Lisboa","geometry":{"location":{"lat":38.7173662,"lng":-9.1296005},"viewport":{"northeast":{"lat":38.71882102989272,"lng":-9.128431070107279},"southwest":{"lat":38.71612137010727,"lng":-9.131130729892723}}},"icon":"https://maps.gstatic.com/mapfiles/place_api/icons/v1/png_71/restaurant-71.png","icon_background_color":"#FF9E67","icon_mask_base_uri":"https://maps.gstatic.com/mapfiles/place_api/icons/v2/restaurant_pinlet","name":"Churrasco da Graça","opening_hours":{"open_now":false},"photos":[{"height":2560,"html_attributions":["<a href=\"https://maps.google.com/maps/contrib/106469290779479209054\">Julio Oliveira</a>"],"photo_reference":"AeJbb3djwhaStwdmyPYHeY594CoEblptt-YDqyL8vwnFyDhrLFeyciH_2PfrX9MrXK7AI6fQ5FgaFhl5D5KjeLbj7SJm6YcwN2reOHRqmsv_YTi96fpF0sq9oPUuO0_9F8WnGHCDnJR_VXQJk_10lIzuUm_HBoqp6pqnUKrLPAcrOhUHIkFr","width":1536}],"place_id":"ChIJp6u4bokzGQ0Ruk7TEvRTPAc","plus_code":{"compound_code":"PV8C+W5 Lisbon","global_code":"8CCGPV8C+W5"},"price_level":2,"rating":3.8,"reference":"ChIJp6u4bokzGQ0Ruk7TEvRTPAc","types":["restaurant","food","point_of_interest","establishment"],"user_ratings_total":607},{"business_status":"OPERATIONAL","formatted_address":"R. Barros Queirós 45, 1100-076 Lisboa","geometry":{"location":{"lat":38.714921,"lng":-9.1385411},"viewport":{"northeast":{"lat":38.71634832989272,"lng":-9.137119270107279},"southwest":{"lat":38.71364867010728,"lng":-9.139818929892723}}},"icon":"https://maps.gstatic.com/mapfiles/place_api/icons/v1/png_71/restaurant-71.png","icon_background_color":"#FF9E67","icon_mask_base_uri":"https://maps.gstatic.com/mapfiles/place_api/icons/v2/restaurant_pinlet","name":"Tábuas Sushi","opening_hours":{"open_now":false},"photos":[{"height":4032,"html_attributions":["<a href=\"https://maps.google.com/maps/contrib/110036555288757671467\">Laurence Marchais</a>"],"photo_reference":"AeJbb3eux4hxlFVBtBG2xuRgOy_zIfkDEhm4wq8mZ6wJ7mq29xGHVaN3VVg0V3cRVe7bKGgcOfqpoxGaGGgt_YJT90FUfLF40rvpIusdXzOO8I_8oZd_XaCjiXzeNTeAWsaGp01ORodpuQco1PQ8C8MvlHbTFX73W_NbvSzSPiRnhPyeiLgt","width":3024}],"place_id":"ChIJfaKyFYczGQ0RFe337Zbc4_0","plus_code":{"compound_code":"PV76+XH Lisbon","global_code":"8CCGPV76+XH"},"price_level":1,"rating":3.8,"reference":"ChIJfaKyFYczGQ0RFe337Zbc4_0","types":["restaurant","food","point_of_interest","establishment"],"user_ratings_total":350},{"business_status":"OPERATIONAL","formatted_address":"R. Braamcamp 9, 1250-096 Lisboa","geometry":{"location":{"lat":38.7229543,"lng":-9.1512609},"viewport":{"northeast":{"lat":38.72432282989273,"lng":-9.149963520107276},"southwest":{"lat":38.72162317010728,"lng":-9.15266317989272}}},"icon":"https://maps.gstatic.com/mapfiles/place_api/icons/v1/png_71/restaurant-71.png","icon_background_color":"#FF9E67","icon_mask_base_uri":"https://maps.gstatic.com/mapfiles/place_api/icons/v2/restaurant_pinlet","name":"烤第壹BBQ 1st","opening_hours":{"open_now":false},"photos":[{"height":1920,"html_attributions":["<a href=\"https://maps.google.com/maps/contrib/104347810596881242987\">A Google User</a>"],"photo_reference":"AeJbb3cvA3a4eo4J5G7NrYtbWH6pQWoS6eRtPLUoTtdlswOrThn1SXpWupba27ZJAv6tld3r9hDoDjmsvTliua6TlZTNznC7b94JBVYt-T6d4l054rBi5SeNtyvLhiG_v2A0z2tshfa4M-fRt690Sk30F7_x_-b35Bjnbt8HGuVEu7Zx0qHV","width":925}],"place_id":"ChIJuZ9k9bszGQ0RAb5JkpEiz5Y","plus_code":{"compound_code":"PRFX+5F Lisbon","global_code":"8CCGPRFX+5F"},"rating":3.8,"reference":"ChIJuZ9k9bszGQ0RAb5JkpEiz5Y","types":["restaurant","food","point_of_interest","establishment"],"user_ratings_total":4},{"business_status":"OPERATIONAL","formatted_address":"Campo Grande 402, Lisboa","geometry":{"location":{"lat":38.7597038,"lng":-9.156132},"viewport":{"northeast":{"lat":38.76099412989272,"lng":-9.154761670107279},"southwest":{"lat":38.75829447010727,"lng":-9.157461329892723}}},"icon":"https://maps.gstatic.com/mapfiles/place_api/icons/v1/png_71/restaurant-71.png","icon_background_color":"#FF9E67","icon_mask_base_uri":"https://maps.gstatic.com/mapfiles/place_api/icons/v2/restaurant_pinlet","name":"Chimarrão","opening_hours":{"open_now":true},"photos":[{"height":1836,"html_attributions":["<a href=\"https://maps.google.com/maps/contrib/116597967491601579274\">Bruno Diogo Pereira De Almeida</a>"],"photo_reference":"AeJbb3cIhFImd17cCqMqTAXjkHVsQjVMjH3APXME-S5wVrQrJq_SjraEWYX8d7iS_f8D1uF83GKvV-uU3Ogu0Qbh-xF9HvQ1g1LJ3T-Nc3wtNT8pTHapYI7TRgkeraWIzQARDKTLnuSdE3jxuDCaNVPN2O8KjrWGWMy0HM4v7LRXKVBHxBB3","width":3264}],"place_id":"ChIJvzsvT_syGQ0R03pBp9gsqRk","plus_code":{"compound_code":"QR5V+VG Lisbon","global_code":"8CCGQR5V+VG"},"price_level":2,"rating":3.7,"reference":"ChIJvzsvT_syGQ0R03pBp9gsqRk","types":["restaurant","food","point_of_interest","establishment"],"user_ratings_total":1579},{"business_status":"OPERATIONAL","formatted_address":"Av. Gen. Humberto Delgado 31 D, 2825-343 Costa da Caparica","geometry":{"location":{"lat":38.64331320000001,"lng":-9.237379599999999},"viewport":{"northeast":{"lat":38.64461602989271,"lng":-9.236183470107278},"southwest":{"lat":38.64191637010727,"lng":-9.238883129892722}}},"icon":"https://maps.gstatic.com/mapfiles/place_api/icons/v1/png_71/restaurant-71.png","icon_background_color":"#FF9E67","icon_mask_base_uri":"https://maps.gstatic.com/mapfiles/place_api/icons/v2/restaurant_pinlet","name":"BBQ N1","opening_hours":{"open_now":true},"photos":[{"height":2736,"html_attributions":["<a href=\"https://maps.google.com/maps/contrib/115180378632795774542\">Valter Lima</a>"],"photo_reference":"AeJbb3fqEowfW0ai1g3POFP4G5kkt0YXcRbzPN9yRXHfswA0sGZ74Y3usg57ZoEp6O_tzmqkyr7deHqdCIRGN9vmK8cAI2g0Ro4XK52VX3QYY6bFbgU7lpA8m8XmS4kREiYrHh4qfFqapnUk5l871ISjOYQ-OzdIk9-Ip9iOFQhQYyG2rI--","width":3648}],"place_id":"ChIJV87oJ17KHg0R-VJ7obMSsKY","plus_code":{"compound_code":"JQV7+82 Costa da Caparica","global_code":"8CCGJQV7+82"},"price_level":2,"rating":3.7,"reference":"ChIJV87oJ17KHg0R-VJ7obMSsKY","types":["restaurant","food","point_of_interest","establishment"],"user_ratings_total":197},{"business_status":"OPERATIONAL","formatted_address":"Centro Comercial Vasco da Gama, 1990-083 Lisboa","geometry":{"location":{"lat":38.7686316,"lng":-9.095858},"viewport":{"northeast":{"lat":38.76998142989272,"lng":-9.094508170107277},"southwest":{"lat":38.76728177010727,"lng":-9.09720782989272}}},"icon":"https://maps.gstatic.com/mapfiles/place_api/icons/v1/png_71/restaurant-71.png","icon_background_color":"#FF9E67","icon_mask_base_uri":"https://maps.gstatic.com/mapfiles/place_api/icons/v2/restaurant_pinlet","name":"Chopperia","opening_hours":{"open_now":true},"photos":[{"height":2098,"html_attributions":["<a href=\"https://maps.google.com/maps/contrib/117271810413215189847\">Joci Cseh</a>"],"photo_reference":"AeJbb3c1n8Fg3z-xXfUjILDb4Hk8ifl2oDPJNGg14CD9n6VSWP4qJzc7FSTrOMMhs80jaD_Y8FTYaAhdw4EkNgFWqMUkeJqewIQCxGvYEQlPM7KEdThWQHRB-cLUOcRJF-kLGEfE71M6EeGa2iIV1D4Jn_QFkkGP32qDfAE0egt1FbK8C_0t","width":3426}],"place_id":"ChIJ909wfGUxGQ0R_RXDeL792I0","plus_code":{"compound_code":"QW93+FM Lisbon","global_code":"8CCGQW93+FM"},"rating":3,"reference":"ChIJ909wfGUxGQ0R_RXDeL792I0","types":["restaurant","food","point_of_interest","establishment"],"user_ratings_total":43},{"business_status":"OPERATIONAL","formatted_address":"R. Sérgio Malpique 2 Loja 3.32A, 2810-500 Almada","geometry":{"location":{"lat":38.660349,"lng":-9.174453999999999},"viewport":{"northeast":{"lat":38.66181677989272,"lng":-9.172954870107278},"southwest":{"lat":38.65911712010728,"lng":-9.175654529892721}}},"icon":"https://maps.gstatic.com/mapfiles/place_api/icons/v1/png_71/restaurant-71.png","icon_background_color":"#FF9E67","icon_mask_base_uri":"https://maps.gstatic.com/mapfiles/place_api/icons/v2/restaurant_pinlet","name":"RIBS","opening_hours":{"open_now":true},"photos":[{"height":3000,"html_attributions":["<a href=\"https://maps.google.com/maps/contrib/105846141809064676233\">A Google User</a>"],"photo_reference":"AeJbb3f9BwVf-12vxWrZa4EAZqxUya3SgzKz3gXxm944JqNXKdIRctfp-ecRZ1n_WsinPfeHkEhuvuaXauU2_Nyo35ov1D3rlyL6TiOYWtTr_kpiVf1pXoWNqdi6v341ZM1zMYY58hqIPxJOBY-qdB-Nqbip0mYqGoevvu-4FdFAfQFnnMAx","width":4000}],"place_id":"ChIJadwg_ig1GQ0RSeZ0TpSfutQ","plus_code":{"compound_code":"MR6G+46 Almada","global_code":"8CCGMR6G+46"},"rating":3,"reference":"ChIJadwg_ig1GQ0RSeZ0TpSfutQ","types":["restaurant","food","point_of_interest","establishment"],"user_ratings_total":36}]