[{"business_status":"OPERATIONAL","formatted_address":"PT Lisboa, R. do Benformoso 43 2 Esq, 1100-083","geometry":{"location":{"lat":38.717263,"lng":-9.1349659},"viewport":{"northeast":{"lat":38.71861382989272,"lng":-9.13364627010728},"southwest":{"lat":38.71591417010728,"lng":-9.136345929892723}}},"icon":"https://maps.gstatic.com/mapfiles/place_api/icons/v1/png_71/restaurant-71.png","icon_background_color":"#FF9E67","icon_mask_base_uri":"https://maps.gstatic.com/mapfiles/place_api/icons/v2/restaurant_pinlet","name":"chinês clandestino 43","opening_hours":{"open_now":false},"photos":[{"height":4032,"html_attributions":["<a href=\"https://maps.google.com/maps/contrib/101226893396039743699\">A Google User</a>"],"photo_reference":"AeJbb3eXMKqZscDJKire5wQzfCrt90I-jr_fW33iLByU7FjTPvHVBxmVNR2RTTYxoHuk6LqRzNVDwc-wgfsCQMPUyhC3lxyprsnbdnEHlO4ShPcHWR9sTtjBgy_JdlNf9Dl9t3VqYJzwMvGFkh2l3BPDHjBJCCwhQH7C23d24UX3JNDsvq8Y","width":2268}],"place_id":"ChIJoUJLpkwzGQ0RFmbiECBI6BU","plus_code":{"compound_code":"PV88+W2 Lisbon","global_code":"8CCGPV88+W2"},"rating":5,"reference":"ChIJoUJLpkwzGQ0RFmbiECBI6BU","types":["restaurant","food","point_of_interest","establishment"],"user_ratings_total":1},{"business_status":"OPERATIONAL","formatted_address":"Av. Alm. Reis 19A, 1150-020 Lisboa","geometry":{"location":{"lat":38.7218741,"lng":-9.135586499999999},"viewport":{"northeast":{"lat":38.72321832989272,"lng":-9.134150570107277},"southwest":{"lat":38.72051867010727,"lng":-9.13685022989272}}},"icon":"https://maps.gstatic.com/mapfiles/place_api/icons/v1/png_71/restaurant-71.png","icon_background_color":"#FF9E67","icon_mask_base_uri":"https://maps.gstatic.com/mapfiles/place_api/icons/v2/restaurant_pinlet","name":"Chinese Flavor Restaurant","opening_hours":{"open_now":true},"photos":[{"height":1082,"html_attributions":["<a href=\"https://maps.google.com/maps/contrib/103461454943451072136\">John Myers</a>"],"photo_reference":"AeJbb3eRGvDInJ3WF7Jp7yOF_bJRC0EFJZ23kLBtJ_GI6cLNb-B6oMvT1-iC5mNGTVQd9P6IFm4OzfMifOZgVo4PoT4ArV0yArDYZ6O5jGQMGcZIZ-hhtOYtAv38yUPAOcz8kL8XbYpUayP-XcLbg3ljRKqZq7f_px6nvK9yJzKEJTN2K1iF","width":1440}],"place_id":"ChIJQVhuYjAzGQ0Rx0_tsfY2lrg","plus_code":{"compound_code":"PVC7+PQ Lisbon","global_code":"8CCGPVC7+PQ"},"rating":4.9,"reference":"ChIJQVhuYjAzGQ0Rx0_tsfY2lrg","types":["restaurant","food","point_of_interest","establishment"],"user_ratings_total":16},{"business_status":"OPERATIONAL","formatted_address":"Avenida Lusíada, C. C. Colombo - Lj 2.029a, 1500-392 Lisboa","geometry":{"location":{"lat":38.7547796,"lng":-9.1895779},"viewport":{"northeast":{"lat":38.75580342989272,"lng":-9.188388320107277},"southwest":{"lat":38.75310377010727,"lng":-9.191087979892721}}},"icon":"https://maps.gstatic.com/mapfiles/place_api/icons/v1/png_71/restaurant-71.png","icon_background_color":"#FF9E67","icon_mask_base_uri":"https://maps.gstatic.com/mapfiles/place_api/icons/v2/restaurant_pinlet","name":"Restaurante Li Yuan","opening_hours":{"open_now":true},"photos":[{"height":3456,"html_attributions":["<a href=\"https://maps.google.com/maps/contrib/117587577964416850996\">Sérgio Pimentel</a>"],"photo_reference":"AeJbb3cNQKnZ4ZGco7HnV0XFlGm13z9HY7UV1bBu1l9lIZV1Qi2Di6VPioGFjXYJwaeij11Xjs71zUu690sS1pzd1M0g1z3PuWkb17s4vPn-irTR5UYCqE4oTkTTEvTCvnNwFrzDG3tbt25JvWAnm3z7oxxPAsToqOCPx6ZOPUnJSz5dIwAq","width":3456}],"place_id":"ChIJBxXp3sEzGQ0R2Iu3-uyo05U","plus_code":{"compound_code":"QR36+W5 Lisbon","global_code":"8CCGQR36+W5"},"rating":4.9,"reference":"ChIJBxXp3sEzGQ0R2Iu3-uyo05U","types":["restaurant","food","point_of_interest","establishment"],"user_ratings_total":15},{"business_status":"OPERATIONAL","formatted_address":"Calçada da Mouraria 7, 1100-394 Lisboa","geometry":{"location":{"lat":38.7168296,"lng":-9.1347954},"viewport":{"northeast":{"lat":38.71817657989272,"lng":-9.133441570107278},"southwest":{"lat":38.71547692010728,"lng":-9.136141229892722}}},"icon":"https://maps.gstatic.com/mapfiles/place_api/icons/v1/png_71/restaurant-71.png","icon_background_color":"#FF9E67","icon_mask_base_uri":"https://maps.gstatic.com/mapfiles/place_api/icons/v2/restaurant_pinlet","name":"Mi Dai Wenzhou","opening_hours":{"open_now":true},"photos":[{"height":1233,"html_attributions":["<a href=\"https://maps.google.com/maps/contrib/113171509524733704042\">A Google User</a>"],"photo_reference":"AeJbb3cR_gvziqSVUXziv4li7TgOgxM1-qOdpox8zMPEvv9vNazf1vUY5JKNkbgbtrONCp6vzH_CxwlA_In8nW6ZJ1uT5ggp0b6jMJUzzSPk7dQMNraM_3SMvvJmI-4aCQyFj3WMmxB5dqbjdXHBulkRigpaWEi2z-vtyy3YW5o1WNK77oTz","width":1242}],"place_id":"ChIJjYvjKIYzGQ0R9wKDCWo2qkY","plus_code":{"compound_code":"PV88+P3 Lisbon","global_code":"8CCGPV88+P3"},"price_level":1,"rating":4.6,"reference":"ChIJjYvjKIYzGQ0R9wKDCWo2qkY","types":["restaurant","food","point_of_interest","establishment"],"user_ratings_total":142},{"business_status":"OPERATIONAL","formatted_address":"PT Lisboa, R. Dona Filipa de Vilhena 36A, 1000-137","geometry":{"location":{"lat":38.738751,"lng":-9.142225999999999},"viewport":{"northeast":{"lat":38.74011802989272,"lng":-9.140938520107277},"southwest":{"lat":38.73741837010728,"lng":-9.14363817989272}}},"icon":"https://maps.gstatic.com/mapfiles/place_api/icons/v1/png_71/restaurant-71.png","icon_background_color":"#FF9E67","icon_mask_base_uri":"https://maps.gstatic.com/mapfiles/place_api/icons/v2/restaurant_pinlet","name":"Huang He","opening_hours":{"open_now":false},"photos":[{"height":919,"html_attributions":["<a href=\"https://maps.google.com/maps/contrib/107145903583685617883\">A Google User</a>"],"photo_reference":"AeJbb3cFaTvOgCsCPgfa65E0PpuraWpr3XGf25xBpZ3gnTsfLO3d0ZOopoDfyBhL6wQP4NWIHqxXSHn0XJQM5OpcU0l0JDgBiRh0ECJ0yTTeuAl0tS4xVJ8qYFzdqjmdKuR9RLVo_EyVRS1QSrbHoSvJMDgUi63oScj-Gna-Ybkhivu8COXX","width":1004}],"place_id":"ChIJK7D4Q9czGQ0R6HbM-U4vsB0","plus_code":{"compound_code":"PVQ5+G4 Lisbon","global_code":"8CCGPVQ5+G4"},"rating":4.6,"reference":"ChIJK7D4Q9czGQ0R6HbM-U4vsB0","types":["restaurant","food","point_of_interest","establishment"],"user_ratings_total":15},{"business_status":"OPERATIONAL","formatted_address":"Av. República 64, 1050-197 Lisboa","geometry":{"location":{"lat":38.7441666,"lng":-9.1469892},"viewport":{"northeast":{"lat":38.74556427989272,"lng":-9.145667720107276},"southwest":{"lat":38.74286462010728,"lng":-9.14836737989272}}},"icon":"https://maps.gstatic.com/mapfiles/place_api/icons/v1/png_71/restaurant-71.png","icon_background_color":"#FF9E67","icon_mask_base_uri":"https://maps.gstatic.com/mapfiles/place_api/icons/v2/restaurant_pinlet","name":"Nova Pequim","opening_hours":{"open_now":false},"photos":[{"height":3472,"html_attributions":["<a href=\"https://maps.google.com/maps/contrib/116945258286598329538\">A Google User</a>"],"photo_reference":"AeJbb3dDrW77pCpNxgFQVYVbIiE8xqpGcpG-jKefU6dyLd741uA4xEIaU5pvdK0EXFJ4yCnNmGVhHRm718j4BxJf8a0Szw-XkMoRQmQMbnuo0RPjGYFOHMT0UBEWHW4ZK-62AamCuhaRs-HLwGka5By_3Rnn2i4M2kEr45ujk-zBcRaIKQE6","width":3472}],"place_id":"ChIJE6qtdoUzGQ0RdxMssZXbWek","plus_code":{"compound_code":"PVV3+M6 Lisbon","global_code":"8CCGPVV3+M6"},"rating":4.5,"reference":"ChIJE6qtdoUzGQ0RdxMssZXbWek","types":["restaurant","food","point_of_interest","establishment"],"user_ratings_total":206},{"business_status":"OPERATIONAL","formatted_address":"Av. Gago Coutinho 70, 2635-362 Rio de Mouro","geometry":{"location":{"lat":38.7840203,"lng":-9.3226465},"viewport":{"northeast":{"lat":38.78533917989272,"lng":-9.321324420107278},"southwest":{"lat":38.78263952010728,"lng":-9.324024079892721}}},"icon":"https://maps.gstatic.com/mapfiles/place_api/icons/v1/png_71/restaurant-71.png","icon_background_color":"#FF9E67","icon_mask_base_uri":"https://maps.gstatic.com/mapfiles/place_api/icons/v2/restaurant_pinlet","name":"Hua Li","opening_hours":{"open_now":false},"photos":[{"height":2934,"html_attributions":["<a href=\"https://maps.google.com/maps/contrib/101818178550241926094\">A Google User</a>"],"photo_reference":"AeJbb3cHzSo9pXRQfb4MASnkTvccpP1yLs3W11m6Zk6Dk7gXJbHs6UazlVKxs81nHUaleUN-rpVnbOW4aRtZfUupzFw2UPfYlS4tuKkQnCMsK4PJKjwsjmZgvL3z8H1obcOnZsH44MdzIoq8Pp6z4LRPkYA_DPZFNd5PYNA7QJXNPGCPdeL_","width":3957}],"place_id":"ChIJaepgFq_RHg0Rktxm41bkF4E","plus_code":{"compound_code":"QMMG+JX Rio de Mouro","global_code":"8CCGQMMG+JX"},"price_level":1,"rating":4.5,"reference":"ChIJaepgFq_RHg0Rktxm41bkF4E","types":["restaurant","food","point_of_interest","establishment"],"user_ratings_total":159},{"business_status":"OPERATIONAL","formatted_address":"1170-188 Lisbon","geometry":{"location":{"lat":38.7312186,"lng":-9.1285239},"viewport":{"northeast":{"lat":38.73250962989272,"lng":-9.127193370107278},"southwest":{"lat":38.72980997010728,"lng":-9.129893029892722}}},"icon":"https://maps.gstatic.com/mapfiles/place_api/icons/v1/png_71/restaurant-71.png","icon_background_color":"#FF9E67","icon_mask_base_uri":"https://maps.gstatic.com/mapfiles/place_api/icons/v2/restaurant_pinlet","name":"Restaurante Chinês Hao Zai Lai","opening_hours":{"open_now":false},"photos":[{"height":1080,"html_attributions":["<a href=\"https://maps.google.com/maps/contrib/111712609740638656119\">A Google User</a>"],"photo_reference":"AeJbb3fMP8mUTJd4skJ-A3rTPpXmzwCBkF9gCIDrDvIKUIGjJjkLmdT6YJGr0WDA4hrUoTMfcwgq271OD3JOKmtWDGrS-sSnMFd9UxP1FQJCVm3aeZrhc73D5QqeZfE0f6p039WucdN-yIdvOIPx9qIuXUKcyk9Jplis3WhkQ4YmjyKfAUDa","width":1080}],"place_id":"ChIJda_HO-szGQ0RjxCXP0WMbdI","plus_code":{"compound_code":"PVJC+FH Lisbon","global_code":"8CCGPVJC+FH"},"price_level":1,"rating":4.5,"reference":"ChIJda_HO-szGQ0RjxCXP0WMbdI","types":["restaurant","food","point_of_interest","establishment"],"user_ratings_total":61},{"business_status":"OPERATIONAL","formatted_address":"Rua Pimenta 9, 1990-254 Lisboa","geometry":{"location":{"lat":38.7701477,"lng":-9.0924058},"viewport":{"northeast":{"lat":38.77145512989272,"lng":-9.091212620107278},"southwest":{"lat":38.76875547010728,"lng":-9.093912279892722}}},"icon":"https://maps.gstatic.com/mapfiles/place_api/icons/v1/png_71/restaurant-71.png","icon_background_color":"#FF9E67","icon_mask_base_uri":"https://maps.gstatic.com/mapfiles/place_api/icons/v2/restaurant_pinlet","name":"The Old House","opening_hours":{"open_now":false},"photos":[{"height":3000,"html_attributions":["<a href=\"https://maps.google.com/maps/contrib/110824094608766518190\">Alexandre Ciobanu</a>"],"photo_reference":"AeJbb3cq1PTwbfGSpnCoOUFpy2EKN0825k4Wr9eWpO5RzIU1LFeWlPZTE_ht2SyuOHhD6uvm5lsWKf3Pad96wdMJmzTOZMHjmkKwFywLqsh7sWZEdESuU9CEUkmSGiFIkO5IOkKM8ui0zFcKkTrVcpHA7Xd79RBDcav9WzOvzwZaFyV0ojDZ","width":4000}],"place_id":"ChIJIzI7mI8xGQ0RFPhNQG3PdfQ","plus_code":{"compound_code":"QWC5+32 Lisbon","global_code":"8CCGQWC5+32"},"price_level":3,"rating":4.4,"reference":"ChIJIzI7mI8xGQ0RFPhNQG3PdfQ","types":["restaurant","food","point_of_interest","establishment"],"user_ratings_total":2308},{"business_status":"OPERATIONAL","formatted_address":"Edificio Roma, Av. Frei Miguel Contreiras 54B, 1700-081 Lisboa","geometry":{"location":{"lat":38.7461249,"lng":-9.1391329},"viewport":{"northeast":{"lat":38.74732462989272,"lng":-9.137768970107278},"southwest":{"lat":38.74462497010727,"lng":-9.140468629892721}}},"icon":"https://maps.gstatic.com/mapfiles/place_api/icons/v1/png_71/restaurant-71.png","icon_background_color":"#FF9E67","icon_mask_base_uri":"https://maps.gstatic.com/mapfiles/place_api/icons/v2/restaurant_pinlet","name":"Chuan Yue","opening_hours":{"open_now":false},"photos":[{"height":1079,"html_attributions":["<a href=\"https://maps.google.com/maps/contrib/100374706480338752881\">A Google User</a>"],"photo_reference":"AeJbb3ez2L6sqv4b8ExN7J3Sow9gRtwpZhbp2IgGuU1R8mFN7dVj1XM6to9pP07dOReKRVA1pTY8IdD0vf6A7VF-XtrGovyhV2D28v7VcdviOpu3T8q4SEcm6r6n8WlKsOUaCx9QPaWmIo6cLCmCJp_0KJvCPes44OhxiBM5iEPGsiO3OmaP","width":1920}],"place_id":"ChIJ1-tnOa8zGQ0RQM26QqwEa9Y","plus_code":{"compound_code":"PVW6+C8 Lisbon","global_code":"8CCGPVW6+C8"},"price_level":2,"rating":4.4,"reference":"ChIJ1-tnOa8zGQ0RQM26QqwEa9Y","types":["restaurant","food","point_of_interest","establishment"],"user_ratings_total":362},{"business_status":"OPERATIONAL","formatted_address":"R. António Pereira Carrilho 18a, 1000-047 Lisboa","geometry":{"location":{"lat":38.7341532,"lng":-9.13561},"viewport":{"northeast":{"lat":38.73545242989273,"lng":-9.134289370107277},"southwest":{"lat":38.73275277010728,"lng":-9.136989029892721}}},"icon":"https://maps.gstatic.com/mapfiles/place_api/icons/v1/png_71/restaurant-71.png","icon_background_color":"#FF9E67","icon_mask_base_uri":"https://maps.gstatic.com/mapfiles/place_api/icons/v2/restaurant_pinlet","name":"Chong Qing hotpot","opening_hours":{"open_now":false},"photos":[{"height":4080,"html_attributions":["<a href=\"https://maps.google.com/maps/contrib/101068553291011824961\">Azarias Tomás</a>"],"photo_reference":"AeJbb3eWGiFu_vrr52l-IYX5EXEM47Y2zA0-VBQT5T1WA_lRgq55k2cT0TUIIqbPS6-R9yfp8z8krIK3PAISRlw5RFc5mBpJanl2OAfc44yIC8tmWXtPQAxWYfvVxyNMF4z2-Z--qg3OkHcjPy-fVnXn-X9H0IGTVrhZTkM6BJf4E_Z3NnDv","width":3072}],"place_id":"ChIJL5GnH9AzGQ0RROAMgBm-eCk","plus_code":{"compound_code":"PVM7+MQ Lisbon","global_code":"8CCGPVM7+MQ"},"rating":4.4,"reference":"ChIJL5GnH9AzGQ0RROAMgBm-eCk","types":["restaurant","food","point_of_interest","establishment"],"user_ratings_total":258},{"business_status":"OPERATIONAL","formatted_address":"Av. de Berna 21A, 1050-053 Lisboa","geometry":{"location":{"lat":38.7405727,"lng":-9.1493349},"viewport":{"northeast":{"lat":38.74195237989272,"lng":-9.148007320107277},"southwest":{"lat":38.73925272010728,"lng":-9.150706979892721}}},"icon":"https://maps.gstatic.com/mapfiles/place_api/icons/v1/png_71/restaurant-71.png","icon_background_color":"#FF9E67","icon_mask_base_uri":"https://maps.gstatic.com/mapfiles/place_api/icons/v2/restaurant_pinlet","name":"Huang He Restaurante Chinês","opening_hours":{"open_now":false},"photos":[{"height":3024,"html_attributions":["<a href=\"https://maps.google.com/maps/contrib/102506046124065506028\">tu</a>"],"photo_reference":"AeJbb3fqO2am9JdBuzqtTlRC6j_mlkJx4L4VydEZZPoRdA24P2s2z7Ih9T5uXLcbRrS4FUOmNo0Ui5pJaHA6Gq0PsvLHY71X8kikQiYlJcmraSU4Z7CNQjVyD-VMgVKgIiuNpM1fVp44m-bSQ6At8l9V2gLP958f0eERcrp1aX4h0ihNaCsS","width":4032}],"place_id":"ChIJi65rGgkzGQ0R9CcnK9dkp84","plus_code":{"compound_code":"PVR2+67 Lisbon","global_code":"8CCGPVR2+67"},"price_level":1,"rating":4.3,"reference":"ChIJi65rGgkzGQ0R9CcnK9dkp84","types":["restaurant","food","point_of_interest","establishment"],"user_ratings_total":2222},{"business_status":"OPERATIONAL","formatted_address":"Rua Coro de Santo Amaro de Oeiras 8, 2780-379 Oeiras","geometry":{"location":{"lat":38.7030371,"lng":-9.3037741},"viewport":{"northeast":{"lat":38.70434522989272,"lng":-9.30235862010728},"southwest":{"lat":38.70164557010727,"lng":-9.305058279892723}}},"icon":"https://maps.gstatic.com/mapfiles/place_api/icons/v1/png_71/restaurant-71.png","icon_background_color":"#FF9E67","icon_mask_base_uri":"https://maps.gstatic.com/mapfiles/place_api/icons/v2/restaurant_pinlet","name":"Dim Sum","opening_hours":{"open_now":false},"photos":[{"height":3024,"html_attributions":["<a href=\"https://maps.google.com/maps/contrib/117342472235283068453\">Jose Sousa</a>"],"photo_reference":"AeJbb3cOaGolirUtDkkwvlo3azpzG7bUTQ3HJ6f0OOCO2FteyCIhCBnRw4XJEfEWDsALPEOerWtsUychsdk89TO6xokfwzWppizGOZ3_REC2F5behfkaWdAvpXvKFdaUB5watMTaCvU8v3JvtjxYiZs5IZT-mm1HXgQBWhmwklrxKE_nUzQ","width":4032}],"place_id":"ChIJu7ANCcvOHg0RVPZRf8fiZEI","plus_code":{"compound_code":"PM3W+6F Oeiras","global_code":"8CCGPM3W+6F"},"price_level":2,"rating":4.3,"reference":"ChIJu7ANCcvOHg0RVPZRf8fiZEI","types":["restaurant","food","point_of_interest","establishment"],"user_ratings_total":1725},{"business_status":"OPERATIONAL","formatted_address":"Praceta Maputo 6, 2780-023 Oeiras","geometry":{"location":{"lat":38.6938878,"lng":-9.304394499999999},"viewport":{"northeast":{"lat":38.69524297989273,"lng":-9.303102270107276},"southwest":{"lat":38.69254332010728,"lng":-9.30580192989272}}},"icon":"https://maps.gstatic.com/mapfiles/place_api/icons/v1/png_71/restaurant-71.png","icon_background_color":"#FF9E67","icon_mask_base_uri":"https://maps.gstatic.com/mapfiles/place_api/icons/v2/restaurant_pinlet","name":"Macau Dim Sum","opening_hours":{"open_now":false},"photos":[{"height":4032,"html_attributions":["<a href=\"https://maps.google.com/maps/contrib/103774222420299771686\">Nico Pipinha</a>"],"photo_reference":"AeJbb3cEFBXejdqUepeNFpyVZJ3r25pfszour8x2IDce9DtfXwSqT316AXcsSU2bQj0K0veINsc0SVhFfRTjaoTO2dXhECfJUIA8VvPYflXLhQSs8E5XbG21XbFqIjXK0zvzJTetWFY-JnAF4Hz6wbJoLWny737s-8-q9pGEuYOAYuYCts6C","width":3024}],"place_id":"ChIJf_JXkTbJHg0R1pEz-VMu1cU","plus_code":{"compound_code":"MMVW+H7 Oeiras","global_code":"8CCGMMVW+H7"},"price_level":1,"rating":4.3,"reference":"ChIJf_JXkTbJHg0R1pEz-VMu1cU","types":["restaurant","food","point_of_interest","establishment"],"user_ratings_total":1023},{"business_status":"OPERATIONAL","formatted_address":"R. Actor Taborda 51-53, 1000-007 Lisboa","geometry":{"location":{"lat":38.7317094,"lng":-9.1439439},"viewport":{"northeast":{"lat":38.73309132989273,"lng":-9.142613170107277},"southwest":{"lat":38.73039167010728,"lng":-9.14531282989272}}},"icon":"https://maps.gstatic.com/mapfiles/place_api/icons/v1/png_71/restaurant-71.png","icon_background_color":"#FF9E67","icon_mask_base_uri":"https://maps.gstatic.com/mapfiles/place_api/icons/v2/restaurant_pinlet","name":"Chana","opening_hours":{"open_now":false},"photos":[{"height":3024,"html_attributions":["<a href=\"https://maps.google.com/maps/contrib/107882484846241470330\">Torben Andersson</a>"],"photo_reference":"AeJbb3cBro2m7xzRqq--R7EBrLNvZp4_qZTX0gJqEr8fZA2jY9eT3udetedCH4bQoTTrllp3pSYA3WQA_4P6UiXP3xgvdBttU2KZib06rcnu9m2aiQBPYdkKEWR5UjLHCtH8Co57OvRY9ILP36t27xFEvu69p2nB-mnxrlRmBD1lv083vUmX","width":4032}],"place_id":"ChIJjaM7t58zGQ0Rh8_eLBXrzQY","plus_code":{"compound_code":"PVJ4+MC Lisbon","global_code":"8CCGPVJ4+MC"},"price_level":1,"rating":4.3,"reference":"ChIJjaM7t58zGQ0Rh8_eLBXrzQY","types":["restaurant","food","point_of_interest","establishment"],"user_ratings_total":374},{"business_status":"OPERATIONAL","formatted_address":"R. Elias Garcia 157A, 2735-266 Agualva-Cacém","geometry":{"location":{"lat":38.7688596,"lng":-9.3076631},"viewport":{"northeast":{"lat":38.77027437989272,"lng":-9.306345970107277},"southwest":{"lat":38.76757472010727,"lng":-9.30904562989272}}},"icon":"https://maps.gstatic.com/mapfiles/place_api/icons/v1/png_71/restaurant-71.png","icon_background_color":"#FF9E67","icon_mask_base_uri":"https://maps.gstatic.com/mapfiles/place_api/icons/v2/restaurant_pinlet","name":"Xi Hu","opening_hours":{"open_now":false},"photos":[{"height":3024,"html_attributions":["<a href=\"https://maps.google.com/maps/contrib/111413277259084663727\">A Google User</a>"],"photo_reference":"AeJbb3dItMhvkjueW_SFJqmC-EVLf3b3T7ZjEtFryI_VcOlbjLgDo1TR5umqd9kXMGgjBeufbaRs2PnGedL9MAakydZ1WISZqoMcHthZw0DfHi_bHMyTx96bH3QzRewZGq6qvZWnWHR_yi5AvASHLgA15TW1OuSnhIo1SX_Adc8_os8XPyRf","width":4032}],"place_id":"ChIJD4T4PobPHg0RwdEJs2QB_Eo","plus_code":{"compound_code":"QM9R+GW Agualva-Cacém","global_code":"8CCGQM9R+GW"},"price_level":1,"rating":4.3,"reference":"ChIJD4T4PobPHg0RwdEJs2QB_Eo","types":["restaurant","food","point_of_interest","establishment"],"user_ratings_total":317},{"business_status":"OPERATIONAL","formatted_address":"R. de Belém 97, 1300-083 Lisboa","geometry":{"location":{"lat":38.6972417,"lng":-9.2030292},"viewport":{"northeast":{"lat":38.69861727989272,"lng":-9.201675870107277},"southwest":{"lat":38.69591762010728,"lng":-9.20437552989272}}},"icon":"https://maps.gstatic.com/mapfiles/place_api/icons/v1/png_71/restaurant-71.png","icon_background_color":"#FF9E67","icon_mask_base_uri":"https://maps.gstatic.com/mapfiles/place_api/icons/v2/restaurant_pinlet","name":"Xi-Hu","opening_hours":{"open_now":false},"photos":[{"height":3024,"html_attributions":["<a href=\"https://maps.google.com/maps/contrib/117867348882605384904\">Iria Tojo Thomas De Carranza</a>"],"photo_reference":"AeJbb3fFyNtywWQdLE8fWmRcZxxTdmRvLScyBzkYKRpfKr_Bhp-OlfH6DlazosIfARc4ZdYQsoE86lrvWsFbgkxIxXtSxH5zvQQ6IZKJAX_ljQPPx0Hp2q2khUO9l7ASJSGI1UzmOt_chvTDJdQzXD27hL9f7ynh3EsiWt9VjfmGIZ8gquKO","width":4032}],"place_id":"ChIJB7cAMEXLHg0Rlt52j87ztX0","plus_code":{"compound_code":"MQWW+VQ Lisbon","global_code":"8CCGMQWW+VQ"},"rating":4.3,"reference":"ChIJB7cAMEXLHg0Rlt52j87ztX0","types":["restaurant","food","point_of_interest","establishment"],"user_ratings_total":113},{"business_status":"OPERATIONAL","formatted_address":"R. Ilha das Flores F, 2775-409 Carcavelos","geometry":{"location":{"lat":38.70028440000001,"lng":-9.322665899999999},"viewport":{"northeast":{"lat":38.70155652989273,"lng":-9.321287120107277},"southwest":{"lat":38.69885687010728,"lng":-9.32398677989272}}},"icon":"https://maps.gstatic.com/mapfiles/place_api/icons/v1/png_71/restaurant-71.png","icon_background_color":"#FF9E67","icon_mask_base_uri":"https://maps.gstatic.com/mapfiles/place_api/icons/v2/restaurant_pinlet","name":"Fu","opening_hours":{"open_now":false},"photos":[{"height":1080,"html_attributions":["<a href=\"https://maps.google.com/maps/contrib/104505580253868550621\">Tiago Soares</a>"],"photo_reference":"AeJbb3fq2Fy5b-scdqPhS54JbmSaTb0vBbFdAZnQ5evmJKWHiMGo2J8M8ThgRKrHIra215vI3aLOt39pNqe92o8NdKh4Purszm6tQLbchKscVlQejLjW-uJBZi_7MGpRR00gtCQ_q32CkSs2jLo7JVnAFN504wSUX9xKOYBCCZqW1Vhe5zPl","width":1920}],"place_id":"ChIJ2T6zzJfPHg0RmQlCapjxr6I","plus_code":{"compound_code":"PM2G+4W Carcavelos","global_code":"8CCGPM2G+4W"},"rating":4.3,"reference":"ChIJ2T6zzJfPHg0RmQlCapjxr6I","types":["restaurant","food","point_of_interest","establishment"],"user_ratings_total":52},{"business_status":"OPERATIONAL","formatted_address":"Av. das Forças Armadas 39B, 1600-038 Lisboa","geometry":{"location":{"lat":38.7477647,"lng":-9.1510187},"viewport":{"northeast":{"lat":38.74917092989272,"lng":-9.149682020107278},"southwest":{"lat":38.74647127010728,"lng":-9.152381679892722}}},"icon":"https://maps.gstatic.com/mapfiles/place_api/icons/v1/png_71/restaurant-71.png","icon_background_color":"#FF9E67","icon_mask_base_uri":"https://maps.gstatic.com/mapfiles/place_api/icons/v2/restaurant_pinlet","name":"Huang He","opening_hours":{"open_now":false},"photos":[{"height":3024,"html_attributions":["<a href=\"https://maps.google.com/maps/contrib/100574444978369874861\">V SP</a>"],"photo_reference":"AeJbb3er2v5020-8Mkla4VsimD8tQ-Z0ODFZajlQnlfBHhTfig8datWviQG1If9GJAt9PiCYUmWIQ0FNAvp222yuxXooUGWP0HinvdheS0CMpYxIXQd9V7fiF9y1UJ9Bpsne74zImxg-HiPCebrs0B9UQMiCYZNyp3y1aNFmuACs0vytDPS3","width":4032}],"place_id":"ChIJP9OnpwYzGQ0RhAM3QNyBjvg","plus_code":{"compound_code":"PRXX+4H Lisbon","global_code":"8CCGPRXX+4H"},"price_level":1,"rating":4.2,"reference":"ChIJP9OnpwYzGQ0RhAM3QNyBjvg","types":["restaurant","food","point_of_interest","establishment"],"user_ratings_total":1301},{"business_status":"OPERATIONAL","formatted_address":"R. da Guia 9 1, 1100-132 Lisboa","geometry":{"location":{"lat":38.7160776,"lng":-9.1340003},"viewport":{"northeast":{"lat":38.71732572989272,"lng":-9.132304920107277},"southwest":{"lat":38.71462607010727,"lng":-9.13500457989272}}},"icon":"https://maps.gstatic.com/mapfiles/place_api/icons/v1/png_71/restaurant-71.png","icon_background_color":"#FF9E67","icon_mask_base_uri":"https://maps.gstatic.com/mapfiles/place_api/icons/v2/restaurant_pinlet","name":"Hidden Chinese Restaurant","opening_hours":{"open_now":false},"photos":[{"height":3000,"html_attributions":["<a href=\"https://maps.google.com/maps/contrib/113895891084151455591\">Virgilio Quintino</a>"],"photo_reference":"AeJbb3cW7jddF3QR0ka1SV29xT8nEkzLF0TmybFH6vkl28wWQM2GSAkaTR2336PEgHehquf_evPG_EgOSundSSkGujhKoaHYHbqlou-ma35ZTPDtiNTUZdjEfSaBNNOAETugzeWRX-vqr9DDvG73BivjC_BinuDR20qZSf3hGbzMGghzn24C","width":4000}],"place_id":"ChIJq9t_e4gzGQ0RF6zXk1GaKxc","plus_code":{"compound_code":"PV88+C9 Lisbon","global_code":"8CCGPV88+C9"},"price_level":1,"rating":4.2,"reference":"ChIJq9t_e4gzGQ0RF6zXk1GaKxc","types":["restaurant","food","point_of_interest","establishment"],"user_ratings_total":1100},{"business_status":"OPERATIONAL","formatted_address":"Av. Dr. Francisco de Sá Carneiro ES, 2780-233 Oeiras","geometry":{"location":{"lat":38.6923388,"lng":-9.3050892},"viewport":{"northeast":{"lat":38.69376027989272,"lng":-9.303808870107279},"southwest":{"lat":38.69106062010728,"lng":-9.306508529892723}}},"icon":"https://maps.gstatic.com/mapfiles/place_api/icons/v1/png_71/restaurant-71.png","icon_background_color":"#FF9E67","icon_mask_base_uri":"https://maps.gstatic.com/mapfiles/place_api/icons/v2/restaurant_pinlet","name":"Rong Hua","opening_hours":{"open_now":true},"photos":[{"height":2610,"html_attributions":["<a href=\"https://maps.google.com/maps/contrib/117513643540539656577\">sergio oliveira</a>"],"photo_reference":"AeJbb3cCBDJ12H_0cFlCj8czAPUrPPPwLP3G4lnh4E5Ogu8W6-l8NdNY2tgOxCoX8L9W9zWJQbAo5MFVZ0Td6qqrkdzkBJUG3SuMr7im6pz9XuyX3ZAQM6pEqYy09KknRc1V_3CLmSmrObvlx7BlmuSCNSJKchFAudBqA2uE_893IiSZFVv2","width":4640}],"place_id":"ChIJ65v0IDfJHg0RDZGRQFpBvxQ","plus_code":{"compound_code":"MMRV+WX Oeiras","global_code":"8CCGMMRV+WX"},"price_level":1,"rating":4.2,"reference":"ChIJ65v0IDfJHg0RDZGRQFpBvxQ","types":["restaurant","food","point_of_interest","establishment"],"user_ratings_total":936},{"business_status":"OPERATIONAL","formatted_address":"Av. Mal. Craveiro Lopes 8A, 1700-284 Lisboa","geometry":{"location":{"lat":38.7595154,"lng":-9.1532509},"viewport":{"northeast":{"lat":38.76093832989272,"lng":-9.151900420107278},"southwest":{"lat":38.75823867010728,"lng":-9.154600079892722}}},"icon":"https://maps.gstatic.com/mapfiles/place_api/icons/v1/png_71/restaurant-71.png","icon_background_color":"#FF9E67","icon_mask_base_uri":"https://maps.gstatic.com/mapfiles/place_api/icons/v2/restaurant_pinlet","name":"Hao Hua","opening_hours":{"open_now":false},"photos":[{"height":3024,"html_attributions":["<a href=\"https://maps.google.com/maps/contrib/116002602920924883673\">Hao Hua</a>"],"photo_reference":"AeJbb3fQfJuzm2YQYgv8oESJly7dOrFxQNE43dKMG5UCfz5249DBhFN9aLxwixd-6R6R6tL0y1oNRVtHLP67MA6i9v2QdMOqJCSPP14HUrPuImjviM58AdVF8GbGHZTJX5DEG0fRlK2VECjylBda5J5Vxa9kYx2V_I6nQrD10ameRV5L2p-2","width":4032}],"place_id":"ChIJLxSnevsyGQ0RFfSLdHVIZxM","plus_code":{"compound_code":"QR5W+RM Lisbon","global_code":"8CCGQR5W+RM"},"price_level":1,"rating":4.2,"reference":"ChIJLxSnevsyGQ0RFfSLdHVIZxM","types":["restaurant","food","point_of_interest","establishment"],"user_ratings_total":833},{"business_status":"OPERATIONAL","formatted_address":"R. Dr. António Granjo 30, 1495-039 Algés","geometry":{"location":{"lat":38.7022473,"lng":-9.229201},"viewport":{"northeast":{"lat":38.70359732989272,"lng":-9.22785117010728},"southwest":{"lat":38.70089767010727,"lng":-9.230550829892724}}},"icon":"https://maps.gstatic.com/mapfiles/place_api/icons/v1/png_71/restaurant-71.png","icon_background_color":"#FF9E67","icon_mask_base_uri":"https://maps.gstatic.com/mapfiles/place_api/icons/v2/restaurant_pinlet","name":"Nova Muralha","opening_hours":{"open_now":false},"photos":[{"height":3096,"html_attributions":["<a href=\"https://maps.google.com/maps/contrib/104213364147862214379\">Nelson Lima</a>"],"photo_reference":"AeJbb3dOn_ocFrYCWqUVK2ktewtJlhzb74zw4oQP3ySCTgxxqCi23QfRdZmlzfTer9azTPWLizYff-2HtBf5lXxWUIT5MuXQJIMOvNl5S2n2H8lC99Sy7M4psUwwCd9HkZuqAYISvbKQA_axUIaEPG5T6gLeFhL7IF6VJ7j1VxxaY6PxO3eT","width":4128}],"place_id":"ChIJH-b3on7LHg0R8l-7DHYr_P4","plus_code":{"compound_code":"PQ2C+V8 Algés","global_code":"8CCGPQ2C+V8"},"price_level":1,"rating":4.2,"reference":"ChIJH-b3on7LHg0R8l-7DHYr_P4","types":["restaurant","food","point_of_interest","establishment"],"user_ratings_total":508},{"business_status":"OPERATIONAL","formatted_address":"R. do Patrocínio 95A, 1350-229 Lisboa","geometry":{"location":{"lat":38.7151521,"lng":-9.1641017},"viewport":{"northeast":{"lat":38.71647987989272,"lng":-9.162720870107277},"southwest":{"lat":38.71378022010727,"lng":-9.165420529892721}}},"icon":"https://maps.gstatic.com/mapfiles/place_api/icons/v1/png_71/restaurant-71.png","icon_background_color":"#FF9E67","icon_mask_base_uri":"https://maps.gstatic.com/mapfiles/place_api/icons/v2/restaurant_pinlet","name":"O Norte da China (Lisboa)","opening_hours":{"open_now":false},"photos":[{"height":2736,"html_attributions":["<a href=\"https://maps.google.com/maps/contrib/100999084281485831256\">Andre Lopes</a>"],"photo_reference":"AeJbb3fqh4fc3XUKZ8DPjTjgoLIAQehU6wr3zp3GypHZHe_G-K7vEwmTZ3kwc2jqEUt8kA9FKwCa5X8Z5zVep4ygiRk9S_ontmEpgXpkivJ7wVn8xjX0DvzCvv4jSVV_C-bieQv_xg3rdD5XEP9q1QJF8TmaiaG0gy0HFz1aYSr2ydIx9jyj","width":3648}],"place_id":"ChIJqSReFmEzGQ0RsaZN9i_xFpI","plus_code":{"compound_code":"PR8P+39 Lisbon","global_code":"8CCGPR8P+39"},"price_level":1,"rating":4.2,"reference":"ChIJqSReFmEzGQ0RsaZN9i_xFpI","types":["meal_takeaway","restaurant","food","point_of_interest","establishment"],"user_ratings_total":461},{"business_status":"OPERATIONAL","formatted_address":"Av. da Igreja 41A, 1700-234 Lisboa","geometry":{"location":{"lat":38.7525665,"lng":-9.1451494},"viewport":{"northeast":{"lat":38.75398357989273,"lng":-9.143836370107278},"southwest":{"lat":38.75128392010728,"lng":-9.146536029892722}}},"icon":"https://maps.gstatic.com/mapfiles/place_api/icons/v1/png_71/restaurant-71.png","icon_background_color":"#FF9E67","icon_mask_base_uri":"https://maps.gstatic.com/mapfiles/place_api/icons/v2/restaurant_pinlet","name":"Nova Ásia","opening_hours":{"open_now":false},"photos":[{"height":3456,"html_attributions":["<a href=\"https://maps.google.com/maps/contrib/101807051509377399577\">filipe oliveira</a>"],"photo_reference":"AeJbb3f3Jhj5ra9hJHr57aXhOtDCYPL20Je2HC8WOqOLoYv4apqeki1RcNWG4SldQZN-rlw3pgoVClu34LA9dBkJ5LyLrfeOMJFT-RjPFoR_USZcGKF-Xvn2fVnNXUEApOxFxSOrKTBpoFFmzY6dDLfvOiUBwIIbc0NzIcuI5G_b2RQsiGC5","width":4608}],"place_id":"ChIJF_48m6ozGQ0Rj11xsps2zR8","plus_code":{"compound_code":"QV33+2W Lisbon","global_code":"8CCGQV33+2W"},"price_level":2,"rating":4.2,"reference":"ChIJF_48m6ozGQ0Rj11xsps2zR8","types":["restaurant","food","point_of_interest","establishment"],"user_ratings_total":316},{"business_status":"OPERATIONAL","formatted_address":"R. Dr. António Granjo 1C, 1495-019 Algés","geometry":{"location":{"lat":38.7022764,"lng":-9.2278834},"viewport":{"northeast":{"lat":38.70359712989272,"lng":-9.22653377010728},"southwest":{"lat":38.70089747010727,"lng":-9.229233429892723}}},"icon":"https://maps.gstatic.com/mapfiles/place_api/icons/v1/png_71/restaurant-71.png","icon_background_color":"#FF9E67","icon_mask_base_uri":"https://maps.gstatic.com/mapfiles/place_api/icons/v2/restaurant_pinlet","name":"Muralha de Pequim","opening_hours":{"open_now":false},"photos":[{"height":2250,"html_attributions":["<a href=\"https://maps.google.com/maps/contrib/108346560369711418170\">Claudia Inácio</a>"],"photo_reference":"AeJbb3c0a0eiCn2as2e3FeAM4uHQqN6BkTkL0FNUfPJ9fLAkEHJu0n-6VSVJYCgQtV-Cmv78l-5D1OuB2QkIYpltttYQEHZGAXPu2EBt1nlQ2qOuzIj-qRM7cq0Mke3XIzZaJIY_D0wjnY84EGP5AcyiN9rBKfAUK6VwETy4Piqe3THxy180","width":4000}],"place_id":"ChIJ3XxpF3zLHg0RVttIb0nvzKM","plus_code":{"compound_code":"PQ2C+WR Algés","global_code":"8CCGPQ2C+WR"},"price_level":1,"rating":4.2,"reference":"ChIJ3XxpF3zLHg0RVttIb0nvzKM","types":["restaurant","food","point_of_interest","establishment"],"user_ratings_total":314},{"business_status":"OPERATIONAL","formatted_address":"Av. Columbano Bordalo Pinheiro 70, Lisboa","geometry":{"location":{"lat":38.7386107,"lng":-9.1629808},"viewport":{"northeast":{"lat":38.73989632989273,"lng":-9.161650670107278},"southwest":{"lat":38.73719667010728,"lng":-9.164350329892722}}},"icon":"https://maps.gstatic.com/mapfiles/place_api/icons/v1/png_71/restaurant-71.png","icon_background_color":"#FF9E67","icon_mask_base_uri":"https://maps.gstatic.com/mapfiles/place_api/icons/v2/restaurant_pinlet","name":"City Wok","opening_hours":{"open_now":false},"photos":[{"height":6936,"html_attributions":["<a href=\"https://maps.google.com/maps/contrib/104027847371949060938\">SULTAN MAHMUD</a>"],"photo_reference":"AeJbb3elopFlmA4pRga_ogyp5k-Musex3y4fMmySdWGdPZsrSyRnOESjCFdUHR9PgSLdlQE3ZDEiYQocJWuELzvro8rgTwqJTLAGx-EdOWC6j5tWX3A-0UzWzZc0uYObY5e4dfm3OqyEHx5DeWwOzQU2aGq3uLxyKyo56Hj1128TE1pHQZl0","width":9248}],"place_id":"ChIJ33xPuBYzGQ0RpK3V0YbL7fk","plus_code":{"compound_code":"PRQP+CR Lisbon","global_code":"8CCGPRQP+CR"},"price_level":1,"rating":4.1,"reference":"ChIJ33xPuBYzGQ0RpK3V0YbL7fk","types":["restaurant","food","point_of_interest","establishment"],"user_ratings_total":1466},{"business_status":"OPERATIONAL","formatted_address":"Rua Dona Dulce de Aragão 2, 2605-246 Belas","geometry":{"location":{"lat":38.7629238,"lng":-9.2802626},"viewport":{"northeast":{"lat":38.76436902989272,"lng":-9.278921470107278},"southwest":{"lat":38.76166937010728,"lng":-9.281621129892722}}},"icon":"https://maps.gstatic.com/mapfiles/place_api/icons/v1/png_71/restaurant-71.png","icon_background_color":"#FF9E67","icon_mask_base_uri":"https://maps.gstatic.com/mapfiles/place_api/icons/v2/restaurant_pinlet","name":"Hen Xian","opening_hours":{"open_now":false},"photos":[{"height":988,"html_attributions":["<a href=\"https://maps.google.com/maps/contrib/115753565303799355026\">Apple Life hacks</a>"],"photo_reference":"AeJbb3csJN-MUJWlvVwsQomQEIvd-WIsnc2ITN9nQceDVDcOq7Z1ify9l8ZkMV2KviUGjGgkb_Su26yO8K-7vnCkNkAnNiBAPK-H5jKsjK8daAN6h8I6eJ7d2A08EXPprtzySmJBLSm8eiL7gzHaCQW5ZtNtf49J002agY1qy-fTnvmdreQ5","width":750}],"place_id":"ChIJSWb9drfNHg0REwM54WYG_uw","plus_code":{"compound_code":"QP79+5V Belas","global_code":"8CCGQP79+5V"},"price_level":1,"rating":4.1,"reference":"ChIJSWb9drfNHg0REwM54WYG_uw","types":["restaurant","food","point_of_interest","establishment"],"user_ratings_total":873},{"business_status":"OPERATIONAL","formatted_address":"R. José Régio 1, 2780-129 Oeiras","geometry":{"location":{"lat":38.6919578,"lng":-9.326728899999999},"viewport":{"northeast":{"lat":38.69358257989272,"lng":-9.32532827010728},"southwest":{"lat":38.69088292010728,"lng":-9.328027929892723}}},"icon":"https://maps.gstatic.com/mapfiles/place_api/icons/v1/png_71/restaurant-71.png","icon_background_color":"#FF9E67","icon_mask_base_uri":"https://maps.gstatic.com/mapfiles/place_api/icons/v2/restaurant_pinlet","name":"Boa Sorte","opening_hours":{"open_now":true},"photos":[{"height":2600,"html_attributions":["<a href=\"https://maps.google.com/maps/contrib/113153562076717097505\">Luca Peranzoni</a>"],"photo_reference":"AeJbb3eaNnluSa7dhfTHZQCkpkSGyVPe41cLSN1PBGanYzqKgHJVYtINgluLZ-iOaMOjUDlJc6euFmgEpQKtnxMbUr7A-mQpo5kGOxxhHyX5393ixqw40WWIZ-_aNReICmSuzqgf5zpZ0yvXNl4euEyDTgjUtf1h6BRtYQVRH484PV1dFSxH","width":4624}],"place_id":"ChIJHVtjldbIHg0ROibpwldlwOU","plus_code":{"compound_code":"MMRF+Q8 Oeiras","global_code":"8CCGMMRF+Q8"},"price_level":1,"rating":4.1,"reference":"ChIJHVtjldbIHg0ROibpwldlwOU","types":["restaurant","food","point_of_interest","establishment"],"user_ratings_total":800},{"business_status":"OPERATIONAL","formatted_address":"Av. António Enes 25 Loja 211, 2745-068 Queluz","geometry":{"location":{"lat":38.7574865,"lng":-9.255909599999999},"viewport":{"northeast":{"lat":38.75888002989272,"lng":-9.254458570107278},"southwest":{"lat":38.75618037010728,"lng":-9.257158229892722}}},"icon":"https://maps.gstatic.com/mapfiles/place_api/icons/v1/png_71/restaurant-71.png","icon_background_color":"#FF9E67","icon_mask_base_uri":"https://maps.gstatic.com/mapfiles/place_api/icons/v2/restaurant_pinlet","name":"Grande Mundo","opening_hours":{"open_now":true},"photos":[{"height":4160,"html_attributions":["<a href=\"https://maps.google.com/maps/contrib/101987819302264567915\">pedro fonseca</a>"],"photo_reference":"AeJbb3foO3T8dFsz9YkHyjEPufmRXNYEuJRAMKCsV7_exbzEUdplqngHFDs-l7SFHIQgPQHDuUgZmVhAaoVcqLxR7T-RugafvsWXlLwLT6yQG77BLSSGBi1qsQp47RaySTr3XX23xnBZXDRtcgcfIB1e-ctopbkPwAu0nsqAluf05VsJfGFB","width":3120}],"place_id":"ChIJAw8scrjNHg0R014RFR7tYE4","plus_code":{"compound_code":"QP4V+XJ Queluz","global_code":"8CCGQP4V+XJ"},"price_level":1,"rating":4.1,"reference":"ChIJAw8scrjNHg0R014RFR7tYE4","types":["restaurant","food","point_of_interest","establishment"],"user_ratings_total":617},{"business_status":"OPERATIONAL","formatted_address":"Av. Marquês de Tomar 48, 1050-053 Lisboa","geometry":{"location":{"lat":38.7374025,"lng":-9.1494606},"viewport":{"northeast":{"lat":38.73874567989272,"lng":-9.148162120107276},"southwest":{"lat":38.73604602010728,"lng":-9.15086177989272}}},"icon":"https://maps.gstatic.com/mapfiles/place_api/icons/v1/png_71/restaurant-71.png","icon_background_color":"#FF9E67","icon_mask_base_uri":"https://maps.gstatic.com/mapfiles/place_api/icons/v2/restaurant_pinlet","name":"Fu-Shin","opening_hours":{"open_now":false},"photos":[{"height":2976,"html_attributions":["<a href=\"https://maps.google.com/maps/contrib/114622524066542074255\">Yiu Eddie</a>"],"photo_reference":"AeJbb3eZoZoJaELHbnjbwTmGw1Uv9mzCUl5pFA6ilYV0FndTxuUKMU82xx2Ro5IQWJyRd5JCmjbEUBh4XsvdCo4x8N-4NtoV1hTDaAecB0tBT2FKZcKa6-jLiwuL4PIOc2zw2zKcYfvwAw10X2NCUwOVsJEeHg3ffhUTOZOZ-r6j29Cy7JAt","width":3968}],"place_id":"ChIJDY8owQszGQ0RUZ4xp3As9X4","plus_code":{"compound_code":"PVP2+X6 Lisbon","global_code":"8CCGPVP2+X6"},"price_level":1,"rating":4.1,"reference":"ChIJDY8owQszGQ0RUZ4xp3As9X4","types":["restaurant","food","point_of_interest","establishment"],"user_ratings_total":277},{"business_status":"OPERATIONAL","formatted_address":"Av. Portugal 12, 2790-072 Carnaxide","geometry":{"location":{"lat":38.7262436,"lng":-9.23887},"viewport":{"northeast":{"lat":38.72756477989272,"lng":-9.23760302010728},"southwest":{"lat":38.72486512010727,"lng":-9.240302679892723}}},"icon":"https://maps.gstatic.com/mapfiles/place_api/icons/v1/png_71/restaurant-71.png","icon_background_color":"#FF9E67","icon_mask_base_uri":"https://maps.gstatic.com/mapfiles/place_api/icons/v2/restaurant_pinlet","name":"Fu Jian","opening_hours":{"open_now":false},"photos":[{"height":3968,"html_attributions":["<a href=\"https://maps.google.com/maps/contrib/111923634283771480680\">A Google User</a>"],"photo_reference":"AeJbb3f4PWJO2zLw_rT4dcFrASnQnuikWMdm29f9DubKUc9gMFiLakYRnpy4-lS5jZX88AiAoh3C817wbBIeKxLIogTGU1RSCRhpKeastw9OkumM-qfov_5mqRianptRhjbKd9qnDKEtqTL88XY7e2a5lC6wQHVNvo7HTZOCh1M7aTolW9tn","width":2976}],"place_id":"ChIJL33goGDMHg0RLI8vPIjwVhQ","plus_code":{"compound_code":"PQG6+FC Carnaxide","global_code":"8CCGPQG6+FC"},"price_level":1,"rating":4.1,"reference":"ChIJL33goGDMHg0RLI8vPIjwVhQ","types":["restaurant","food","point_of_interest","establishment"],"user_ratings_total":176},{"business_status":"OPERATIONAL","formatted_address":"R. da Azenha 1b, 2725-434 Algueirão-Mem Martins","geometry":{"location":{"lat":38.795472,"lng":-9.339191399999999},"viewport":{"northeast":{"lat":38.79684432989273,"lng":-9.337824620107277},"southwest":{"lat":38.79414467010729,"lng":-9.34052427989272}}},"icon":"https://maps.gstatic.com/mapfiles/place_api/icons/v1/png_71/restaurant-71.png","icon_background_color":"#FF9E67","icon_mask_base_uri":"https://maps.gstatic.com/mapfiles/place_api/icons/v2/restaurant_pinlet","name":"Yusan chinese restaurant","opening_hours":{"open_now":false},"photos":[{"height":3472,"html_attributions":["<a href=\"https://maps.google.com/maps/contrib/104611032497124216229\">A Google User</a>"],"photo_reference":"AeJbb3dK2O2ZN40HomFZV0ItLMBwmT8rx4Cf0088YoiqrEXsnQ7Et706diCh2VnMErtv5q3Av0p6_p6mRxV3oIca0Q8vGQL3k0FMKc2NKd2H9JGJ0nNjDOXvR9mbGdo24sC1dNjkzfjgR941pQPALMYUqSMeKkjjtyk2rbDZJVRlzrshtV7d","width":3472}],"place_id":"ChIJMZgKEaDRHg0Rbp7JyXoQTYk","plus_code":{"compound_code":"QMW6+58 Algueirão–Mem Martins","global_code":"8CCGQMW6+58"},"rating":4.1,"reference":"ChIJMZgKEaDRHg0Rbp7JyXoQTYk","types":["restaurant","food","point_of_interest","establishment"],"user_ratings_total":89},{"business_status":"OPERATIONAL","formatted_address":"Azinhaga da Torre do Fato 13, 1600-759 Lisboa","geometry":{"location":{"lat":38.7618425,"lng":-9.1777467},"viewport":{"northeast":{"lat":38.76315292989273,"lng":-9.176328520107278},"southwest":{"lat":38.76045327010728,"lng":-9.179028179892722}}},"icon":"https://maps.gstatic.com/mapfiles/place_api/icons/v1/png_71/restaurant-71.png","icon_background_color":"#FF9E67","icon_mask_base_uri":"https://maps.gstatic.com/mapfiles/place_api/icons/v2/restaurant_pinlet","name":"Xiang","opening_hours":{"open_now":false},"photos":[{"height":1200,"html_attributions":["<a href=\"https://maps.google.com/maps/contrib/101038707042118447327\">XIANG</a>"],"photo_reference":"AeJbb3eWcsETq45TfC9v2w0kq37zE5mg0_kVRFI2lT4M5mTiNhm40LUWoQ5zWB4L0XL9A6rhNr2dloeXjAdtugrIvzhdrXno2rNTBQdIyD-fA149hSHKEAp4M_USNHEy46J2JBOowibb-yvgdhF0jxKqe37JAbI4JoROGGkFKqKLjTZRmhaI","width":1600}],"place_id":"ChIJw7oustoyGQ0RNK-Gqsy0KIE","plus_code":{"compound_code":"QR6C+PW Lisbon","global_code":"8CCGQR6C+PW"},"price_level":1,"rating":4,"reference":"ChIJw7oustoyGQ0RNK-Gqsy0KIE","types":["restaurant","food","point_of_interest","establishment"],"user_ratings_total":1929},{"business_status":"OPERATIONAL","formatted_address":"R. Pascoal de Melo 8, 1800-294 Lisboa","geometry":{"location":{"lat":38.7313129,"lng":-9.133981},"viewport":{"northeast":{"lat":38.73258112989271,"lng":-9.132643570107277},"southwest":{"lat":38.72988147010727,"lng":-9.13534322989272}}},"icon":"https://maps.gstatic.com/mapfiles/place_api/icons/v1/png_71/restaurant-71.png","icon_background_color":"#FF9E67","icon_mask_base_uri":"https://maps.gstatic.com/mapfiles/place_api/icons/v2/restaurant_pinlet","name":"Grande Palácio Hong-Kong","opening_hours":{"open_now":false},"photos":[{"height":2268,"html_attributions":["<a href=\"https://maps.google.com/maps/contrib/110566704633495429087\">David Caldeira</a>"],"photo_reference":"AeJbb3cU8dBuAm3KPJhGYk9RAT1XXCjNFeUo8YsDkHdWdHCJyvk65z7rntQxowoE1UhM6xr43JT049Tfj4ezF7rlZloUSGPH6q5SWHdb3vB4rMu_ZsHk0vjuSDwzhxM_nHj6g9C5ihiDwjUDHqK-pCw5K6IrrgxKoh3953PQEqJQw3-05z2D","width":4032}],"place_id":"ChIJTROCrpkzGQ0RMDnqREFRFR4","plus_code":{"compound_code":"PVJ8+GC Lisbon","global_code":"8CCGPVJ8+GC"},"price_level":2,"rating":4,"reference":"ChIJTROCrpkzGQ0RMDnqREFRFR4","types":["restaurant","food","point_of_interest","establishment"],"user_ratings_total":1277},{"business_status":"OPERATIONAL","formatted_address":"R. António Pedro 95, 1150-023 Lisboa","geometry":{"location":{"lat":38.7298254,"lng":-9.135624499999999},"viewport":{"northeast":{"lat":38.73117122989272,"lng":-9.134181520107276},"southwest":{"lat":38.72847157010727,"lng":-9.13688117989272}}},"icon":"https://maps.gstatic.com/mapfiles/place_api/icons/v1/png_71/restaurant-71.png","icon_background_color":"#FF9E67","icon_mask_base_uri":"https://maps.gstatic.com/mapfiles/place_api/icons/v2/restaurant_pinlet","name":"Mr. Lu","opening_hours":{"open_now":false},"photos":[{"height":3000,"html_attributions":["<a href=\"https://maps.google.com/maps/contrib/113558981638222273197\">Nuno Alberto Policarpo Bentes</a>"],"photo_reference":"AeJbb3c4RnKeji6G5fvoOvVbqJ_LprpWSW2Byo0No0f20qvHuVoUVoRStYtcImw8iGIhIzi3D7PV99gu-zXUYspPf7RIDwIKrpr0lSYZYF8GKDr3WFiNSHGe9PjDMsFqudYGtPzTeVYLbxb8RcFeX-8prtLmCmmwTW87nGRi_726xlIuGgfJ","width":4000}],"place_id":"ChIJy4n28ZkzGQ0RyW9sIHt402Q","plus_code":{"compound_code":"PVH7+WQ Lisbon","global_code":"8CCGPVH7+WQ"},"price_level":1,"rating":4,"reference":"ChIJy4n28ZkzGQ0RyW9sIHt402Q","types":["restaurant","food","point_of_interest","establishment"],"user_ratings_total":774},{"business_status":"OPERATIONAL","formatted_address":"Alameda Padre Álvaro Proença N6A, 1500-475 Lisboa","geometry":{"location":{"lat":38.7492902,"lng":-9.2014823},"viewport":{"northeast":{"lat":38.75047037989272,"lng":-9.200203570107277},"southwest":{"lat":38.74777072010728,"lng":-9.202903229892721}}},"icon":"https://maps.gstatic.com/mapfiles/place_api/icons/v1/png_71/restaurant-71.png","icon_background_color":"#FF9E67","icon_mask_base_uri":"https://maps.gstatic.com/mapfiles/place_api/icons/v2/restaurant_pinlet","name":"Sihai","opening_hours":{"open_now":false},"photos":[{"height":2160,"html_attributions":["<a href=\"https://maps.google.com/maps/contrib/111461566924239659151\">A Google User</a>"],"photo_reference":"AeJbb3eIneZWa0ftqeBLMoKKZVnEopi2cOtuqdQRlUXmVEwhDHNG7c0o24sOu0-e_K7PGqPDx3YvOH5w14OTsBtD_5lLon4QanB9f7vYadT9b0-WJcE-eCl6xveWAPSTFAw39d-d-sH_hxrXd89U4NdBxtGjWtGvNfnBFXhOpGVJ7yyUe1i6","width":3840}],"place_id":"ChIJj5PUENjMHg0RvJjE8mxBLvo","plus_code":{"compound_code":"PQXX+PC Lisbon","global_code":"8CCGPQXX+PC"},"price_level":1,"rating":4,"reference":"ChIJj5PUENjMHg0RvJjE8mxBLvo","types":["restaurant","food","point_of_interest","establishment"],"user_ratings_total":540},{"business_status":"OPERATIONAL","formatted_address":"R. Cândido dos Reis 37A, 2780-213 Oeiras","geometry":{"location":{"lat":38.6927676,"lng":-9.3104084},"viewport":{"northeast":{"lat":38.69414467989272,"lng":-9.309116420107278},"southwest":{"lat":38.69144502010727,"lng":-9.311816079892722}}},"icon":"https://maps.gstatic.com/mapfiles/place_api/icons/v1/png_71/restaurant-71.png","icon_background_color":"#FF9E67","icon_mask_base_uri":"https://maps.gstatic.com/mapfiles/place_api/icons/v2/restaurant_pinlet","name":"Wok Kirin","opening_hours":{"open_now":false},"photos":[{"height":3024,"html_attributions":["<a href=\"https://maps.google.com/maps/contrib/100136620795147457071\">A Google User</a>"],"photo_reference":"AeJbb3evB8Oqza1suCcor5pUuTSW8UbHwGCG4JpmvaR6h0y2AfR7uuzbJjVRMoydPOuF1LNvJFpx15WZif3kVzvxwCdi2dA2P3WE8yJn60N0sdEXEPeifUREelIbPdw7CY3DLCOnzwNiqYJiOfftPlv6hXR3xq5xKKDXFUyn0RhBfWMYFtY4","width":4032}],"place_id":"ChIJ45LguzHJHg0RqZvDMm3yXRQ","plus_code":{"compound_code":"MMVQ+3R Oeiras","global_code":"8CCGMMVQ+3R"},"price_level":1,"rating":4,"reference":"ChIJ45LguzHJHg0RqZvDMm3yXRQ","types":["restaurant","food","point_of_interest","establishment"],"user_ratings_total":447},{"business_status":"OPERATIONAL","formatted_address":"R. Cidade de Rabat 37N, 1500-672 Lisboa","geometry":{"location":{"lat":38.7481298,"lng":-9.180193599999999},"viewport":{"northeast":{"lat":38.74951947989272,"lng":-9.178837320107277},"southwest":{"lat":38.74681982010728,"lng":-9.181536979892721}}},"icon":"https://maps.gstatic.com/mapfiles/place_api/icons/v1/png_71/restaurant-71.png","icon_background_color":"#FF9E67","icon_mask_base_uri":"https://maps.gstatic.com/mapfiles/place_api/icons/v2/restaurant_pinlet","name":"Dong Hai","opening_hours":{"open_now":false},"photos":[{"height":3456,"html_attributions":["<a href=\"https://maps.google.com/maps/contrib/109544229221037118673\">maria filipe</a>"],"photo_reference":"AeJbb3c7iPU690iKpQEXdlappZYtiOZYUwI3mX4SDsQm23CZKasfDK47snJivomRI39iQCLKjkODcK4XdATjkSEKLwYGfFtbDpYDtEmpafzCdgxyIsILurjpOVVvWgUW9lkPJd7undQE5YUYuKz-F0xx6h7GySVSj5Ux4hoMxg-Psu5BzVeS","width":4608}],"place_id":"ChIJUx5UkygzGQ0Rv31exsK6YP0","plus_code":{"compound_code":"PRX9+7W Lisbon","global_code":"8CCGPRX9+7W"},"price_level":1,"rating":4,"reference":"ChIJUx5UkygzGQ0Rv31exsK6YP0","types":["restaurant","food","point_of_interest","establishment"],"user_ratings_total":434},{"business_status":"OPERATIONAL","formatted_address":"葡萄牙阿瓜尔瓦Avenida do Brasil nº157C邮政编码: 2735-523","geometry":{"location":{"lat":38.7491254,"lng":-9.2999519},"viewport":{"northeast":{"lat":38.75052732989271,"lng":-9.29857242010728},"southwest":{"lat":38.74782767010727,"lng":-9.301272079892724}}},"icon":"https://maps.gstatic.com/mapfiles/place_api/icons/v1/png_71/restaurant-71.png","icon_background_color":"#FF9E67","icon_mask_base_uri":"https://maps.gstatic.com/mapfiles/place_api/icons/v2/restaurant_pinlet","name":"Oriente da China","opening_hours":{"open_now":false},"photos":[{"height":3024,"html_attributions":["<a href=\"https://maps.google.com/maps/contrib/103839866466563225388\">A Google User</a>"],"photo_reference":"AeJbb3csH34veiZsELc5tfaorfnxlDEg7XpVNDQW3a1PrD4ik_3n_nGXjy02mipFsHTglF6ebBTXfOvN24A-kpBuDAa8Htix-Gl3J36jjERklhtPaH6bckUg8y7jyGr6GBJkdMZmvm6DJ97Xx_5e-CVgD4x1VRBSbiMtyOoHzedSPnu1PETY","width":4032}],"place_id":"ChIJEX2bb2fOHg0R2LBovwR_Eas","plus_code":{"compound_code":"PPX2+M2 Agualva-Cacém","global_code":"8CCGPPX2+M2"},"price_level":1,"rating":4,"reference":"ChIJEX2bb2fOHg0R2LBovwR_Eas","types":["restaurant","food","point_of_interest","establishment"],"user_ratings_total":423},{"business_status":"OPERATIONAL","formatted_address":"R. da Palma, 1100-341 Lisboa","geometry":{"location":{"lat":38.7167099,"lng":-9.136694},"viewport":{"northeast":{"lat":38.71811367989272,"lng":-9.135394220107278},"southwest":{"lat":38.71541402010727,"lng":-9.138093879892722}}},"icon":"https://maps.gstatic.com/mapfiles/place_api/icons/v1/png_71/restaurant-71.png","icon_background_color":"#FF9E67","icon_mask_base_uri":"https://maps.gstatic.com/mapfiles/place_api/icons/v2/restaurant_pinlet","name":"Hua Ta Li Chinese Restaurant","opening_hours":{"open_now":false},"photos":[{"height":3024,"html_attributions":["<a href=\"https://maps.google.com/maps/contrib/111208592954060350525\">Xiao Li</a>"],"photo_reference":"AeJbb3dZoC6aatgLnsV0jwluLgKK2akCGSWvWz7KOYrSLLoHA_ZucwfO9Yp3jkIO5DLMS_GaDr-x6UO5YgmpbJ04H4UeAeQmcS4CFUaEMc_jopTSVxrqy2JoctptuT9dzcbM1Rdva_7AnjJcsPNikiWLEz1NXriiZ-KtOgAcen4HtYq_PNSs","width":4032}],"place_id":"ChIJo7DvUIYzGQ0RnMQJJtqaq7U","plus_code":{"compound_code":"PV87+M8 Lisbon","global_code":"8CCGPV87+M8"},"price_level":2,"rating":4,"reference":"ChIJo7DvUIYzGQ0RnMQJJtqaq7U","types":["restaurant","liquor_store","store","food","point_of_interest","establishment"],"user_ratings_total":356},{"business_status":"OPERATIONAL","formatted_address":"R. Cmte. Germano Dias 8, 2780-247 Oeiras","geometry":{"location":{"lat":38.6948715,"lng":-9.308672999999999},"viewport":{"northeast":{"lat":38.69614557989272,"lng":-9.307356370107279},"southwest":{"lat":38.69344592010727,"lng":-9.310056029892722}}},"icon":"https://maps.gstatic.com/mapfiles/place_api/icons/v1/png_71/restaurant-71.png","icon_background_color":"#FF9E67","icon_mask_base_uri":"https://maps.gstatic.com/mapfiles/place_api/icons/v2/restaurant_pinlet","name":"Sucesso","opening_hours":{"open_now":false},"photos":[{"height":2304,"html_attributions":["<a href=\"https://maps.google.com/maps/contrib/108490540234763013890\">Claudio Morgado</a>"],"photo_reference":"AeJbb3fKqw5YwdC4jVUZIZkWXmm7ieCqOdOKrPIi4M0k9MVwhdU4bseLwjL8-pP8Q2z-1z-9Bi7fizaHdj2jTAfTiYsG8CanSqYVFKukjFOQAOCC5eZTJTh_1jUrKEeRCJ9wWX2Tcf462I6AtnrDlz1Z9lIjsmeiuRYfuLXqjrm9ZudrbZ9U","width":4608}],"place_id":"ChIJUXcd1jPJHg0RuwkID84nnf8","plus_code":{"compound_code":"MMVR+WG Oeiras","global_code":"8CCGMMVR+WG"},"price_level":1,"rating":4,"reference":"ChIJUXcd1jPJHg0RuwkID84nnf8","types":["meal_takeaway","restaurant","food","point_of_interest","establishment"],"user_ratings_total":207},{"business_status":"OPERATIONAL","formatted_address":"Praça Duque de Saldanha, 1050-094 Lisboa","geometry":{"location":{"lat":38.7331237,"lng":-9.1446424},"viewport":{"northeast":{"lat":38.73424797989271,"lng":-9.143129670107278},"southwest":{"lat":38.73154832010727,"lng":-9.145829329892722}}},"icon":"https://maps.gstatic.com/mapfiles/place_api/icons/v1/png_71/restaurant-71.png","icon_background_color":"#FF9E67","icon_mask_base_uri":"https://maps.gstatic.com/mapfiles/place_api/icons/v2/restaurant_pinlet","name":"Tun Fon","opening_hours":{"open_now":false},"photos":[{"height":3120,"html_attributions":["<a href=\"https://maps.google.com/maps/contrib/105799120846611427680\">Andrea Fernandez</a>"],"photo_reference":"AeJbb3f39h8k0mtW5UnMce7D--OJ79ttzHzyZ68tg9gyj1mioAeYK8u47OaMys-guayfgWaVv3n0Cs1_3RTc3NWmoQfLBVL3iVp3CVerOYUjzWgx11ck_A3x55mlX-ElXPUGm-PN_YPg3qwqsWx4E1AqVLSqX11jN8LRfJJZi1YTfz9a05pi","width":4160}],"place_id":"ChIJnc3t8Z8zGQ0RFapUP_lgLrQ","plus_code":{"compound_code":"PVM4+64 Lisbon","global_code":"8CCGPVM4+64"},"rating":4,"reference":"ChIJnc3t8Z8zGQ0RFapUP_lgLrQ","types":["restaurant","food","point_of_interest","establishment"],"user_ratings_total":45},{"business_status":"OPERATIONAL","formatted_address":"Calçada da Ajuda 20, 1300-598 Lisboa","geometry":{"location":{"lat":38.6980474,"lng":-9.1993292},"viewport":{"northeast":{"lat":38.69938847989271,"lng":-9.198048070107278},"southwest":{"lat":38.69668882010727,"lng":-9.200747729892722}}},"icon":"https://maps.gstatic.com/mapfiles/place_api/icons/v1/png_71/restaurant-71.png","icon_background_color":"#FF9E67","icon_mask_base_uri":"https://maps.gstatic.com/mapfiles/place_api/icons/v2/restaurant_pinlet","name":"Royal","opening_hours":{"open_now":false},"photos":[{"height":4128,"html_attributions":["<a href=\"https://maps.google.com/maps/contrib/110338921061221611942\">Маргарита Шарапова</a>"],"photo_reference":"AeJbb3eH2TLtcyZCw5cxHk2comtyQZfDm03LkJYRoo98ThokC9NM9oujJMRcb86fU7n06ixOrt2UrZvpQQppur9VkouLCUavb0jX0wUJolLlnaiBMslXf5H7hyxXIvywlIsVfMUWCXRYJTVm5AQB3ItSBn48pQdWhVwybrVlV5GXH5fErG-S","width":3096}],"place_id":"ChIJm1nj3k_LHg0RWOGgicJ80Dk","plus_code":{"compound_code":"MRX2+67 Lisbon","global_code":"8CCGMRX2+67"},"price_level":1,"rating":3.9,"reference":"ChIJm1nj3k_LHg0RWOGgicJ80Dk","types":["restaurant","food","point_of_interest","establishment"],"user_ratings_total":602},{"business_status":"OPERATIONAL","formatted_address":"1050 053, Av. Visc. de Valmor 59, Lisboa","geometry":{"location":{"lat":38.7376487,"lng":-9.149178299999999},"viewport":{"northeast":{"lat":38.73902132989272,"lng":-9.147834070107278},"southwest":{"lat":38.73632167010728,"lng":-9.150533729892722}}},"icon":"https://maps.gstatic.com/mapfiles/place_api/icons/v1/png_71/restaurant-71.png","icon_background_color":"#FF9E67","icon_mask_base_uri":"https://maps.gstatic.com/mapfiles/place_api/icons/v2/restaurant_pinlet","name":"Restaurante Chinês","opening_hours":{"open_now":false},"photos":[{"height":3024,"html_attributions":["<a href=\"https://maps.google.com/maps/contrib/118027294419923166470\">Steve Huang</a>"],"photo_reference":"AeJbb3fP1pFpZ6nHx7s3WgLQzx4S4v2wyKNwolBA6JuvEyO2FWIXzxpz0rgzwT_6uFf5YFRxApwLLhf-rv43MAaOIF81cEsNfTUNzV8zdXMshsxpwd6qZXiGtb5IsIy2JZfJDpKZyGmlPTz8HuneUTmHYO_qPGRLmylFXdQlJlKVQb_xbr3H","width":4032}],"place_id":"ChIJfTy6xQszGQ0RFuNSXHwVHzc","plus_code":{"compound_code":"PVQ2+28 Lisbon","global_code":"8CCGPVQ2+28"},"rating":3.9,"reference":"ChIJfTy6xQszGQ0RFuNSXHwVHzc","types":["restaurant","food","point_of_interest","establishment"],"user_ratings_total":9},{"business_status":"OPERATIONAL","formatted_address":"Escadinhas do Alto do Restelo 1, 1400-203 Lisboa","geometry":{"location":{"lat":38.7063889,"lng":-9.209166699999999},"viewport":{"northeast":{"lat":38.70787797989272,"lng":-9.207368920107276},"southwest":{"lat":38.70517832010728,"lng":-9.21006857989272}}},"icon":"https://maps.gstatic.com/mapfiles/place_api/icons/v1/png_71/restaurant-71.png","icon_background_color":"#FF9E67","icon_mask_base_uri":"https://maps.gstatic.com/mapfiles/place_api/icons/v2/restaurant_pinlet","name":"Chinjiang","opening_hours":{"open_now":false},"photos":[{"height":2268,"html_attributions":["<a href=\"https://maps.google.com/maps/contrib/105260304949390477947\">Samuel Vaz</a>"],"photo_reference":"AeJbb3cAfaIB4zH1aF3CaCmY_ugthecUOO_vg80xjb8ja3Vy23sCvGcY9t7hrhYdwe8q3iI_iRNSRb5PHa572o3liI3L5fCCllOfQ3jd8k7WXVltHzJQR3CyL1hbclP8VGUPqlYej7NvKAdxZbdlGQVDkja5IsT1arsO45UNacreDZiezKHg","width":4032}],"place_id":"ChIJXdxRCl_LHg0REJWA-pFIWOE","plus_code":{"compound_code":"PQ4R+H8 Lisbon","global_code":"8CCGPQ4R+H8"},"price_level":1,"rating":3.8,"reference":"ChIJXdxRCl_LHg0REJWA-pFIWOE","types":["restaurant","food","point_of_interest","establishment"],"user_ratings_total":218},{"business_status":"OPERATIONAL","formatted_address":"Av. Conde Castro Guimarães 24A, Amadora","geometry":{"location":{"lat":38.75373829999999,"lng":-9.2333579},"viewport":{"northeast":{"lat":38.75490627989272,"lng":-9.231979120107278},"southwest":{"lat":38.75220662010728,"lng":-9.234678779892722}}},"icon":"https://maps.gstatic.com/mapfiles/place_api/icons/v1/png_71/restaurant-71.png","icon_background_color":"#FF9E67","icon_mask_base_uri":"https://maps.gstatic.com/mapfiles/place_api/icons/v2/restaurant_pinlet","name":"Mandarim","opening_hours":{"open_now":false},"photos":[{"height":1280,"html_attributions":["<a href=\"https://maps.google.com/maps/contrib/110344285348215698603\">MAYER IBARRA</a>"],"photo_reference":"AeJbb3dfUM6mbdp6HCo2ha2DORPiIBGWf612UQN4EQmA32cxBflkEbOJEdlXtV6_4Ng41Qs38GkkV--HgCpe1mlwDe5h2LcHWQHqH6HQC02_C8MGRq9kJVwGrD9ApIhqBr2o93fzhtvcinoYQYgVPiBISYiFQHWw5vwFr70aIdSAEPTT8Upa","width":720}],"place_id":"ChIJM9ETXgfNHg0Rcqnc99CbPsg","plus_code":{"compound_code":"QQ38+FJ Amadora","global_code":"8CCGQQ38+FJ"},"price_level":1,"rating":3.6,"reference":"ChIJM9ETXgfNHg0Rcqnc99CbPsg","types":["restaurant","food","point_of_interest","establishment"],"user_ratings_total":484},{"business_status":"OPERATIONAL","formatted_address":"Alameda dos Oceanos 41 G, 1990-203 Lisboa","geometry":{"location":{"lat":38.7631635,"lng":-9.0967203},"viewport":{"northeast":{"lat":38.76441907989271,"lng":-9.095375870107276},"southwest":{"lat":38.76171942010727,"lng":-9.09807552989272}}},"icon":"https://maps.gstatic.com/mapfiles/place_api/icons/v1/png_71/restaurant-71.png","icon_background_color":"#FF9E67","icon_mask_base_uri":"https://maps.gstatic.com/mapfiles/place_api/icons/v2/restaurant_pinlet","name":"Restaurante Beijing","opening_hours":{"open_now":false},"photos":[{"height":3024,"html_attributions":["<a href=\"https://maps.google.com/maps/contrib/108258925545086634477\">ireksolicki</a>"],"photo_reference":"AeJbb3d3Nd70EiQC_Own_HP5PBkwJv-sZkgNxGxl32FRVSmbVORjRXDMM7FXYEsSM1LT6xAGGFJA4h7vIBJHt7FLNjImKk2dror1luEjxKC8kbgOsu3_XaPzgp7uGruvOqGLjq8KtSkqxX-53qIRnYZST1NE7Z8QWgGcLjmU1bibE-7sUuMy","width":4032}],"place_id":"ChIJq6_bUfQxGQ0RzgFfHn73XDk","plus_code":{"compound_code":"QW73+78 Lisbon","global_code":"8CCGQW73+78"},"rating":3.6,"reference":"ChIJq6_bUfQxGQ0RzgFfHn73XDk","types":["restaurant","food","point_of_interest","establishment"],"user_ratings_total":123}]