[{"business_status":"OPERATIONAL","formatted_address":"Komödiengasse 3, Zirkusgasse 9, 1020 Wien","geometry":{"location":{"lat":48.2150617,"lng":16.3831317},"viewport":{"northeast":{"lat":48.21637517989272,"lng":16.38434277989272},"southwest":{"lat":48.21367552010728,"lng":16.38164312010728}}},"icon":"https://maps.gstatic.com/mapfiles/place_api/icons/v1/png_71/restaurant-71.png","icon_background_color":"#FF9E67","icon_mask_base_uri":"https://maps.gstatic.com/mapfiles/place_api/icons/v2/restaurant_pinlet","name":"Kiss,the Cook Lunch & Cake","opening_hours":{"open_now":false},"photos":[{"height":3999,"html_attributions":["<a href=\"https://maps.google.com/maps/contrib/104133819261575483605\">A Google User</a>"],"photo_reference":"AeJbb3eHtsD-HIViIetU7xbHuIYVBMFFfqVHEtxziwmCi5LpRBr25Fqb9os7PMAAy7_3PibTHBBHt85unmLSJynAvgxqJo6TyGvcOmPvpxnnDdBSUUXlMGO5S3zTIvyQL0Wb_lP3aXsX6wDMSQmpJSHayhsDZY1oMHHPN0HpLO4uD314uDN0","width":3000}],"place_id":"ChIJjU-dXZYHbUcRUp7wH-2Ut5U","plus_code":{"compound_code":"698M+27 Vienna","global_code":"8FWR698M+27"},"rating":5,"reference":"ChIJjU-dXZYHbUcRUp7wH-2Ut5U","types":["restaurant","food","point_of_interest","establishment"],"user_ratings_total":86},{"business_status":"OPERATIONAL","formatted_address":"Wehlistraße 131-143/16/3, 1020 Wien","geometry":{"location":{"lat":48.22713,"lng":16.4018195},"viewport":{"northeast":{"lat":48.22845112989273,"lng":16.40311587989272},"southwest":{"lat":48.22575147010728,"lng":16.40041622010727}}},"icon":"https://maps.gstatic.com/mapfiles/place_api/icons/v1/png_71/generic_business-71.png","icon_background_color":"#7B9EB0","icon_mask_base_uri":"https://maps.gstatic.com/mapfiles/place_api/icons/v2/generic_pinlet","name":"JD Catering & Events KG","opening_hours":{"open_now":true},"photos":[{"height":2268,"html_attributions":["<a href=\"https://maps.google.com/maps/contrib/117319047143092893506\">A Google User</a>"],"photo_reference":"AeJbb3dfUpJv8A74J9wc0lsWv5_QI7h6Ehd-I1K6C_SE-Rls9uSvpH6XgWikS6fuwLIJwcJZtIhUAFDCE_YCGMCUoSUl299riV4fwOev81R2Yxje4m6DQLBf9gV1u2U7MEnbb_4ykQi7Wu1gpaOmYO0EZ2vj_XEbpauII_uaphstIsFHEz06","width":4032}],"place_id":"ChIJaYGkNVkHbUcR12n9dGNGWNI","plus_code":{"compound_code":"6CG2+VP Vienna","global_code":"8FWR6CG2+VP"},"rating":5,"reference":"ChIJaYGkNVkHbUcR12n9dGNGWNI","types":["restaurant","food","point_of_interest","establishment"],"user_ratings_total":4},{"business_status":"OPERATIONAL","formatted_address":"Gumpendorfer Str. 37, 1060 Wien","geometry":{"location":{"lat":48.1986188,"lng":16.3580765},"viewport":{"northeast":{"lat":48.20004687989272,"lng":16.35936407989272},"southwest":{"lat":48.19734722010728,"lng":16.35666442010728}}},"icon":"https://maps.gstatic.com/mapfiles/place_api/icons/v1/png_71/restaurant-71.png","icon_background_color":"#FF9E67","icon_mask_base_uri":"https://maps.gstatic.com/mapfiles/place_api/icons/v2/restaurant_pinlet","name":"Kias Kitchen","opening_hours":{"open_now":false},"photos":[{"height":1984,"html_attributions":["<a href=\"https://maps.google.com/maps/contrib/112047621586313694850\">A Google User</a>"],"photo_reference":"AeJbb3d3RT4GrE1GZ8wmAolTVVNMaQDcr2N4sVsyV5TDdRB0C7jZyxizRgAMdYccUT-ApD_A-903xQepMe-k5Hm_pPWC58PsaR2pQ0wQu_xzpxHBYMjDf4o-gT09hzvZIFviZhc183aaalDXQFXYbH8aItkA6pFF3cW2yiCWznUqh5gL2Amo","width":3967}],"place_id":"ChIJxTK3yZAHbUcRBuOU9xI8wYk","plus_code":{"compound_code":"59X5+C6 Vienna","global_code":"8FWR59X5+C6"},"rating":4.9,"reference":"ChIJxTK3yZAHbUcRBuOU9xI8wYk","types":["restaurant","food","point_of_interest","establishment"],"user_ratings_total":180},{"business_status":"CLOSED_TEMPORARILY","formatted_address":"Wiedner Hauptstraße 34, 1040 Wien","geometry":{"location":{"lat":48.1952653,"lng":16.3668686},"viewport":{"northeast":{"lat":48.19661652989272,"lng":16.36830412989272},"southwest":{"lat":48.19391687010727,"lng":16.36560447010728}}},"icon":"https://maps.gstatic.com/mapfiles/place_api/icons/v1/png_71/restaurant-71.png","icon_background_color":"#FF9E67","icon_mask_base_uri":"https://maps.gstatic.com/mapfiles/place_api/icons/v2/restaurant_pinlet","name":"Rio Gostoso","permanently_closed":true,"photos":[{"height":1960,"html_attributions":["<a href=\"https://maps.google.com/maps/contrib/101670914295211500423\">A Google User</a>"],"photo_reference":"AeJbb3d9GN4jY7Dln261DA9jhISb_-XVPbz4zfmYQugOkvw7m3bBU9ued1F06D_QVM2NJZDaMRbbu3iQw6STKoI2oDArAfpwTqECfwX27iaYIYXaC0Rkr53dvW6ZSnh5x0w9xfAQmF-jdNrJ6jmpxKuI8orup1SOArAn-UtLZkKc8FO0aoqK","width":4032}],"place_id":"ChIJmzpxeYEHbUcR4IfeH4OZH6A","plus_code":{"compound_code":"59W8+4P Vienna","global_code":"8FWR59W8+4P"},"rating":4.9,"reference":"ChIJmzpxeYEHbUcR4IfeH4OZH6A","types":["meal_takeaway","restaurant","food","point_of_interest","establishment"],"user_ratings_total":130},{"business_status":"OPERATIONAL","formatted_address":"Bischof Faber-Platz 8, 1180 Wien","geometry":{"location":{"lat":48.2347523,"lng":16.3239784},"viewport":{"northeast":{"lat":48.23608142989272,"lng":16.32539047989272},"southwest":{"lat":48.23338177010728,"lng":16.32269082010728}}},"icon":"https://maps.gstatic.com/mapfiles/place_api/icons/v1/png_71/restaurant-71.png","icon_background_color":"#FF9E67","icon_mask_base_uri":"https://maps.gstatic.com/mapfiles/place_api/icons/v2/restaurant_pinlet","name":"Das Faber","opening_hours":{"open_now":true},"place_id":"ChIJz_r11XEJbUcRLMRgy4XJpXU","plus_code":{"compound_code":"68MF+WH Vienna","global_code":"8FWR68MF+WH"},"rating":4.9,"reference":"ChIJz_r11XEJbUcRLMRgy4XJpXU","types":["restaurant","food","point_of_interest","establishment"],"user_ratings_total":53},{"business_status":"OPERATIONAL","formatted_address":"Wipplingerstraße 3, 1010 Wien","geometry":{"location":{"lat":48.2113746,"lng":16.3714024},"viewport":{"northeast":{"lat":48.21279267989271,"lng":16.37281707989272},"southwest":{"lat":48.21009302010727,"lng":16.37011742010727}}},"icon":"https://maps.gstatic.com/mapfiles/place_api/icons/v1/png_71/restaurant-71.png","icon_background_color":"#FF9E67","icon_mask_base_uri":"https://maps.gstatic.com/mapfiles/place_api/icons/v2/restaurant_pinlet","name":"Superfood Deli 1010","opening_hours":{"open_now":true},"photos":[{"height":3024,"html_attributions":["<a href=\"https://maps.google.com/maps/contrib/112500867183692287899\">A Google User</a>"],"photo_reference":"AeJbb3c1Xw2aLH7kngu6b6UECr0jZJh_52Y085elxuifkscH1AwPSU2FMZRrFIUHOvKmTOqLMYKEsYTtRBiyY-e3Pd-ToUBt7VRYF6v1UgylZ2wKXJZM5WtTeORSbj7Vbb87_Fzps1zyf1S1uxxhMlEj5tZHlOVDy4aQnsQ_3koXj5UgUusG","width":3024}],"place_id":"ChIJs7UKQSoHbUcRQjm1eb0rlPc","plus_code":{"compound_code":"696C+GH Vienna","global_code":"8FWR696C+GH"},"rating":4.9,"reference":"ChIJs7UKQSoHbUcRQjm1eb0rlPc","types":["restaurant","food","point_of_interest","establishment"],"user_ratings_total":31},{"business_status":"OPERATIONAL","formatted_address":"Linke Wienzeile 102, 1060 Wien","geometry":{"location":{"lat":48.1935733,"lng":16.353901},"viewport":{"northeast":{"lat":48.19491127989272,"lng":16.35526677989272},"southwest":{"lat":48.19221162010728,"lng":16.35256712010727}}},"icon":"https://maps.gstatic.com/mapfiles/place_api/icons/v1/png_71/restaurant-71.png","icon_background_color":"#FF9E67","icon_mask_base_uri":"https://maps.gstatic.com/mapfiles/place_api/icons/v2/restaurant_pinlet","name":"Villa Vida","opening_hours":{"open_now":true},"photos":[{"height":3024,"html_attributions":["<a href=\"https://maps.google.com/maps/contrib/110643697538295387546\">A Google User</a>"],"photo_reference":"AeJbb3dF0NB7o_JUtRFQpyCp3S8axhufRr5ydeZGzDQ3oDPQCtXVA1iTl0ygPJ1s2biT2MiUT0D4JI8xdoJCBmeygWBRU1FEyknqpic_4ZmXvx1Vfl-G8gFaBItUjvu1GxIBrIFkZNJ4clM29BFLX84Rq-Vq5tdc0PQSTTfAthX_B-FnWQgn","width":4032}],"place_id":"ChIJ0b9k3zMHbUcRf225agrfZus","plus_code":{"compound_code":"59V3+9H Vienna","global_code":"8FWR59V3+9H"},"rating":4.8,"reference":"ChIJ0b9k3zMHbUcRf225agrfZus","types":["restaurant","food","point_of_interest","establishment"],"user_ratings_total":109},{"business_status":"OPERATIONAL","formatted_address":"Obere Donaustraße 69, 1020 Wien","geometry":{"location":{"lat":48.2165468,"lng":16.3743669},"viewport":{"northeast":{"lat":48.21775177989272,"lng":16.37581242989272},"southwest":{"lat":48.21505212010728,"lng":16.37311277010728}}},"icon":"https://maps.gstatic.com/mapfiles/place_api/icons/v1/png_71/restaurant-71.png","icon_background_color":"#FF9E67","icon_mask_base_uri":"https://maps.gstatic.com/mapfiles/place_api/icons/v2/restaurant_pinlet","name":"Carioca","opening_hours":{"open_now":false},"photos":[{"height":4032,"html_attributions":["<a href=\"https://maps.google.com/maps/contrib/116975842909564995363\">A Google User</a>"],"photo_reference":"AeJbb3eovr--UlWsOzdgL7WhSDNztLma5WAj4G45aX5Hni5Dz4CWbsHfxKc0Imau4_euk3CEl4XkJGmMEd4XbeqP4KLmS3b46s24Qgu0VOXqDzI4MreOrJ1b2J2Cbe_m_dnCaQAB6C022335JInn4htCnN8XN2c9-cF6pu4wOq8R-D0vHDbP","width":3024}],"place_id":"ChIJ1Snlx8IHbUcR4VQEs8C3L1Q","plus_code":{"compound_code":"698F+JQ Vienna","global_code":"8FWR698F+JQ"},"rating":4.8,"reference":"ChIJ1Snlx8IHbUcR4VQEs8C3L1Q","types":["bar","restaurant","food","point_of_interest","establishment"],"user_ratings_total":96},{"business_status":"OPERATIONAL","formatted_address":"Landstraßer Gürtel 19, 1030 Wien","geometry":{"location":{"lat":48.1885166,"lng":16.3863026},"viewport":{"northeast":{"lat":48.18980767989272,"lng":16.38764197989272},"southwest":{"lat":48.18710802010727,"lng":16.38494232010728}}},"icon":"https://maps.gstatic.com/mapfiles/place_api/icons/v1/png_71/restaurant-71.png","icon_background_color":"#FF9E67","icon_mask_base_uri":"https://maps.gstatic.com/mapfiles/place_api/icons/v2/restaurant_pinlet","name":"Aguacate Latin Food","opening_hours":{"open_now":true},"photos":[{"height":1600,"html_attributions":["<a href=\"https://maps.google.com/maps/contrib/115699712716758955674\">Maria Claudia Naranjo</a>"],"photo_reference":"AeJbb3d7X40oymGvp83Byi7vj7N5_0KgWR7CrkUKEY6bPneg7bsw6RS6fN-3YVpn5k-vcFkEkfiEH2H-3eKTUpHML8ioJWawb0jN_B4UTloX0x-2nf45HBNE_ql442oxd5hDNYV3oXCXReffrLdGmrZd2ypDdaH2TpMrTbX357ymdVjNcFua","width":1233}],"place_id":"ChIJrUVG9pIHbUcR35sjZJW0gRM","plus_code":{"compound_code":"59QP+CG Vienna","global_code":"8FWR59QP+CG"},"price_level":1,"rating":4.7,"reference":"ChIJrUVG9pIHbUcR35sjZJW0gRM","types":["restaurant","food","point_of_interest","establishment"],"user_ratings_total":343},{"business_status":"OPERATIONAL","formatted_address":"Karmelitermarkt 33-36, 1020 Wien","geometry":{"location":{"lat":48.2172752,"lng":16.3770512},"viewport":{"northeast":{"lat":48.21867412989272,"lng":16.37867647989272},"southwest":{"lat":48.21597447010727,"lng":16.37597682010728}}},"icon":"https://maps.gstatic.com/mapfiles/place_api/icons/v1/png_71/restaurant-71.png","icon_background_color":"#FF9E67","icon_mask_base_uri":"https://maps.gstatic.com/mapfiles/place_api/icons/v2/restaurant_pinlet","name":"Kaas am Markt","opening_hours":{"open_now":true},"place_id":"ChIJkXlNY6YHbUcRn59RIUvsjnY","plus_code":{"compound_code":"698G+WR Vienna","global_code":"8FWR698G+WR"},"rating":4.7,"reference":"ChIJkXlNY6YHbUcRn59RIUvsjnY","types":["restaurant","store","food","point_of_interest","establishment"],"user_ratings_total":82},{"business_status":"OPERATIONAL","formatted_address":"Rochusplatz 1 Zugang, Erdbergstraße 4, 1030 Wien","geometry":{"location":{"lat":48.2026557,"lng":16.3915006},"viewport":{"northeast":{"lat":48.20396012989271,"lng":16.39285747989272},"southwest":{"lat":48.20126047010727,"lng":16.39015782010728}}},"icon":"https://maps.gstatic.com/mapfiles/place_api/icons/v1/png_71/restaurant-71.png","icon_background_color":"#FF9E67","icon_mask_base_uri":"https://maps.gstatic.com/mapfiles/place_api/icons/v2/restaurant_pinlet","name":"El Gaucho am Rochusmarkt","opening_hours":{"open_now":true},"photos":[{"height":4000,"html_attributions":["<a href=\"https://maps.google.com/maps/contrib/113545708570717844162\">A Google User</a>"],"photo_reference":"AeJbb3enTlN527rYdy8bD2MUm002IR6kR4KXW_jlH6IxkMOTejyczbsLzkm86AKGllew55SqySdxmjRVzfcxx3vnzXAscROis9_YDiQo34AMH6ADBW9TkhcD-Sfve-mz5uMXpZ_oI3tL3yRH-RAm1KUpx87Ajuo02F1WJyMJcyrw8A0J42yA","width":6000}],"place_id":"ChIJIxZwdW4HbUcR5E5mkfJrxto","plus_code":{"compound_code":"693R+3J Vienna","global_code":"8FWR693R+3J"},"price_level":3,"rating":4.6,"reference":"ChIJIxZwdW4HbUcR5E5mkfJrxto","types":["restaurant","food","point_of_interest","establishment"],"user_ratings_total":2131},{"business_status":"OPERATIONAL","formatted_address":"Breitenfurter Str. 235, 1230 Wien","geometry":{"location":{"lat":48.1544227,"lng":16.3024952},"viewport":{"northeast":{"lat":48.15586007989272,"lng":16.30366382989272},"southwest":{"lat":48.15316042010728,"lng":16.30096417010728}}},"icon":"https://maps.gstatic.com/mapfiles/place_api/icons/v1/png_71/shopping-71.png","icon_background_color":"#4B96F3","icon_mask_base_uri":"https://maps.gstatic.com/mapfiles/place_api/icons/v2/shoppingcart_pinlet","name":"Interspar","opening_hours":{"open_now":true},"place_id":"ChIJM1tZdRGpbUcR0qkWRxwqhcc","plus_code":{"compound_code":"5832+QX Vienna","global_code":"8FWR5832+QX"},"rating":4.6,"reference":"ChIJM1tZdRGpbUcR0qkWRxwqhcc","types":["supermarket","grocery_or_supermarket","restaurant","store","food","point_of_interest","establishment"],"user_ratings_total":740},{"business_status":"OPERATIONAL","formatted_address":"Wimbergergasse 5, 1070 Wien","geometry":{"location":{"lat":48.2028005,"lng":16.33828},"viewport":{"northeast":{"lat":48.20410092989272,"lng":16.33959297989272},"southwest":{"lat":48.20140127010728,"lng":16.33689332010728}}},"icon":"https://maps.gstatic.com/mapfiles/place_api/icons/v1/png_71/shopping-71.png","icon_background_color":"#4B96F3","icon_mask_base_uri":"https://maps.gstatic.com/mapfiles/place_api/icons/v2/shoppingcart_pinlet","name":"PROSI Exotic Supermarket","opening_hours":{"open_now":true},"photos":[{"height":3024,"html_attributions":["<a href=\"https://maps.google.com/maps/contrib/112505319731585329792\">Anil Kumar</a>"],"photo_reference":"AeJbb3dOwHh0dCBgz4TRJMyDiudJbtWQaCCuhlrA4LsGSC-EN19f5E47ofysFFbQmY2WGSbgNJn1u5WmmYj9kuJva6z2wrQ2asrgRnTpQXGbEJ_eSxGAqWznW34G-vEVta0IYGy-5I5RbpSmK3dU7EyltliYsD20msepS17etHbHZVpZu-TJ","width":4032}],"place_id":"ChIJucqfnPEHbUcRt2E7MAnBtVw","plus_code":{"compound_code":"683Q+48 Vienna","global_code":"8FWR683Q+48"},"rating":4.5,"reference":"ChIJucqfnPEHbUcRt2E7MAnBtVw","types":["grocery_or_supermarket","hair_care","store","restaurant","food","point_of_interest","establishment"],"user_ratings_total":2207},{"business_status":"OPERATIONAL","formatted_address":"Mühlgasse 20, 1040 Wien","geometry":{"location":{"lat":48.19765959999999,"lng":16.3641113},"viewport":{"northeast":{"lat":48.19894177989271,"lng":16.36554007989272},"southwest":{"lat":48.19624212010727,"lng":16.36284042010728}}},"icon":"https://maps.gstatic.com/mapfiles/place_api/icons/v1/png_71/restaurant-71.png","icon_background_color":"#FF9E67","icon_mask_base_uri":"https://maps.gstatic.com/mapfiles/place_api/icons/v2/restaurant_pinlet","name":"Lisboa Lounge Dine & Wine","opening_hours":{"open_now":false},"photos":[{"height":720,"html_attributions":["<a href=\"https://maps.google.com/maps/contrib/114581655838929176786\">A Google User</a>"],"photo_reference":"AeJbb3d8bnovWIKDQzTmaOg2r4Mp-hU-xQ0l9PQKThxvgQqmlYCoge771eS5wLvql3RJd7u15K5RVeiAIHcV00G2UeWn40IXOzPR_KOhfRYz2kUe8imLDbs7d2ihjtfOb5SNaipZHw0f3_bq-dGIyivMESCPaVJpOkykCn0kDY-akdw3NpDR","width":1800}],"place_id":"ChIJnTF7coQHbUcRdOuxD0KVQgY","plus_code":{"compound_code":"59X7+3J Vienna","global_code":"8FWR59X7+3J"},"price_level":2,"rating":4.5,"reference":"ChIJnTF7coQHbUcRdOuxD0KVQgY","types":["restaurant","food","point_of_interest","establishment"],"user_ratings_total":662},{"business_status":"OPERATIONAL","formatted_address":"Cobenzlgasse 5, 1190 Wien","geometry":{"location":{"lat":48.2574111,"lng":16.3385612},"viewport":{"northeast":{"lat":48.25879017989273,"lng":16.33994732989272},"southwest":{"lat":48.25609052010729,"lng":16.33724767010728}}},"icon":"https://maps.gstatic.com/mapfiles/place_api/icons/v1/png_71/restaurant-71.png","icon_background_color":"#FF9E67","icon_mask_base_uri":"https://maps.gstatic.com/mapfiles/place_api/icons/v2/restaurant_pinlet","name":"Restaurant Neuland","opening_hours":{"open_now":true},"photos":[{"height":2988,"html_attributions":["<a href=\"https://maps.google.com/maps/contrib/108783762328458024022\">Meïr Christian Zörnlaib</a>"],"photo_reference":"AeJbb3f7By_oAEiz6Zl23bk2kQLCtrlDp_aEcFTEYN6ouBe0RYFjv8DRRgf5fVuMrbb8uYJSXDNLRXkjI1f2V3TOomAy_n9486OttmYlc9ClfBU6-XgPvmJLg_IveYs3HWdWxwzShrwsaKyJAfWLTMrTGDJUVutPzzSlgk-9Xy-0gEhxdtFw","width":5312}],"place_id":"ChIJe8xX8qIIbUcRwDk_XQJurNM","plus_code":{"compound_code":"784Q+XC Vienna","global_code":"8FWR784Q+XC"},"price_level":2,"rating":4.5,"reference":"ChIJe8xX8qIIbUcRwDk_XQJurNM","types":["restaurant","food","point_of_interest","establishment"],"user_ratings_total":322},{"business_status":"OPERATIONAL","formatted_address":"Reichsratsstraße 11, 1010 Wien","geometry":{"location":{"lat":48.2126502,"lng":16.3584473},"viewport":{"northeast":{"lat":48.21397732989273,"lng":16.35999547989272},"southwest":{"lat":48.21127767010729,"lng":16.35729582010728}}},"icon":"https://maps.gstatic.com/mapfiles/place_api/icons/v1/png_71/restaurant-71.png","icon_background_color":"#FF9E67","icon_mask_base_uri":"https://maps.gstatic.com/mapfiles/place_api/icons/v2/restaurant_pinlet","name":"Michl’s Café Restaurant","opening_hours":{"open_now":false},"place_id":"ChIJt0swBb4HbUcRlOHH4nITdKI","plus_code":{"compound_code":"6975+39 Vienna","global_code":"8FWR6975+39"},"price_level":1,"rating":4.5,"reference":"ChIJt0swBb4HbUcRlOHH4nITdKI","types":["restaurant","cafe","food","point_of_interest","establishment"],"user_ratings_total":98},{"business_status":"OPERATIONAL","formatted_address":"Prinz Eugen-Straße 56, 1040 Wien","geometry":{"location":{"lat":48.1912925,"lng":16.3793691},"viewport":{"northeast":{"lat":48.19268427989272,"lng":16.38078387989272},"southwest":{"lat":48.18998462010727,"lng":16.37808422010728}}},"icon":"https://maps.gstatic.com/mapfiles/place_api/icons/v1/png_71/restaurant-71.png","icon_background_color":"#FF9E67","icon_mask_base_uri":"https://maps.gstatic.com/mapfiles/place_api/icons/v2/restaurant_pinlet","name":"Art Corner Restaurant","opening_hours":{"open_now":true},"photos":[{"height":1428,"html_attributions":["<a href=\"https://maps.google.com/maps/contrib/104210687261384858110\">A Google User</a>"],"photo_reference":"AeJbb3cdUjYKKx2pbb66Iywppl7D5bQccNQFWyM1PKlgb4vgRxdqaykYKVuL313X9LV7xKNnB0BtjGBs8iSqcujVB2zOSj_yS8LzGymB5J2SAa8HmYlSt-tSfSx8N0lmDbijFl6f1cra_EvmwIFSNoVDGuFg9qw_Uzme0sFwt_kvlUVA3o7i","width":2140}],"place_id":"ChIJ98asqn0HbUcRv4MbMnlJJNo","plus_code":{"compound_code":"59RH+GP Vienna","global_code":"8FWR59RH+GP"},"price_level":2,"rating":4.4,"reference":"ChIJ98asqn0HbUcRv4MbMnlJJNo","types":["restaurant","food","point_of_interest","establishment"],"user_ratings_total":1267},{"business_status":"OPERATIONAL","formatted_address":"Rechte Wienzeile 47, 1050 Wien","geometry":{"location":{"lat":48.1961875,"lng":16.3579737},"viewport":{"northeast":{"lat":48.19750977989272,"lng":16.35910712989272},"southwest":{"lat":48.19481012010728,"lng":16.35640747010728}}},"icon":"https://maps.gstatic.com/mapfiles/place_api/icons/v1/png_71/restaurant-71.png","icon_background_color":"#FF9E67","icon_mask_base_uri":"https://maps.gstatic.com/mapfiles/place_api/icons/v2/restaurant_pinlet","name":"Aming Dim Sum Profi","opening_hours":{"open_now":true},"place_id":"ChIJAdMEGoYHbUcRkzCHD1cC9Hg","plus_code":{"compound_code":"59W5+F5 Vienna","global_code":"8FWR59W5+F5"},"price_level":1,"rating":4.4,"reference":"ChIJAdMEGoYHbUcRkzCHD1cC9Hg","types":["restaurant","food","point_of_interest","establishment"],"user_ratings_total":485},{"business_status":"OPERATIONAL","formatted_address":"Wollzeile 25, 1010 Wien","geometry":{"location":{"lat":48.208278,"lng":16.376963},"viewport":{"northeast":{"lat":48.20958742989272,"lng":16.37829147989272},"southwest":{"lat":48.20688777010728,"lng":16.37559182010727}}},"icon":"https://maps.gstatic.com/mapfiles/place_api/icons/v1/png_71/shopping-71.png","icon_background_color":"#4B96F3","icon_mask_base_uri":"https://maps.gstatic.com/mapfiles/place_api/icons/v2/shopping_pinlet","name":"Reformhaus Staudigl","opening_hours":{"open_now":true},"place_id":"ChIJ776TwZ8HbUcRbZBeeMKtUEo","plus_code":{"compound_code":"695G+8Q Vienna","global_code":"8FWR695G+8Q"},"rating":4.4,"reference":"ChIJ776TwZ8HbUcRbZBeeMKtUEo","types":["beauty_salon","meal_takeaway","grocery_or_supermarket","spa","restaurant","store","health","food","point_of_interest","establishment"],"user_ratings_total":80},{"business_status":"OPERATIONAL","formatted_address":"1060 Vienna","geometry":{"location":{"lat":48.1984054,"lng":16.3631165},"viewport":{"northeast":{"lat":48.20137655,"lng":16.3692566},"southwest":{"lat":48.19548234999999,"lng":16.355791}}},"icon":"https://maps.gstatic.com/mapfiles/place_api/icons/v1/png_71/shopping-71.png","icon_background_color":"#4B96F3","icon_mask_base_uri":"https://maps.gstatic.com/mapfiles/place_api/icons/v2/shopping_pinlet","name":"Naschmarkt","opening_hours":{"open_now":true},"place_id":"ChIJLxUQCIYHbUcRFXbDgqpKW24","plus_code":{"compound_code":"59X7+96 Vienna","global_code":"8FWR59X7+96"},"price_level":2,"rating":4.3,"reference":"ChIJLxUQCIYHbUcRFXbDgqpKW24","types":["tourist_attraction","grocery_or_supermarket","restaurant","store","food","point_of_interest","establishment"],"user_ratings_total":45134},{"business_status":"OPERATIONAL","formatted_address":"Praterstraße 1, 1020 Wien","geometry":{"location":{"lat":48.2127326,"lng":16.379785},"viewport":{"northeast":{"lat":48.21402447989272,"lng":16.38115167989272},"southwest":{"lat":48.21132482010727,"lng":16.37845202010728}}},"icon":"https://maps.gstatic.com/mapfiles/place_api/icons/v1/png_71/restaurant-71.png","icon_background_color":"#FF9E67","icon_mask_base_uri":"https://maps.gstatic.com/mapfiles/place_api/icons/v2/restaurant_pinlet","name":"Das LOFT","opening_hours":{"open_now":true},"photos":[{"height":1836,"html_attributions":["<a href=\"https://maps.google.com/maps/contrib/116873487778111422722\">Madalina Alexa</a>"],"photo_reference":"AeJbb3ejzbUyEoofsgWUGaLqtmqzsH95ZS6xEBM1bh7YneEs5CAcT95To9uyqnsJOUw1-HbHm_KqeouSh3KoEOMorO5WArUhPaVG4gmPlug1GlnJL63voDc9MG4d3De3AUfWCeZp68KgK3NlbXas3qeUEKET5r2I2Pj6ENXFrtHrHq2YwRZA","width":3264}],"place_id":"ChIJ8edul6AHbUcR6faY3loHwaI","plus_code":{"compound_code":"697H+3W Vienna","global_code":"8FWR697H+3W"},"price_level":4,"rating":4.3,"reference":"ChIJ8edul6AHbUcR6faY3loHwaI","types":["restaurant","bar","food","point_of_interest","establishment"],"user_ratings_total":2762},{"business_status":"OPERATIONAL","formatted_address":"Favoritenstraße 56, 1040 Wien","geometry":{"location":{"lat":48.1889915,"lng":16.3724104},"viewport":{"northeast":{"lat":48.19035682989273,"lng":16.37384107989272},"southwest":{"lat":48.18765717010728,"lng":16.37114142010728}}},"icon":"https://maps.gstatic.com/mapfiles/place_api/icons/v1/png_71/restaurant-71.png","icon_background_color":"#FF9E67","icon_mask_base_uri":"https://maps.gstatic.com/mapfiles/place_api/icons/v2/restaurant_pinlet","name":"lima56","opening_hours":{"open_now":false},"photos":[{"height":3120,"html_attributions":["<a href=\"https://maps.google.com/maps/contrib/118313236676454132072\">A Google User</a>"],"photo_reference":"AeJbb3dmxfPt2YU74GAj3huV17qWP8WCzrzlDhaJU4vgvUkbAx-I8tNSMVgsTwPDvv63WdQlNaP26P0O24PUPBTgVWLv1qXjLHDQ37NxVKQ6YCrazNHrBJ07ALOBa6rLLwooJPlcKL_c-rZ1FUR_4Y7NQSptp0QmKLvfLedlPYfPMQ13zlu0","width":4160}],"place_id":"ChIJtwohk9WpbUcRoZZWd0y4LT0","plus_code":{"compound_code":"59QC+HX Vienna","global_code":"8FWR59QC+HX"},"price_level":2,"rating":4.3,"reference":"ChIJtwohk9WpbUcRoZZWd0y4LT0","types":["restaurant","food","point_of_interest","establishment"],"user_ratings_total":932},{"business_status":"OPERATIONAL","formatted_address":"Innstraße 16, 1020 Wien","geometry":{"location":{"lat":48.2317006,"lng":16.3900733},"viewport":{"northeast":{"lat":48.23313007989272,"lng":16.39143377989272},"southwest":{"lat":48.23043042010727,"lng":16.38873412010728}}},"icon":"https://maps.gstatic.com/mapfiles/place_api/icons/v1/png_71/restaurant-71.png","icon_background_color":"#FF9E67","icon_mask_base_uri":"https://maps.gstatic.com/mapfiles/place_api/icons/v2/restaurant_pinlet","name":"Gasthaus zur Alm","opening_hours":{"open_now":false},"photos":[{"height":2340,"html_attributions":["<a href=\"https://maps.google.com/maps/contrib/105312030616267800641\">Svetlana Dimitrijevic</a>"],"photo_reference":"AeJbb3fmDpbZhrCuEz0W1afJhBuMABLHXLim07h5ZL-6X19_ITgh-PTlTsXUHNdHzMFGsC39XlVmb6Ly4cqcwiy09ebF_gEjcca5Qy4ENLoTP0do5GPi35nX5R50ipf93G-zcosI6lk_UULVhTYNvHAkGReuSCjGUp_G3ab_ccIA0WI8URiP","width":4160}],"place_id":"ChIJSy9UuVUGbUcRJO-1T68GZlM","plus_code":{"compound_code":"69JR+M2 Vienna","global_code":"8FWR69JR+M2"},"price_level":1,"rating":4.3,"reference":"ChIJSy9UuVUGbUcRJO-1T68GZlM","types":["restaurant","food","point_of_interest","establishment"],"user_ratings_total":301},{"business_status":"OPERATIONAL","formatted_address":"Berggasse 30, 1090 Wien","geometry":{"location":{"lat":48.21889770000001,"lng":16.3654668},"viewport":{"northeast":{"lat":48.22030377989273,"lng":16.36680482989272},"southwest":{"lat":48.21760412010729,"lng":16.36410517010727}}},"icon":"https://maps.gstatic.com/mapfiles/place_api/icons/v1/png_71/restaurant-71.png","icon_background_color":"#FF9E67","icon_mask_base_uri":"https://maps.gstatic.com/mapfiles/place_api/icons/v2/restaurant_pinlet","name":"Acapulco","opening_hours":{"open_now":false},"photos":[{"height":3024,"html_attributions":["<a href=\"https://maps.google.com/maps/contrib/111133594030450877125\">A Google User</a>"],"photo_reference":"AeJbb3cVTxg_mACOdtvxomph1YfPPgwVzv15W21ph9nSPWohj0VU84QsCOiZStoutI-MxWxK75OkaCEdIsutZCs7gp9Hs5QNnaV-eJiL3UUi-PEdgTK8W3Vqis2bq9uUPYn4Sb2oH0k2kILHT28ne2VwlMyBTEmr77bzeYYaEMV_n0WfAitG","width":4032}],"place_id":"ChIJGyNTs7sHbUcRZU6Y15fTNgo","plus_code":{"compound_code":"6998+H5 Vienna","global_code":"8FWR6998+H5"},"price_level":2,"rating":4.3,"reference":"ChIJGyNTs7sHbUcRZU6Y15fTNgo","types":["restaurant","food","point_of_interest","establishment"],"user_ratings_total":177},{"business_status":"OPERATIONAL","formatted_address":"Naschmarkt Stand 217-219, 1060 Wien","geometry":{"location":{"lat":48.1992468,"lng":16.364503},"viewport":{"northeast":{"lat":48.20059662989271,"lng":16.36585282989272},"southwest":{"lat":48.19789697010727,"lng":16.36315317010728}}},"icon":"https://maps.gstatic.com/mapfiles/place_api/icons/v1/png_71/restaurant-71.png","icon_background_color":"#FF9E67","icon_mask_base_uri":"https://maps.gstatic.com/mapfiles/place_api/icons/v2/restaurant_pinlet","name":"Prime Argentinian Steakhouse","opening_hours":{"open_now":true},"photos":[{"height":1425,"html_attributions":["<a href=\"https://maps.google.com/maps/contrib/105062376266539920375\">A Google User</a>"],"photo_reference":"AeJbb3edpcd88yJ9GwtzwBWT_qYw2qyaufiB8tf1lBA8mSc1EqZFc679DheNumkQulj4aIDZDSbdJ-8FAlajWfW-G2vyRB5FDZYX8zhi9aUivqf8AEbdlZ5rn1Oku21F9upXEI6h1f4yfn_PzWJjbGwPoPDzqE0oLqQH51s-Utj9qb6jnh7C","width":1076}],"place_id":"ChIJla6ZE5gHbUcREC9L1MVET1M","plus_code":{"compound_code":"59X7+MR Vienna","global_code":"8FWR59X7+MR"},"rating":4.1,"reference":"ChIJla6ZE5gHbUcREC9L1MVET1M","types":["restaurant","food","point_of_interest","establishment"],"user_ratings_total":452},{"business_status":"CLOSED_TEMPORARILY","formatted_address":"Mariahilfer Str. 152/6, 1150 Wien","geometry":{"location":{"lat":48.1939039,"lng":16.3344796},"viewport":{"northeast":{"lat":48.19521772989272,"lng":16.33588162989272},"southwest":{"lat":48.19251807010728,"lng":16.33318197010728}}},"icon":"https://maps.gstatic.com/mapfiles/place_api/icons/v1/png_71/restaurant-71.png","icon_background_color":"#FF9E67","icon_mask_base_uri":"https://maps.gstatic.com/mapfiles/place_api/icons/v2/restaurant_pinlet","name":"Churrascaria","permanently_closed":true,"photos":[{"height":2448,"html_attributions":["<a href=\"https://maps.google.com/maps/contrib/114363349882926314581\">Walter Böck</a>"],"photo_reference":"AeJbb3d4xUJF3hLpLJnXGG1IGogSqIKM00Y9PZUSKToXBLcz4LubBGWTIJEj8pFZ1fmYaP-GjjmSBo_5fYcec5DJpiLXyCiCvWV7K24Q5NvPZLBtg7e3YHpS6GaF18hVAtooTwhsyzVqBJ3iWsHGxGZM4lDlkkeNm2N1BI7a8CEZzelWoOdq","width":3264}],"place_id":"ChIJnecNwZ0HbUcRUxvjx3mGDZU","plus_code":{"compound_code":"58VM+HQ Vienna","global_code":"8FWR58VM+HQ"},"rating":4.1,"reference":"ChIJnecNwZ0HbUcRUxvjx3mGDZU","types":["restaurant","food","point_of_interest","establishment"],"user_ratings_total":69},{"business_status":"OPERATIONAL","formatted_address":"Florianigasse 17, 1080 Wien","geometry":{"location":{"lat":48.2118505,"lng":16.3518544},"viewport":{"northeast":{"lat":48.21322052989272,"lng":16.35319867989272},"southwest":{"lat":48.21052087010727,"lng":16.35049902010728}}},"icon":"https://maps.gstatic.com/mapfiles/place_api/icons/v1/png_71/restaurant-71.png","icon_background_color":"#FF9E67","icon_mask_base_uri":"https://maps.gstatic.com/mapfiles/place_api/icons/v2/restaurant_pinlet","name":"Salonga Peruvian Restaurant Bar - Gallery","opening_hours":{"open_now":false},"photos":[{"height":2240,"html_attributions":["<a href=\"https://maps.google.com/maps/contrib/116650558589672884017\">Boris Villagarcía</a>"],"photo_reference":"AeJbb3ckB98OLSVf2buVWfTGpKZm7HIoQ_LM3augPc-0h1H5vDm3eJ1EBY1TyNMZk0huKyFD-1mvQkh2X1o3_Kfk6YDlP1B3wK-MweL03_MizEKUwxrmKuslu6iPKXe5XnsOUMAfMrPsJk5dPYSZXREA-xHmLyk_V7F5G2HsAP1cdQAjWdI3","width":4000}],"place_id":"ChIJZ2gvy-oHbUcRzGzcRlX5dLA","plus_code":{"compound_code":"6962+PP Vienna","global_code":"8FWR6962+PP"},"price_level":2,"rating":4,"reference":"ChIJZ2gvy-oHbUcRzGzcRlX5dLA","types":["restaurant","food","point_of_interest","establishment"],"user_ratings_total":97},{"business_status":"OPERATIONAL","formatted_address":"Arbeiterstrandbadstraße 122a, 1220 Wien","geometry":{"location":{"lat":48.2384607,"lng":16.4168229},"viewport":{"northeast":{"lat":48.2426592,"lng":16.42800925000001},"southwest":{"lat":48.23456040000001,"lng":16.40027625}}},"icon":"https://maps.gstatic.com/mapfiles/place_api/icons/v1/png_71/restaurant-71.png","icon_background_color":"#FF9E67","icon_mask_base_uri":"https://maps.gstatic.com/mapfiles/place_api/icons/v2/restaurant_pinlet","name":"Brunchhouse am Irissee","opening_hours":{"open_now":false},"place_id":"ChIJt_EXKWQHbUcRc24BhRTVNdw","plus_code":{"compound_code":"6CQ8+9P Vienna","global_code":"8FWR6CQ8+9P"},"rating":3.8,"reference":"ChIJt_EXKWQHbUcRc24BhRTVNdw","types":["restaurant","food","point_of_interest","establishment"],"user_ratings_total":198}]