[{"business_status":"OPERATIONAL","formatted_address":"C. Pablo Casals, 19, 50018 Zaragoza","geometry":{"location":{"lat":41.67215280000001,"lng":-0.8887263},"viewport":{"northeast":{"lat":41.67360387989272,"lng":-0.8869306201072777},"southwest":{"lat":41.67090422010727,"lng":-0.8896302798927223}}},"icon":"https://maps.gstatic.com/mapfiles/place_api/icons/v1/png_71/restaurant-71.png","icon_background_color":"#FF9E67","icon_mask_base_uri":"https://maps.gstatic.com/mapfiles/place_api/icons/v2/restaurant_pinlet","name":"Restaurante LA RUTA DE LA SEDA Un Bocado de Oriente a Occidente","opening_hours":{"open_now":false},"photos":[{"height":2592,"html_attributions":["<a href=\"https://maps.google.com/maps/contrib/101327776035745218172\">Alberto López</a>"],"photo_reference":"AeJbb3eJ25eyYFltMfYZXBMvvrD736QB87OLCa625hAW7XYucBXkxnX2KL9LwQZxsC5Kg-j52C0KG85K97clm2RaFywYpfzEEMGTyevso_TMkbI5aEI5xiTac1_Ph7-0X8eE6Vl2LYAR5zvu-eJl1s-zfeDSgQqEWoytUQVpLYp1WjDMvs75","width":4608}],"place_id":"ChIJ6W6ySZQVWQ0R43x3CX3n3hw","plus_code":{"compound_code":"M4C6+VG Zaragoza","global_code":"8CHXM4C6+VG"},"rating":4.8,"reference":"ChIJ6W6ySZQVWQ0R43x3CX3n3hw","types":["restaurant","food","point_of_interest","establishment"],"user_ratings_total":300},{"business_status":"OPERATIONAL","formatted_address":"C. del Dr. Horno Alcorta, 50004 Zaragoza","geometry":{"location":{"lat":41.6487688,"lng":-0.8909108},"viewport":{"northeast":{"lat":41.65012237989273,"lng":-0.8895377701072779},"southwest":{"lat":41.64742272010729,"lng":-0.8922374298927223}}},"icon":"https://maps.gstatic.com/mapfiles/place_api/icons/v1/png_71/restaurant-71.png","icon_background_color":"#FF9E67","icon_mask_base_uri":"https://maps.gstatic.com/mapfiles/place_api/icons/v2/restaurant_pinlet","name":"DUBAI DONER KEBAB","opening_hours":{"open_now":true},"photos":[{"height":4032,"html_attributions":["<a href=\"https://maps.google.com/maps/contrib/102368718672697213971\">Juan Dendarieta</a>"],"photo_reference":"AeJbb3dB4CQZ5_lJG6ShLov6PhCHcXYBR_ysVLF5cvCdmWNFGGjr-RFuoIka7KySApfvPbi--jZfC1hDVj0Shh7IpBtmhV6e_fr_-YjsAQ2DDiu0W-sBnVvwy9inRMW-608c-x9ZwO0GXlSszrBJSEHGCQzDe26ktACGWqnEI-4E0TkCAHHw","width":3024}],"place_id":"ChIJWQ2oC04VWQ0R_UaZW0HN_Xw","plus_code":{"compound_code":"J4X5+GJ Zaragoza","global_code":"8CHXJ4X5+GJ"},"price_level":1,"rating":4.8,"reference":"ChIJWQ2oC04VWQ0R_UaZW0HN_Xw","types":["restaurant","food","point_of_interest","establishment"],"user_ratings_total":166},{"business_status":"OPERATIONAL","formatted_address":"C. de los Hermanos Argensola, 8, 50001 Zaragoza","geometry":{"location":{"lat":41.65326280000001,"lng":-0.8765556},"viewport":{"northeast":{"lat":41.65460747989273,"lng":-0.8751918701072777},"southwest":{"lat":41.65190782010728,"lng":-0.8778915298927222}}},"icon":"https://maps.gstatic.com/mapfiles/place_api/icons/v1/png_71/restaurant-71.png","icon_background_color":"#FF9E67","icon_mask_base_uri":"https://maps.gstatic.com/mapfiles/place_api/icons/v2/restaurant_pinlet","name":"House of Medusa","opening_hours":{"open_now":false},"photos":[{"height":3264,"html_attributions":["<a href=\"https://maps.google.com/maps/contrib/105326887752464287614\">A Google User</a>"],"photo_reference":"AeJbb3edwQzwvg1T49Vga32zLhrhNke9VmXr38JRgf0ZzYSAB8WsjBvRWF8kspyIhvucFHqEwF-7NVU3aX0C22gct7uxeFd3mCUcKgUz1Z4eseYOWnwcGFh7BE7M8yC0pNYLB6Rz19jo9S9clgBjIrnCZ-3VvPjsqFY3KRf2I_t8vbAYsCmH","width":2448}],"place_id":"ChIJS8cXeKIVWQ0RkaH-CQN9_J8","plus_code":{"compound_code":"M43F+7C Zaragoza","global_code":"8CHXM43F+7C"},"rating":4.5,"reference":"ChIJS8cXeKIVWQ0RkaH-CQN9_J8","types":["restaurant","food","point_of_interest","establishment"],"user_ratings_total":187},{"business_status":"OPERATIONAL","formatted_address":"Av. del Tenor Fleta, 105, 50008 Zaragoza","geometry":{"location":{"lat":41.6373447,"lng":-0.8763343},"viewport":{"northeast":{"lat":41.63867947989272,"lng":-0.8749972701072778},"southwest":{"lat":41.63597982010727,"lng":-0.8776969298927222}}},"icon":"https://maps.gstatic.com/mapfiles/place_api/icons/v1/png_71/restaurant-71.png","icon_background_color":"#FF9E67","icon_mask_base_uri":"https://maps.gstatic.com/mapfiles/place_api/icons/v2/restaurant_pinlet","name":"Al-Baik Doner Kebab","opening_hours":{"open_now":true},"photos":[{"height":533,"html_attributions":["<a href=\"https://maps.google.com/maps/contrib/112993707021533199767\">Zulfiqar Ali</a>"],"photo_reference":"AeJbb3exDOo3RpZfujXQtPtL0oGbH51n9Dc0JyiDK55Lq5VsFSs4EPEuKtEpbD_QA1yuFrKVy1N32qe3lsb7I_A2Ng13MnBXe-s1Pzv8OD4sYNG61mlWu5f1RbSQFht-tRUXwY9kV-SXmdobF_Zxx6yVa-MWfw2qHHVH-cZBWPg63LV-pUQW","width":800}],"place_id":"ChIJk7dvgtUVWQ0RMDoxVjUSNLA","plus_code":{"compound_code":"J4PF+WF Zaragoza","global_code":"8CHXJ4PF+WF"},"rating":4.5,"reference":"ChIJk7dvgtUVWQ0RMDoxVjUSNLA","types":["restaurant","food","point_of_interest","establishment"],"user_ratings_total":2},{"business_status":"OPERATIONAL","formatted_address":"Luna De İstanbul, P.º de Calanda, 34, 50010 Zaragoza","geometry":{"location":{"lat":41.6517485,"lng":-0.9038767},"viewport":{"northeast":{"lat":41.65313037989272,"lng":-0.9024053201072779},"southwest":{"lat":41.65043072010728,"lng":-0.9051049798927222}}},"icon":"https://maps.gstatic.com/mapfiles/place_api/icons/v1/png_71/restaurant-71.png","icon_background_color":"#FF9E67","icon_mask_base_uri":"https://maps.gstatic.com/mapfiles/place_api/icons/v2/restaurant_pinlet","name":"Luna de İstanbul","opening_hours":{"open_now":true},"photos":[{"height":2448,"html_attributions":["<a href=\"https://maps.google.com/maps/contrib/101688032760683035654\">Luna de İstanbul</a>"],"photo_reference":"AeJbb3dlz2UVTB8Q1VbmT3MkxB3D1kPvsGe5Gdwkd-Ub3Y2nkUJ9sF352vON7X-ndGxipdK27HVHUWcCQODiMt44gQJ8XtI-_EaNBcwSuq2syhdrS6dudjzqMDFcEUkN-afUxS37ZXCLXNk37geQXQH8Fowtz1lfZPSZKfC40X7nPJ95zODJ","width":3264}],"place_id":"ChIJI1DMj8wUWQ0R4Qvj78Pj7xM","plus_code":{"compound_code":"M32W+PF Zaragoza","global_code":"8CHXM32W+PF"},"price_level":1,"rating":4.3,"reference":"ChIJI1DMj8wUWQ0R4Qvj78Pj7xM","types":["restaurant","food","point_of_interest","establishment"],"user_ratings_total":370},{"business_status":"OPERATIONAL","formatted_address":"C. de Santiago, 26, 50180 Utebo, Zaragoza","geometry":{"location":{"lat":41.7074829,"lng":-1.0003174},"viewport":{"northeast":{"lat":41.70880567989273,"lng":-0.9989961201072778},"southwest":{"lat":41.70610602010728,"lng":-1.001695779892722}}},"icon":"https://maps.gstatic.com/mapfiles/place_api/icons/v1/png_71/restaurant-71.png","icon_background_color":"#FF9E67","icon_mask_base_uri":"https://maps.gstatic.com/mapfiles/place_api/icons/v2/restaurant_pinlet","name":"Kebab Turco","opening_hours":{"open_now":false},"photos":[{"height":1080,"html_attributions":["<a href=\"https://maps.google.com/maps/contrib/105858122885071549775\">A Google User</a>"],"photo_reference":"AeJbb3dp7Ke68hRNh1fCyrzMdg3vZS9hD1nTdbOTfUzYNzM6ZNre_TYF7iayJo4BBSFw6elGK5uMditq1l2z1rz5JTh8ISwe5fWiHvdZR4fzpdWFWiKvtrjZa1YvpnThNt6zDiNqJJ67Bxl5nFm70PIhDlbPENOMywqNrIMmUEBJhOeLhhc5","width":1920}],"place_id":"ChIJDR73Q41uWQ0RCu1DeZ8YSXc","plus_code":{"compound_code":"PX4X+XV Utebo","global_code":"8CHWPX4X+XV"},"price_level":1,"rating":4.3,"reference":"ChIJDR73Q41uWQ0RCu1DeZ8YSXc","types":["restaurant","food","point_of_interest","establishment"],"user_ratings_total":146},{"business_status":"OPERATIONAL","formatted_address":"C. de Miguel Servet, 103, 50013 Zaragoza","geometry":{"location":{"lat":41.6406599,"lng":-0.8666821},"viewport":{"northeast":{"lat":41.64197402989272,"lng":-0.8654033201072778},"southwest":{"lat":41.63927437010727,"lng":-0.8681029798927223}}},"icon":"https://maps.gstatic.com/mapfiles/place_api/icons/v1/png_71/restaurant-71.png","icon_background_color":"#FF9E67","icon_mask_base_uri":"https://maps.gstatic.com/mapfiles/place_api/icons/v2/restaurant_pinlet","name":"turkuaz","opening_hours":{"open_now":true},"photos":[{"height":4618,"html_attributions":["<a href=\"https://maps.google.com/maps/contrib/104244853554039904041\">Juan Manuel Soriano</a>"],"photo_reference":"AeJbb3eDvvIHhr86kKcdRH_i9lUQNByk6z1Ysa2UeXtzhdKGENKxOHgfFQuGR-nub5Q--81CNYk_5BQr35q7e30YtbWgjYbgDyzTfOAgGpnzOHMTaQ_bctg48ly-WVDtLas9sgA8TN-XTlZJJS3Cip6McdUJhms6wnICFT7oKmETB73HDee-","width":3464}],"place_id":"ChIJQ62Dm1UUWQ0RzdEHpxjK_7M","plus_code":{"compound_code":"J4RM+78 Zaragoza","global_code":"8CHXJ4RM+78"},"price_level":1,"rating":4.3,"reference":"ChIJQ62Dm1UUWQ0RzdEHpxjK_7M","types":["restaurant","food","store","point_of_interest","establishment"],"user_ratings_total":117},{"business_status":"OPERATIONAL","formatted_address":"C. de Sobrarbe, 43, 50015 Zaragoza","geometry":{"location":{"lat":41.6600595,"lng":-0.8739701999999999},"viewport":{"northeast":{"lat":41.66137167989272,"lng":-0.8725694201072778},"southwest":{"lat":41.65867202010728,"lng":-0.8752690798927223}}},"icon":"https://maps.gstatic.com/mapfiles/place_api/icons/v1/png_71/restaurant-71.png","icon_background_color":"#FF9E67","icon_mask_base_uri":"https://maps.gstatic.com/mapfiles/place_api/icons/v2/restaurant_pinlet","name":"Sami Döner Kebab Arrabal","opening_hours":{"open_now":true},"photos":[{"height":607,"html_attributions":["<a href=\"https://maps.google.com/maps/contrib/106638934832554641043\">A Google User</a>"],"photo_reference":"AeJbb3et4DiwQeykQBg_OuhRcJ1CEwzsfVDXB1sLJLaXWFUMfHXFMR4HoIdQ_ZuI173I1diyIZd8cy-bqZht5kCkY5FYsM9C78vnbHKvRsKOaQOfhuGXiGgDNa_S4IZFggXwxUXtnYS4j1DdW2BqWKLPVH0YnhFCODmxOtQfcaYzx0HMg8s","width":1080}],"place_id":"ChIJ8ct-zMAVWQ0RYEpQ5NdgDDM","plus_code":{"compound_code":"M46G+2C Zaragoza","global_code":"8CHXM46G+2C"},"price_level":1,"rating":4.3,"reference":"ChIJ8ct-zMAVWQ0RYEpQ5NdgDDM","types":["restaurant","food","point_of_interest","establishment"],"user_ratings_total":87},{"business_status":"OPERATIONAL","formatted_address":"C. de la Reina Fabiola, 37, 50008 Zaragoza","geometry":{"location":{"lat":41.6442751,"lng":-0.8764109999999999},"viewport":{"northeast":{"lat":41.64569407989272,"lng":-0.8751177701072778},"southwest":{"lat":41.64299442010728,"lng":-0.8778174298927222}}},"icon":"https://maps.gstatic.com/mapfiles/place_api/icons/v1/png_71/restaurant-71.png","icon_background_color":"#FF9E67","icon_mask_base_uri":"https://maps.gstatic.com/mapfiles/place_api/icons/v2/restaurant_pinlet","name":"Luna de Estambul","opening_hours":{"open_now":true},"photos":[{"height":2668,"html_attributions":["<a href=\"https://maps.google.com/maps/contrib/117304332125414222315\">Jesus Oubińa Montańes</a>"],"photo_reference":"AeJbb3dJPFLX-aR8IqnH77kHakTwfDgqUiW8D02IuEmKf-SRGEYo3Y3Vd60fILU6VzHrSw4EabBqqxtwZ-MOJMu5T_grMzUXd7io3na-fd2KusJwnqdOGXse5NJcuNOE7PfqIMEbB6ni88z_bSBhUPbExLfNTOPAmfP5-HkkdOgr3HnIf7dR","width":4078}],"place_id":"ChIJoWhkdaYVWQ0RfszDz9VU0yA","plus_code":{"compound_code":"J4VF+PC Zaragoza","global_code":"8CHXJ4VF+PC"},"rating":4.3,"reference":"ChIJoWhkdaYVWQ0RfszDz9VU0yA","types":["restaurant","food","point_of_interest","establishment"],"user_ratings_total":35},{"business_status":"OPERATIONAL","formatted_address":"C. del Centro, 3, 50009 Zaragoza","geometry":{"location":{"lat":41.6321417,"lng":-0.9085425999999999},"viewport":{"northeast":{"lat":41.63349647989272,"lng":-0.9071960201072777},"southwest":{"lat":41.63079682010728,"lng":-0.9098956798927219}}},"icon":"https://maps.gstatic.com/mapfiles/place_api/icons/v1/png_71/restaurant-71.png","icon_background_color":"#FF9E67","icon_mask_base_uri":"https://maps.gstatic.com/mapfiles/place_api/icons/v2/restaurant_pinlet","name":"Casa blanca Kebab House","opening_hours":{"open_now":true},"photos":[{"height":4000,"html_attributions":["<a href=\"https://maps.google.com/maps/contrib/108939818866035639970\">A Google User</a>"],"photo_reference":"AeJbb3fJxJr9J0Q_4uvzM_J3a3uU6xVo2TWzUSKYBdN3uhNnjw948ezGp02Hq3z1qlNoN80nDkTBhxWE8wIT_bcQIa0c5WYZaEn51VSp5qq2eLGPyhtQmCJv8b-rFoYTJelk_QZHOpGPTCzEXt6DIbQX_wVISf8qr4ms-p-fTFw8mhzqnkrv","width":3000}],"place_id":"ChIJu4N167RrWQ0RP1eL2IfKg_c","plus_code":{"compound_code":"J3JR+VH Zaragoza","global_code":"8CHXJ3JR+VH"},"rating":4.3,"reference":"ChIJu4N167RrWQ0RP1eL2IfKg_c","types":["restaurant","food","point_of_interest","establishment"],"user_ratings_total":21},{"business_status":"OPERATIONAL","formatted_address":"C. Tenor Fleta, 12, 50430 María de Huerva, Zaragoza","geometry":{"location":{"lat":41.54182369999999,"lng":-0.9945751},"viewport":{"northeast":{"lat":41.54317097989271,"lng":-0.993287920107278},"southwest":{"lat":41.54047132010727,"lng":-0.9959875798927221}}},"icon":"https://maps.gstatic.com/mapfiles/place_api/icons/v1/png_71/restaurant-71.png","icon_background_color":"#FF9E67","icon_mask_base_uri":"https://maps.gstatic.com/mapfiles/place_api/icons/v2/restaurant_pinlet","name":"King Döner Kebab María de Huerva","opening_hours":{"open_now":false},"photos":[{"height":497,"html_attributions":["<a href=\"https://maps.google.com/maps/contrib/110667682026449762198\">Isidro Hernández Allen</a>"],"photo_reference":"AeJbb3cu3dQwAlvHL853uMmF7iD1kYC7yvg2eg7AnJ7O1_I1Id692zLE0N_nrqmJTVhPAF6XAXjTgSV8E9OpkjYvlsbwo5djVQ_CjVT9alp1w482Op433FhNMn6DnhQySWVF1F17twG7xi95CZkYUiTQj8wsrg59q4V2PqhDSM7GZycakbIL","width":750}],"place_id":"ChIJKR9hiMNDWQ0RCbMSkFZyvz4","plus_code":{"compound_code":"G2R4+P5 María de Huerva","global_code":"8CHXG2R4+P5"},"price_level":1,"rating":4.2,"reference":"ChIJKR9hiMNDWQ0RCbMSkFZyvz4","types":["restaurant","food","point_of_interest","establishment"],"user_ratings_total":197},{"business_status":"OPERATIONAL","formatted_address":"Av. San Juan de la Peña, 181, 50015 Zaragoza","geometry":{"location":{"lat":41.6760885,"lng":-0.8713941},"viewport":{"northeast":{"lat":41.67753102989272,"lng":-0.8699593201072778},"southwest":{"lat":41.67483137010728,"lng":-0.8726589798927222}}},"icon":"https://maps.gstatic.com/mapfiles/place_api/icons/v1/png_71/restaurant-71.png","icon_background_color":"#FF9E67","icon_mask_base_uri":"https://maps.gstatic.com/mapfiles/place_api/icons/v2/restaurant_pinlet","name":"Turco doner kebab","opening_hours":{"open_now":true},"photos":[{"height":3456,"html_attributions":["<a href=\"https://maps.google.com/maps/contrib/111047726671523183204\">sabarathinam srinivasan</a>"],"photo_reference":"AeJbb3cFAIReMU5PvrnVT_294MrrsOU_8MQ66Wg5iM8w5RJm0WDsJFZ6wFWaObxMg9F2r1A_QMbhlHzE7OXz05k8e0g1VWjuq76-lDxgJDY_n33H41SbZLrqcNMcPxkqGUBBubBxVopERhVYBJKAKzFizqdPpUWeRV9EQOpzjbKNc1YEJJJV","width":4608}],"place_id":"ChIJu5YPCYilUQ0RiKhx44COea0","plus_code":{"compound_code":"M4GH+CC Zaragoza","global_code":"8CHXM4GH+CC"},"price_level":1,"rating":4.2,"reference":"ChIJu5YPCYilUQ0RiKhx44COea0","types":["restaurant","food","point_of_interest","establishment"],"user_ratings_total":136},{"business_status":"OPERATIONAL","formatted_address":"C. de Mariano Barbasán, 5, 3, 50006 Zaragoza","geometry":{"location":{"lat":41.6429372,"lng":-0.8923449},"viewport":{"northeast":{"lat":41.64423122989272,"lng":-0.8909488201072777},"southwest":{"lat":41.64153157010728,"lng":-0.8936484798927222}}},"icon":"https://maps.gstatic.com/mapfiles/place_api/icons/v1/png_71/restaurant-71.png","icon_background_color":"#FF9E67","icon_mask_base_uri":"https://maps.gstatic.com/mapfiles/place_api/icons/v2/restaurant_pinlet","name":"Döner Kebab El Rincón de Asia","opening_hours":{"open_now":true},"photos":[{"height":4032,"html_attributions":["<a href=\"https://maps.google.com/maps/contrib/109537036292873518612\">azhar iqbal</a>"],"photo_reference":"AeJbb3fTAeF4S0SrcuWwBQFOlUkcrSBYpqUXdOz0jerVBNCeltGOkbbRNr6ytXLKOd5tuSYkeKrOvFeP4PfaiqyogFPr8pM3_U3Axki6ZCHV3Fdthy9ftKScEtkSEqvLQwOMDhiXhYA7qY_MZNpS_o8f3ura93VbOdDt57t6wkaWaM2GJy-u","width":3024}],"place_id":"ChIJrw5S2NkUWQ0Rev2eNVcyrdk","plus_code":{"compound_code":"J4V5+53 Zaragoza","global_code":"8CHXJ4V5+53"},"price_level":1,"rating":4.2,"reference":"ChIJrw5S2NkUWQ0Rev2eNVcyrdk","types":["restaurant","food","point_of_interest","establishment"],"user_ratings_total":118},{"business_status":"OPERATIONAL","formatted_address":"C. Tenor Fleta, 17, 50420 Cadrete, Zaragoza","geometry":{"location":{"lat":41.55588789999999,"lng":-0.9608477999999999},"viewport":{"northeast":{"lat":41.55725932989272,"lng":-0.9594728701072777},"southwest":{"lat":41.55455967010728,"lng":-0.962172529892722}}},"icon":"https://maps.gstatic.com/mapfiles/place_api/icons/v1/png_71/restaurant-71.png","icon_background_color":"#FF9E67","icon_mask_base_uri":"https://maps.gstatic.com/mapfiles/place_api/icons/v2/restaurant_pinlet","name":"DONER KEBAB ESTAMBUL","opening_hours":{"open_now":true},"photos":[{"height":744,"html_attributions":["<a href=\"https://maps.google.com/maps/contrib/116426335391611363253\">A Google User</a>"],"photo_reference":"AeJbb3f_rs67MPgW5kzD1paSoQEkllVW5UWAl8RCNbQOaTRpLncfAa8rDDRTp2ihvIFsmiRY-gEkUAs9y78g1V2iJjR8jEYov4z0NNJTFXvmp2fcFqmu8-bzAy0pjxbza3EDi6d0l8lHAOhDimKfq2b3aM2rStcJepbxcMEU_6PdQ0l942G6","width":1599}],"place_id":"ChIJuRhczLRBWQ0R8EjPqx5v6vE","plus_code":{"compound_code":"H24Q+9M Cadrete","global_code":"8CHXH24Q+9M"},"price_level":1,"rating":4.2,"reference":"ChIJuRhczLRBWQ0R8EjPqx5v6vE","types":["restaurant","food","point_of_interest","establishment"],"user_ratings_total":40},{"business_status":"OPERATIONAL","formatted_address":"Av. de San José, 153, 50007 Zaragoza","geometry":{"location":{"lat":41.6369412,"lng":-0.8775256},"viewport":{"northeast":{"lat":41.63831917989273,"lng":-0.8762153201072779},"southwest":{"lat":41.63561952010728,"lng":-0.8789149798927224}}},"icon":"https://maps.gstatic.com/mapfiles/place_api/icons/v1/png_71/restaurant-71.png","icon_background_color":"#FF9E67","icon_mask_base_uri":"https://maps.gstatic.com/mapfiles/place_api/icons/v2/restaurant_pinlet","name":"King Doner Kebab","opening_hours":{"open_now":true},"photos":[{"height":4608,"html_attributions":["<a href=\"https://maps.google.com/maps/contrib/105986570543639310818\">Patrik Starkmann</a>"],"photo_reference":"AeJbb3cy29l7gStN5f1Cy36b5TeX8gjj3E2SU2HKMO91vR0KE8HvgoPzpamyAq4UPyTkLpfNI5YKj9Oo131jH3LIMubWr1NLSAFDc6PZzpv5EJGppvQtmTsv_y8D-TGT7f2WbrFrea5q33g9mELPs6_IlQoHnbZvzQgBi-AKXLuKMYFdLGG5","width":3456}],"place_id":"ChIJtbb2AlEUWQ0RPM0JPzNzL78","plus_code":{"compound_code":"J4PC+QX Zaragoza","global_code":"8CHXJ4PC+QX"},"price_level":1,"rating":4.1,"reference":"ChIJtbb2AlEUWQ0RPM0JPzNzL78","types":["meal_delivery","restaurant","food","point_of_interest","establishment"],"user_ratings_total":408},{"business_status":"OPERATIONAL","formatted_address":"P.º de Fernando el Católico, 20, 50006 Zaragoza","geometry":{"location":{"lat":41.64271129999999,"lng":-0.8936002000000001},"viewport":{"northeast":{"lat":41.64405442989273,"lng":-0.8922377201072778},"southwest":{"lat":41.64135477010728,"lng":-0.8949373798927223}}},"icon":"https://maps.gstatic.com/mapfiles/place_api/icons/v1/png_71/restaurant-71.png","icon_background_color":"#FF9E67","icon_mask_base_uri":"https://maps.gstatic.com/mapfiles/place_api/icons/v2/restaurant_pinlet","name":"Turkuaz Istanbul","opening_hours":{"open_now":true},"photos":[{"height":3456,"html_attributions":["<a href=\"https://maps.google.com/maps/contrib/100924231796797889034\">viorel viorescu bratu</a>"],"photo_reference":"AeJbb3ejnOk9yuY990cH8qzxdRmuaSlmjbf7O6F-QOrzXBKFYgXOFxubUOrflOxcjU_KXN4kxWwgFefWq7ZyKNNldeNChoAlQIvivasLO-x0yh2xMwevkVL5RBp8QBlzecGpPUPoiBFq6N4-HGj5AOsfX4MgsPHhY-WGtywjx9x-SD9iIlQU","width":4608}],"place_id":"ChIJq6om1dsUWQ0RkTApKMdTleE","plus_code":{"compound_code":"J4V4+4G Zaragoza","global_code":"8CHXJ4V4+4G"},"price_level":1,"rating":4.1,"reference":"ChIJq6om1dsUWQ0RkTApKMdTleE","types":["restaurant","food","point_of_interest","establishment"],"user_ratings_total":290},{"business_status":"OPERATIONAL","formatted_address":"C. Gómez Acebo D.Juan, 69, 50830 Villanueva de Gállego, Zaragoza","geometry":{"location":{"lat":41.76668660000001,"lng":-0.8253368000000001},"viewport":{"northeast":{"lat":41.76806552989272,"lng":-0.8240812701072777},"southwest":{"lat":41.76536587010727,"lng":-0.8267809298927221}}},"icon":"https://maps.gstatic.com/mapfiles/place_api/icons/v1/png_71/restaurant-71.png","icon_background_color":"#FF9E67","icon_mask_base_uri":"https://maps.gstatic.com/mapfiles/place_api/icons/v2/restaurant_pinlet","name":"Doner Kebab Istambul","opening_hours":{"open_now":true},"photos":[{"height":3024,"html_attributions":["<a href=\"https://maps.google.com/maps/contrib/113370371757877892573\">A Google User</a>"],"photo_reference":"AeJbb3ez5tZZfss0FcoQPnsuhyu2tWT5RjdSWNf6HFLdZs-arYHA_q3XCFNFvOy4_6c-yASq5njLM-2WqaAcpddofPHLQIIeAjZeZHQx5jB6inZmLC-HUfTRqYBjwFkB801iteWI8aEYyzssseo0EqgL0ENRfb1qumR1pE-Ujv5sijL2asRj","width":4032}],"place_id":"ChIJHXHcn0YPWQ0RMZY3CDUgppE","plus_code":{"compound_code":"Q58F+MR Villanueva de Gállego","global_code":"8CHXQ58F+MR"},"price_level":1,"rating":4.1,"reference":"ChIJHXHcn0YPWQ0RMZY3CDUgppE","types":["restaurant","food","point_of_interest","establishment"],"user_ratings_total":50},{"business_status":"OPERATIONAL","formatted_address":"C. de Zaragoza la Vieja, 25, 50007 Zaragoza","geometry":{"location":{"lat":41.6337127,"lng":-0.8753280999999999},"viewport":{"northeast":{"lat":41.63505612989272,"lng":-0.8739413701072777},"southwest":{"lat":41.63235647010728,"lng":-0.8766410298927222}}},"icon":"https://maps.gstatic.com/mapfiles/place_api/icons/v1/png_71/restaurant-71.png","icon_background_color":"#FF9E67","icon_mask_base_uri":"https://maps.gstatic.com/mapfiles/place_api/icons/v2/restaurant_pinlet","name":"Ankara Turco Döner Kebab","opening_hours":{"open_now":true},"photos":[{"height":3000,"html_attributions":["<a href=\"https://maps.google.com/maps/contrib/106669461568196195567\">Juan Antonio</a>"],"photo_reference":"AeJbb3ckVs7QhODuCx-WrqiMK7t-ybt1QirhtCNEJlneyuyCA3-z1gr58KX8uGDszySZtVRBktJO4Df2iis3JzTCnKA_dYdARMUHpMLbwzIqtS4T8VXA-emD27q69lviEGLK4uph6ULs4vLz1XkXHbuo8H75HN5jBirkFJIs4ZhKSdRoQysv","width":4000}],"place_id":"ChIJWQx7bQMVWQ0RY4QMHrXr5Wo","plus_code":{"compound_code":"J4MF+FW Zaragoza","global_code":"8CHXJ4MF+FW"},"rating":4.1,"reference":"ChIJWQx7bQMVWQ0RY4QMHrXr5Wo","types":["restaurant","food","point_of_interest","establishment"],"user_ratings_total":40},{"business_status":"OPERATIONAL","formatted_address":"C. de Sobrarbe, 7, 50015 Zaragoza","geometry":{"location":{"lat":41.6587632,"lng":-0.8745126999999999},"viewport":{"northeast":{"lat":41.66009662989272,"lng":-0.8730939701072776},"southwest":{"lat":41.65739697010727,"lng":-0.8757936298927221}}},"icon":"https://maps.gstatic.com/mapfiles/place_api/icons/v1/png_71/restaurant-71.png","icon_background_color":"#FF9E67","icon_mask_base_uri":"https://maps.gstatic.com/mapfiles/place_api/icons/v2/restaurant_pinlet","name":"King Doner Kebab Arrabal","opening_hours":{"open_now":true},"photos":[{"height":1868,"html_attributions":["<a href=\"https://maps.google.com/maps/contrib/115054914505073739492\">sanaullah sanaullah</a>"],"photo_reference":"AeJbb3fxD3rjj15jVFiYXkSaIj9NJTF5fKVmgJJPbzWC81pv5sPYE4J0D-cNBir3bREeHv5BAw3NSg8-36BqYfEwwo6PB0NCyDcfKZEfn2QWpX0_eCLVQBsGcPyuQ2o0yR4zGE40cM3F-eJmTAMJiO--AIw00yazHXF0AKG2I6Fs2PVTc2On","width":4000}],"place_id":"ChIJl4fi3owUWQ0Rxbxz6fEkCGE","plus_code":{"compound_code":"M45G+G5 Zaragoza","global_code":"8CHXM45G+G5"},"price_level":1,"rating":4,"reference":"ChIJl4fi3owUWQ0Rxbxz6fEkCGE","types":["meal_delivery","restaurant","food","point_of_interest","establishment"],"user_ratings_total":173},{"business_status":"OPERATIONAL","formatted_address":"C. de Alicante, 14, 50007 Zaragoza","geometry":{"location":{"lat":41.631659,"lng":-0.8863019999999999},"viewport":{"northeast":{"lat":41.63296677989272,"lng":-0.8849918701072779},"southwest":{"lat":41.63026712010727,"lng":-0.8876915298927224}}},"icon":"https://maps.gstatic.com/mapfiles/place_api/icons/v1/png_71/restaurant-71.png","icon_background_color":"#FF9E67","icon_mask_base_uri":"https://maps.gstatic.com/mapfiles/place_api/icons/v2/restaurant_pinlet","name":"Turco Döner Kebab","opening_hours":{"open_now":true},"photos":[{"height":2448,"html_attributions":["<a href=\"https://maps.google.com/maps/contrib/111678116788265134292\">Jesús Hernández Castillo</a>"],"photo_reference":"AeJbb3dQaPNnWJldf0fUzYUu80h28UjJzLv82UfQmdHLONUEybz7LvrojlOqK09nd7d56TxYEvaLurx7TYVSIRv2-_BkcU-kokkvItnid73zlrbtrDXC6VcsvCZCZyd5iCAYhZXUejG96WuOig9riUWtHI9DkER1QvhbkxUzSWSLpYT4WQzu","width":3264}],"place_id":"ChIJM4NjoRgVWQ0RGzmnwGdHWZY","plus_code":{"compound_code":"J4J7+MF Zaragoza","global_code":"8CHXJ4J7+MF"},"price_level":1,"rating":4,"reference":"ChIJM4NjoRgVWQ0RGzmnwGdHWZY","types":["meal_delivery","meal_takeaway","restaurant","food","point_of_interest","establishment"],"user_ratings_total":107},{"business_status":"OPERATIONAL","formatted_address":"C. del Conde de Aranda, 37, 50003 Zaragoza","geometry":{"location":{"lat":41.654953,"lng":-0.8879319},"viewport":{"northeast":{"lat":41.65632192989272,"lng":-0.8865745201072777},"southwest":{"lat":41.65362227010728,"lng":-0.8892741798927222}}},"icon":"https://maps.gstatic.com/mapfiles/place_api/icons/v1/png_71/restaurant-71.png","icon_background_color":"#FF9E67","icon_mask_base_uri":"https://maps.gstatic.com/mapfiles/place_api/icons/v2/restaurant_pinlet","name":"Turco Doner Kebab","opening_hours":{"open_now":true},"photos":[{"height":1080,"html_attributions":["<a href=\"https://maps.google.com/maps/contrib/111678116788265134292\">Jesús Hernández Castillo</a>"],"photo_reference":"AeJbb3eIL2fFksFpeJiVVTsGdEyVjbCwtGPcuSVjnn80BCCGrZBK09kbZVsIIDe-gzp4ILaDY41DwbX7_EDFr-MEm85JSA948-D02lOvkMQINR3l3Qwp1wJCvfw4jML4gQQbnOQHV2XYX6ZUOOM452vVXIne5HllhErbsNERwDdVz02nHl3d","width":1920}],"place_id":"ChIJ_R5StMEUWQ0Rkgl3UC3up9o","plus_code":{"compound_code":"M436+XR Zaragoza","global_code":"8CHXM436+XR"},"price_level":1,"rating":4,"reference":"ChIJ_R5StMEUWQ0Rkgl3UC3up9o","types":["restaurant","food","point_of_interest","establishment"],"user_ratings_total":91},{"business_status":"OPERATIONAL","formatted_address":"C. de Asín y Palacios, 11, 50009 Zaragoza","geometry":{"location":{"lat":41.6373428,"lng":-0.9041843999999999},"viewport":{"northeast":{"lat":41.63864737989272,"lng":-0.9029311201072778},"southwest":{"lat":41.63594772010727,"lng":-0.9056307798927221}}},"icon":"https://maps.gstatic.com/mapfiles/place_api/icons/v1/png_71/restaurant-71.png","icon_background_color":"#FF9E67","icon_mask_base_uri":"https://maps.gstatic.com/mapfiles/place_api/icons/v2/restaurant_pinlet","name":"Kebab Doner Asia","opening_hours":{"open_now":true},"photos":[{"height":4032,"html_attributions":["<a href=\"https://maps.google.com/maps/contrib/108329237199190429224\">Jesus C</a>"],"photo_reference":"AeJbb3e2pgUYDe4wVxsAdOoN6ktADqSWN3B8WxU4ugnnuIoktRNlZIjSiiQSBI5w71uUOQ2EK-9WzqKzB67_Tqtsuj_W0gRv1Q_xm5vfUAP_15J8I2W-9T3IlCT8q_4CDwurrCkapDEWJwgtf5qz3JcgYZUpuQRp915aYgolpmm44GIrkfyA","width":3024}],"place_id":"ChIJ3-yXLbwVWQ0RaAB4-r5mc1I","plus_code":{"compound_code":"J3PW+W8 Zaragoza","global_code":"8CHXJ3PW+W8"},"rating":4,"reference":"ChIJ3-yXLbwVWQ0RaAB4-r5mc1I","types":["restaurant","food","point_of_interest","establishment"],"user_ratings_total":2},{"business_status":"OPERATIONAL","formatted_address":"P.º de Fernando el Católico, 27, 50006 Zaragoza","geometry":{"location":{"lat":41.6421599,"lng":-0.8934643999999999},"viewport":{"northeast":{"lat":41.64354967989272,"lng":-0.8921341201072777},"southwest":{"lat":41.64085002010728,"lng":-0.8948337798927221}}},"icon":"https://maps.gstatic.com/mapfiles/place_api/icons/v1/png_71/restaurant-71.png","icon_background_color":"#FF9E67","icon_mask_base_uri":"https://maps.gstatic.com/mapfiles/place_api/icons/v2/restaurant_pinlet","name":"King Döner Kebab Asia","opening_hours":{"open_now":true},"photos":[{"height":3088,"html_attributions":["<a href=\"https://maps.google.com/maps/contrib/114471893107611351477\">Tom Wood</a>"],"photo_reference":"AeJbb3dEDLhpA2gDxhGBNZkC2nQeQb3jWbm8h07JRHjrudOv5uOdj9-YVpQkoBOqCSkuf0N5esHp9gd91VTEKjSCZ8hMB9l-LRmDlWV85cLKJyQb_hB99RSAiJvHF8W8TRzI5Fv9QSiGvAkhFRfmTEr6JQ9IrbIFqM-QzbpDqLHx7gJQ_ACF","width":4160}],"place_id":"ChIJ0yrDe9kUWQ0R3D27Xfcvja8","plus_code":{"compound_code":"J4R4+VJ Zaragoza","global_code":"8CHXJ4R4+VJ"},"price_level":1,"rating":3.9,"reference":"ChIJ0yrDe9kUWQ0R3D27Xfcvja8","types":["restaurant","food","point_of_interest","establishment"],"user_ratings_total":300},{"business_status":"OPERATIONAL","formatted_address":"C. del Dr. Iranzo, 49, 50002 Zaragoza","geometry":{"location":{"lat":41.6466072,"lng":-0.8641637999999999},"viewport":{"northeast":{"lat":41.64806282989272,"lng":-0.8630128201072778},"southwest":{"lat":41.64536317010728,"lng":-0.8657124798927222}}},"icon":"https://maps.gstatic.com/mapfiles/place_api/icons/v1/png_71/restaurant-71.png","icon_background_color":"#FF9E67","icon_mask_base_uri":"https://maps.gstatic.com/mapfiles/place_api/icons/v2/restaurant_pinlet","name":"Ankara turco doner kebab","opening_hours":{"open_now":true},"photos":[{"height":2340,"html_attributions":["<a href=\"https://maps.google.com/maps/contrib/101658921514521091323\">Santiago Ezquerro Cordón</a>"],"photo_reference":"AeJbb3c5sAW2iRFNRoEjtJy0mwXlEuAZHRRt03AB1lCrZsE58YdTEAuAHdHz7SikzEvlVqqX-O81VzjGYco8vOH8Sx90yX2dhYUkMqSfvG1KeHwbvw4ZFBsdaF48syWOqKQrnCCziRdekIw-Qx_Eqb-zbUp54z44HViRkhuI0oZn1tXCPeEd","width":4160}],"place_id":"ChIJU4PIFFcUWQ0RkpwiCj9M9SA","plus_code":{"compound_code":"J4WP+J8 Zaragoza","global_code":"8CHXJ4WP+J8"},"price_level":1,"rating":3.9,"reference":"ChIJU4PIFFcUWQ0RkpwiCj9M9SA","types":["restaurant","food","point_of_interest","establishment"],"user_ratings_total":135},{"business_status":"OPERATIONAL","formatted_address":"C. de Federico Ozanam, 11, 50012 Zaragoza","geometry":{"location":{"lat":41.6398479,"lng":-0.9314731999999999},"viewport":{"northeast":{"lat":41.64123337989273,"lng":-0.9301001701072779},"southwest":{"lat":41.63853372010728,"lng":-0.9327998298927221}}},"icon":"https://maps.gstatic.com/mapfiles/place_api/icons/v1/png_71/restaurant-71.png","icon_background_color":"#FF9E67","icon_mask_base_uri":"https://maps.gstatic.com/mapfiles/place_api/icons/v2/restaurant_pinlet","name":"King Döner asia valdefierro","opening_hours":{"open_now":true},"photos":[{"height":1200,"html_attributions":["<a href=\"https://maps.google.com/maps/contrib/116428850366734762115\">A Google User</a>"],"photo_reference":"AeJbb3dD8iL-rKbYAT6anjuBM8WlYPX8HqBGlDreUZ5HRbSQNhR5y2DqOpLALUaKP3S88Z7vSi1QbqSCU9oNC-zbisywxVntq-R9aXBiLrcvQplgbdPG3-Lg3gq5ZHJo48KQ-58NtImfzVPn3aywu1HxsPliYoto6jaNVHcOLDQCmkbUoNq1","width":1600}],"place_id":"ChIJlX_eUhxrWQ0Rbf7x7qpsRZg","plus_code":{"compound_code":"J3Q9+WC Zaragoza","global_code":"8CHXJ3Q9+WC"},"price_level":1,"rating":3.9,"reference":"ChIJlX_eUhxrWQ0Rbf7x7qpsRZg","types":["restaurant","food","point_of_interest","establishment"],"user_ratings_total":110},{"business_status":"OPERATIONAL","formatted_address":"Av. de Madrid, 71, 50010 Zaragoza","geometry":{"location":{"lat":41.6549214,"lng":-0.8984662},"viewport":{"northeast":{"lat":41.65632512989271,"lng":-0.8971246201072779},"southwest":{"lat":41.65362547010727,"lng":-0.8998242798927222}}},"icon":"https://maps.gstatic.com/mapfiles/place_api/icons/v1/png_71/restaurant-71.png","icon_background_color":"#FF9E67","icon_mask_base_uri":"https://maps.gstatic.com/mapfiles/place_api/icons/v2/restaurant_pinlet","name":"El Maño Kebab","opening_hours":{"open_now":true},"photos":[{"height":3456,"html_attributions":["<a href=\"https://maps.google.com/maps/contrib/103571433555021173791\">Gonzalo Royo</a>"],"photo_reference":"AeJbb3c-vAehnP8mbcJo3VVgJDamHAVx0jEzRuMcqPNnE7BsoVF36e_eOs74_J2svzbv7I7irMC_Iv0Ox6sNfwyZF7V9_5uSreoE2i1BaZzPAQzcTBDqhSQkAvcgQGb1ixYfNLIYsU3QB1mXM2npdhKbIdefCkJ3KGt3kHA4UTz-r6d12HA8","width":6144}],"place_id":"ChIJ6Uwx_sgUWQ0RfHsv_ux6gzc","plus_code":{"compound_code":"M432+XJ Zaragoza","global_code":"8CHXM432+XJ"},"price_level":1,"rating":3.8,"reference":"ChIJ6Uwx_sgUWQ0RfHsv_ux6gzc","types":["meal_delivery","meal_takeaway","restaurant","food","point_of_interest","establishment"],"user_ratings_total":287},{"business_status":"OPERATIONAL","formatted_address":"C. de María Zayas Sotomayor, 14, 50018 Zaragoza","geometry":{"location":{"lat":41.667809,"lng":-0.8914451999999999},"viewport":{"northeast":{"lat":41.66910702989272,"lng":-0.8901785701072777},"southwest":{"lat":41.66640737010727,"lng":-0.8928782298927223}}},"icon":"https://maps.gstatic.com/mapfiles/place_api/icons/v1/png_71/restaurant-71.png","icon_background_color":"#FF9E67","icon_mask_base_uri":"https://maps.gstatic.com/mapfiles/place_api/icons/v2/restaurant_pinlet","name":"King Döner Kebab Asia","opening_hours":{"open_now":true},"photos":[{"height":3120,"html_attributions":["<a href=\"https://maps.google.com/maps/contrib/104747363177417233014\">Subtain Ali VLOGS</a>"],"photo_reference":"AeJbb3dMQPEDIh0LFVKzxmmJVo9NTZzisE3buKHbVW2axoQ96wBs-sBucEN228eUSITXdmWpEhEucWuLRT0Fjkwn1LDMG3r1euWqgqJBHwF31xCH6kXAF8_c5lA-6JGpKsCeWnj3gtsIt9f-Z5kCVa-fgEf1heZ3xvCp5BA0a4LKzzh5vpCV","width":4160}],"place_id":"ChIJRdlNqqQUWQ0R-h6ylQYbadU","plus_code":{"compound_code":"M495+4C Zaragoza","global_code":"8CHXM495+4C"},"price_level":1,"rating":3.8,"reference":"ChIJRdlNqqQUWQ0R-h6ylQYbadU","types":["restaurant","food","point_of_interest","establishment"],"user_ratings_total":150},{"business_status":"OPERATIONAL","formatted_address":"C. de la Duquesa de Villahermosa, 31, 50010 Zaragoza","geometry":{"location":{"lat":41.6482105,"lng":-0.9018664},"viewport":{"northeast":{"lat":41.64959747989272,"lng":-0.9005386201072778},"southwest":{"lat":41.64689782010728,"lng":-0.9032382798927221}}},"icon":"https://maps.gstatic.com/mapfiles/place_api/icons/v1/png_71/restaurant-71.png","icon_background_color":"#FF9E67","icon_mask_base_uri":"https://maps.gstatic.com/mapfiles/place_api/icons/v2/restaurant_pinlet","name":"Döner Kebab Villahermosa","opening_hours":{"open_now":true},"photos":[{"height":4160,"html_attributions":["<a href=\"https://maps.google.com/maps/contrib/107576585760687788255\">A Google User</a>"],"photo_reference":"AeJbb3cu2mKz3kfZgQczXuYDBQFMNKc1on8UJZD1lg_K9k-XFDQtH84EkM-OA9vrmM17g8Pcp7joX3kT9006a0p_2MbYqa-rDUz9my_in3NPdLrfmomh0tpN5ZSZNr2xO617_gKO5QgTaYWNP817QgIO8fCmH5qjK9YlD29M6D2zCZx_Y3Dw","width":3120}],"place_id":"ChIJP7Hy7c0UWQ0RF0R8usyiVmE","plus_code":{"compound_code":"J3XX+77 Zaragoza","global_code":"8CHXJ3XX+77"},"price_level":1,"rating":3.8,"reference":"ChIJP7Hy7c0UWQ0RF0R8usyiVmE","types":["restaurant","food","point_of_interest","establishment"],"user_ratings_total":79},{"business_status":"OPERATIONAL","formatted_address":"Av. de Madrid, 71, 50010 Zaragoza","geometry":{"location":{"lat":41.654918,"lng":-0.8984809},"viewport":{"northeast":{"lat":41.65629047989272,"lng":-0.8971264701072781},"southwest":{"lat":41.65359082010728,"lng":-0.8998261298927224}}},"icon":"https://maps.gstatic.com/mapfiles/place_api/icons/v1/png_71/restaurant-71.png","icon_background_color":"#FF9E67","icon_mask_base_uri":"https://maps.gstatic.com/mapfiles/place_api/icons/v2/restaurant_pinlet","name":"Roma Kebab y Pizza Turca","opening_hours":{"open_now":true},"place_id":"ChIJ6Uwx_sgUWQ0RGYJ5s--eYFQ","plus_code":{"compound_code":"M432+WJ Zaragoza","global_code":"8CHXM432+WJ"},"price_level":1,"rating":3.8,"reference":"ChIJ6Uwx_sgUWQ0RGYJ5s--eYFQ","types":["meal_delivery","meal_takeaway","bar","restaurant","food","point_of_interest","establishment"],"user_ratings_total":34},{"business_status":"OPERATIONAL","formatted_address":"C. Desayuno con Diamantes, 19, 50019 Zaragoza","geometry":{"location":{"lat":41.6225596,"lng":-0.9299103999999999},"viewport":{"northeast":{"lat":41.62395312989272,"lng":-0.9285637201072778},"southwest":{"lat":41.62125347010728,"lng":-0.9312633798927221}}},"icon":"https://maps.gstatic.com/mapfiles/place_api/icons/v1/png_71/restaurant-71.png","icon_background_color":"#FF9E67","icon_mask_base_uri":"https://maps.gstatic.com/mapfiles/place_api/icons/v2/restaurant_pinlet","name":"King Döner Kebab","opening_hours":{"open_now":true},"photos":[{"height":4160,"html_attributions":["<a href=\"https://maps.google.com/maps/contrib/111142880031154079583\">popa dumitru</a>"],"photo_reference":"AeJbb3dlqaiBL0YKXda7Wd0HIebCiX5A4J0wKihCcENYSjFH3oqQElBfI_tXCmUlcc9dMx-0NFyhZOp1lghhVEzfbdAUrS_bL0PZJz7Y9NjUY0TVm2kkFF2Q7lBPV-GzlSHG34aJ0Tqc39xZMeWymZyJKIHsRKWsqU66qRWcn5x2wC-xVTN3","width":3120}],"place_id":"ChIJyxIMqe5qWQ0Ram5ysngb1ao","plus_code":{"compound_code":"J3FC+22 Zaragoza","global_code":"8CHXJ3FC+22"},"price_level":1,"rating":3.6,"reference":"ChIJyxIMqe5qWQ0Ram5ysngb1ao","types":["restaurant","food","point_of_interest","establishment"],"user_ratings_total":177},{"business_status":"OPERATIONAL","formatted_address":"Tr.ª de los Jardines Reales, 7, 50021 Zaragoza","geometry":{"location":{"lat":41.6075358,"lng":-0.8871908},"viewport":{"northeast":{"lat":41.60882122989272,"lng":-0.8857824201072777},"southwest":{"lat":41.60612157010728,"lng":-0.8884820798927221}}},"icon":"https://maps.gstatic.com/mapfiles/place_api/icons/v1/png_71/restaurant-71.png","icon_background_color":"#FF9E67","icon_mask_base_uri":"https://maps.gstatic.com/mapfiles/place_api/icons/v2/restaurant_pinlet","name":"Istanbul","opening_hours":{"open_now":false},"photos":[{"height":600,"html_attributions":["<a href=\"https://maps.google.com/maps/contrib/107843289872111717684\">Pedro M.M.</a>"],"photo_reference":"AeJbb3cnyihVc4XHaOQoVu9XzbxqyFi2wBd2VAQLT4OPIVyCI2inEImYUjN4JIt9oi7bo3YkaASoRnr4MS35-VWelk-U-_8KTkJasPgyaTOnkkVi05rtBo5VX6OWjt6lgTKJlyMr4JPtJL12jymjUD3n4WhvBzJKjiT4wmcrAwMn03ibUdT5","width":760}],"place_id":"ChIJl9_zTV0VWQ0RpAalQJwczqo","plus_code":{"compound_code":"J457+24 Zaragoza","global_code":"8CHXJ457+24"},"rating":3.5,"reference":"ChIJl9_zTV0VWQ0RpAalQJwczqo","types":["restaurant","food","point_of_interest","establishment"],"user_ratings_total":20},{"business_status":"OPERATIONAL","formatted_address":"Cam. de las Torres, 106, 50007 Zaragoza","geometry":{"location":{"lat":41.6408372,"lng":-0.8845158},"viewport":{"northeast":{"lat":41.64215127989272,"lng":-0.8831010701072778},"southwest":{"lat":41.63945162010728,"lng":-0.8858007298927223}}},"icon":"https://maps.gstatic.com/mapfiles/place_api/icons/v1/png_71/restaurant-71.png","icon_background_color":"#FF9E67","icon_mask_base_uri":"https://maps.gstatic.com/mapfiles/place_api/icons/v2/restaurant_pinlet","name":"Turkuaz kebabish Doner Kebab Zaragoza","opening_hours":{"open_now":true},"photos":[{"height":2976,"html_attributions":["<a href=\"https://maps.google.com/maps/contrib/100259405272510590424\">Alejandro S</a>"],"photo_reference":"AeJbb3f1DQomoNkqdtjJW7h3CWlSJSrYnUd9v-kkGzYcY7y1WbkrL4vcuTOf2az23Vi767ceFxN0L6GK3JRNsJwX_y6_OPnVmC4wC536YLZ8Q2HYF-vMES9GQXty7GXUHjlvYdpt3zaLgX4wcZrLqFiaMPyoa7htepv8OUZa9XvHhoOS-a3p","width":3968}],"place_id":"ChIJ5Vi2AuEUWQ0R_3jMvsdDYg4","plus_code":{"compound_code":"J4R8+85 Zaragoza","global_code":"8CHXJ4R8+85"},"price_level":1,"rating":3.4,"reference":"ChIJ5Vi2AuEUWQ0R_3jMvsdDYg4","types":["restaurant","food","point_of_interest","establishment"],"user_ratings_total":154},{"business_status":"OPERATIONAL","formatted_address":"Av. de César Augusto, 69, 50003 Zaragoza","geometry":{"location":{"lat":41.6556057,"lng":-0.8838107},"viewport":{"northeast":{"lat":41.65693822989272,"lng":-0.8824327201072778},"southwest":{"lat":41.65423857010727,"lng":-0.8851323798927222}}},"icon":"https://maps.gstatic.com/mapfiles/place_api/icons/v1/png_71/restaurant-71.png","icon_background_color":"#FF9E67","icon_mask_base_uri":"https://maps.gstatic.com/mapfiles/place_api/icons/v2/restaurant_pinlet","name":"Luna de Istanbul","opening_hours":{"open_now":true},"photos":[{"height":1080,"html_attributions":["<a href=\"https://maps.google.com/maps/contrib/104462436959653726814\">ade purwanto</a>"],"photo_reference":"AeJbb3dJp605vBfN-WK4FRSVZDjH062Zz5VMS74gK3oF8hnwlr1Oc8sJw7H0zXqj8EOQ6cSj7-JvK6IZJFpwjVcR_gVv663zPBMwV8Hb6DVpqJYvVnX866fLx3dTIfjisfPt7uZE7LXGD5FllGfnrKA4efyqd5op_OP8qM2KfVyn5t0F7fTd","width":1920}],"place_id":"ChIJjadeBOsUWQ0R1_Q56o-K0dE","plus_code":{"compound_code":"M448+6F Zaragoza","global_code":"8CHXM448+6F"},"rating":3.3,"reference":"ChIJjadeBOsUWQ0R1_Q56o-K0dE","types":["restaurant","food","point_of_interest","establishment"],"user_ratings_total":29},{"business_status":"OPERATIONAL","formatted_address":"C. de Italia, 21, 50010 Zaragoza","geometry":{"location":{"lat":41.6517411,"lng":-0.9003534},"viewport":{"northeast":{"lat":41.65308192989271,"lng":-0.8990385201072777},"southwest":{"lat":41.65038227010727,"lng":-0.901738179892722}}},"icon":"https://maps.gstatic.com/mapfiles/place_api/icons/v1/png_71/restaurant-71.png","icon_background_color":"#FF9E67","icon_mask_base_uri":"https://maps.gstatic.com/mapfiles/place_api/icons/v2/restaurant_pinlet","name":"Donner Kebab Halal Ancara","opening_hours":{"open_now":true},"place_id":"ChIJBaPepM4UWQ0RUUSzHw-vNIE","plus_code":{"compound_code":"M32X+MV Zaragoza","global_code":"8CHXM32X+MV"},"rating":3.3,"reference":"ChIJBaPepM4UWQ0RUUSzHw-vNIE","types":["restaurant","food","point_of_interest","establishment"],"user_ratings_total":3},{"business_status":"OPERATIONAL","formatted_address":"Av. de la Isla de Murano, 9, 50021 Zaragoza","geometry":{"location":{"lat":41.607517,"lng":-0.8871937},"viewport":{"northeast":{"lat":41.60881182989272,"lng":-0.8858883701072777},"southwest":{"lat":41.60611217010728,"lng":-0.8885880298927222}}},"icon":"https://maps.gstatic.com/mapfiles/place_api/icons/v1/png_71/restaurant-71.png","icon_background_color":"#FF9E67","icon_mask_base_uri":"https://maps.gstatic.com/mapfiles/place_api/icons/v2/restaurant_pinlet","name":"Istambul Kebab Puerto Venecia","opening_hours":{"open_now":true},"photos":[{"height":600,"html_attributions":["<a href=\"https://maps.google.com/maps/contrib/107843289872111717684\">Pedro M.M.</a>"],"photo_reference":"AeJbb3dCR12OEX6COHk6KMGme2I_fx4P0jo88d7Wy5wCvIKuiYkC6mSA9gKW-2EazbbknwtSMW5M51HlobZCubMc6d1ybFQUrl84qwaoSBBXd4PJts5BwRoQ-l_qDE1yoUwI460V6xl-Jh-UL9qI2mmVGMYytD5POZ6nBwEWwoFmslnzVdMV","width":760}],"place_id":"ChIJf4ouHhoVWQ0RL8bDCXDmt54","plus_code":{"compound_code":"J457+24 Zaragoza","global_code":"8CHXJ457+24"},"rating":3,"reference":"ChIJf4ouHhoVWQ0RL8bDCXDmt54","types":["restaurant","food","point_of_interest","establishment"],"user_ratings_total":115},{"business_status":"OPERATIONAL","formatted_address":"Av. de Madrid, 231, 50017 Zaragoza","geometry":{"location":{"lat":41.6517169,"lng":-0.9115362},"viewport":{"northeast":{"lat":41.65307397989272,"lng":-0.910227720107278},"southwest":{"lat":41.65037432010728,"lng":-0.9129273798927223}}},"icon":"https://maps.gstatic.com/mapfiles/place_api/icons/v1/png_71/restaurant-71.png","icon_background_color":"#FF9E67","icon_mask_base_uri":"https://maps.gstatic.com/mapfiles/place_api/icons/v2/restaurant_pinlet","name":"King Doner Delicias","opening_hours":{"open_now":true},"photos":[{"height":720,"html_attributions":["<a href=\"https://maps.google.com/maps/contrib/111493796989955294329\">A Google User</a>"],"photo_reference":"AeJbb3caeDhuHAuuRrxIJZdpJGEP2KoZfNuQqE2nQIzx3kFyt6BLMUQH6Hzghr2xmPvSOzf_hL0CdBDuUip8y0ANFQjbSF6Wn1CwNzS1f5Mkh5sbmTcehbBZAtC3lP5ui0G3tx_5k6YkB_jIxE-kt8Axu6w6K-WD5rUBjwVqovpgARcVB408","width":720}],"place_id":"ChIJyRgwqjBrWQ0RKb2OH6heDuc","plus_code":{"compound_code":"M32Q+M9 Zaragoza","global_code":"8CHXM32Q+M9"},"rating":3,"reference":"ChIJyRgwqjBrWQ0RKb2OH6heDuc","types":["restaurant","food","point_of_interest","establishment"],"user_ratings_total":9},{"business_status":"OPERATIONAL","formatted_address":"Cl. Mayor, 25, 50001 Zaragoza","geometry":{"location":{"lat":41.6537792,"lng":-0.8766206},"viewport":{"northeast":{"lat":41.65510287989272,"lng":-0.8752906701072777},"southwest":{"lat":41.65240322010727,"lng":-0.8779903298927222}}},"icon":"https://maps.gstatic.com/mapfiles/place_api/icons/v1/png_71/restaurant-71.png","icon_background_color":"#FF9E67","icon_mask_base_uri":"https://maps.gstatic.com/mapfiles/place_api/icons/v2/restaurant_pinlet","name":"Kebab de Charlie","opening_hours":{"open_now":true},"place_id":"ChIJszxODPIUWQ0RY-T54FYzSJc","plus_code":{"compound_code":"M43F+G9 Zaragoza","global_code":"8CHXM43F+G9"},"rating":2.3,"reference":"ChIJszxODPIUWQ0RY-T54FYzSJc","types":["restaurant","food","point_of_interest","establishment"],"user_ratings_total":3},{"business_status":"OPERATIONAL","formatted_address":"C. del Coso, 162, 50002 Zaragoza","geometry":{"location":{"lat":41.6516352,"lng":-0.873267},"viewport":{"northeast":{"lat":41.65303237989272,"lng":-0.8719891201072778},"southwest":{"lat":41.65033272010728,"lng":-0.8746887798927223}}},"icon":"https://maps.gstatic.com/mapfiles/place_api/icons/v1/png_71/restaurant-71.png","icon_background_color":"#FF9E67","icon_mask_base_uri":"https://maps.gstatic.com/mapfiles/place_api/icons/v2/restaurant_pinlet","name":"Awaisdonerkebab","place_id":"ChIJw1-Gno4VWQ0RnPWvFG8SfuQ","plus_code":{"compound_code":"M42G+MM Zaragoza","global_code":"8CHXM42G+MM"},"rating":1,"reference":"ChIJw1-Gno4VWQ0RnPWvFG8SfuQ","types":["restaurant","food","point_of_interest","establishment"],"user_ratings_total":1},{"business_status":"OPERATIONAL","formatted_address":"C. de María Zambrano, 35, 50018 Zaragoza","geometry":{"location":{"lat":41.6707018,"lng":-0.8899501000000001},"viewport":{"northeast":{"lat":41.67194737989272,"lng":-0.8883148701072777},"southwest":{"lat":41.66924772010728,"lng":-0.8910145298927222}}},"icon":"https://maps.gstatic.com/mapfiles/place_api/icons/v1/png_71/restaurant-71.png","icon_background_color":"#FF9E67","icon_mask_base_uri":"https://maps.gstatic.com/mapfiles/place_api/icons/v2/restaurant_pinlet","name":"Restaurante Turco As","opening_hours":{"open_now":true},"place_id":"ChIJN4N9wqMUWQ0RznixCZyf8eE","plus_code":{"compound_code":"M4C6+72 Zaragoza","global_code":"8CHXM4C6+72"},"rating":0,"reference":"ChIJN4N9wqMUWQ0RznixCZyf8eE","types":["restaurant","food","point_of_interest","establishment"],"user_ratings_total":0}]