[{"business_status":"OPERATIONAL","formatted_address":"10 Av. de Muret, 31300 Toulouse","geometry":{"location":{"lat":43.57968899999999,"lng":1.424086},"viewport":{"northeast":{"lat":43.58106677989272,"lng":1.425369229892722},"southwest":{"lat":43.57836712010727,"lng":1.422669570107278}}},"icon":"https://maps.gstatic.com/mapfiles/place_api/icons/v1/png_71/restaurant-71.png","icon_background_color":"#FF9E67","icon_mask_base_uri":"https://maps.gstatic.com/mapfiles/place_api/icons/v2/restaurant_pinlet","name":"MY KEBAB","opening_hours":{"open_now":false},"photos":[{"height":1920,"html_attributions":["<a href=\"https://maps.google.com/maps/contrib/109936067740715287983\">hicham hsaini</a>"],"photo_reference":"AeJbb3ftsXM2hJgLSit9z8aHIGrQHt-jgv0078ihWleC5RhWBSR5LJz9eyoMwExO5V3ZUxL4xaiOmBXl2jTEiBsr20c4R0VnulwRNx9qgcZkPllwNVei0qOM6X2helOh3vFysp11TvjMxt7nbjdyPBnNPbVUGpomMjMX1Vo1uc6EWMGOvoIP","width":1080}],"place_id":"ChIJ1YdFTkG7rhIRbccg_C_Hq_U","plus_code":{"compound_code":"HCHF+VJ Toulouse","global_code":"8FM3HCHF+VJ"},"rating":5,"reference":"ChIJ1YdFTkG7rhIRbccg_C_Hq_U","types":["restaurant","point_of_interest","food","establishment"],"user_ratings_total":26},{"business_status":"OPERATIONAL","formatted_address":"Rue des Trois Piliers, 31000 Toulouse","geometry":{"location":{"lat":43.6106249,"lng":1.4395783},"viewport":{"northeast":{"lat":43.61190052989272,"lng":1.440917229892722},"southwest":{"lat":43.60920087010728,"lng":1.438217570107278}}},"icon":"https://maps.gstatic.com/mapfiles/place_api/icons/v1/png_71/restaurant-71.png","icon_background_color":"#FF9E67","icon_mask_base_uri":"https://maps.gstatic.com/mapfiles/place_api/icons/v2/restaurant_pinlet","name":"Resto Alexandrie Chick-Kebab","place_id":"ChIJkxNCa167rhIRKcRTayHHBQc","plus_code":{"compound_code":"JC6Q+6R Toulouse","global_code":"8FM3JC6Q+6R"},"rating":5,"reference":"ChIJkxNCa167rhIRKcRTayHHBQc","types":["restaurant","point_of_interest","food","establishment"],"user_ratings_total":5},{"business_status":"OPERATIONAL","formatted_address":"12 Av. d'Andromède, 31700 Blagnac","geometry":{"location":{"lat":43.6553326,"lng":1.3693321},"viewport":{"northeast":{"lat":43.65678992989272,"lng":1.370674879892722},"southwest":{"lat":43.65409027010728,"lng":1.367975220107278}}},"icon":"https://maps.gstatic.com/mapfiles/place_api/icons/v1/png_71/restaurant-71.png","icon_background_color":"#FF9E67","icon_mask_base_uri":"https://maps.gstatic.com/mapfiles/place_api/icons/v2/restaurant_pinlet","name":"Bodrum Grill kebab halal","opening_hours":{"open_now":false},"photos":[{"height":2010,"html_attributions":["<a href=\"https://maps.google.com/maps/contrib/110820576129633535652\">A Google User</a>"],"photo_reference":"AeJbb3eFiVFeR2MRPL_nSR3OplIVlZMqX1hQPKT_PgweNyXkICRS3EkWpUj5i2sW2YGJWLF9iQ_uyWKwNxcVbhHGq0zLcCWmoMjgOVkqPizPNvPW4uFisn75-LEsqRuKSCGdWbARvVi4J5049f_DTPr9fd0dfDnt9xizxD8nb5mgch6jwFTI","width":1125}],"place_id":"ChIJj9X3vP2lrhIRTHmyee5HJVo","plus_code":{"compound_code":"M949+4P Blagnac","global_code":"8FM3M949+4P"},"rating":4.7,"reference":"ChIJj9X3vP2lrhIRTHmyee5HJVo","types":["restaurant","point_of_interest","food","establishment"],"user_ratings_total":265},{"business_status":"OPERATIONAL","formatted_address":"141 Gd Rue Saint-Michel, 31400 Toulouse","geometry":{"location":{"lat":43.5906525,"lng":1.445189},"viewport":{"northeast":{"lat":43.59200957989272,"lng":1.446556779892722},"southwest":{"lat":43.58930992010728,"lng":1.443857120107278}}},"icon":"https://maps.gstatic.com/mapfiles/place_api/icons/v1/png_71/restaurant-71.png","icon_background_color":"#FF9E67","icon_mask_base_uri":"https://maps.gstatic.com/mapfiles/place_api/icons/v2/restaurant_pinlet","name":"Kebab Presto","opening_hours":{"open_now":false},"photos":[{"height":3464,"html_attributions":["<a href=\"https://maps.google.com/maps/contrib/108903321818931889574\">elahi sujon</a>"],"photo_reference":"AeJbb3clEFW-bepV7v1WCu5Db2ipoAbExpY2An-bER6qF08rJ9FzGd-ughUhMXbT6PNOZM_m6D8yQqSF4qbI-lawk3gdnO_GBjLPjgvSW8wEQIe0DALAB3bLz0msJZ7km2uJ-aTUqMljxAGMJbdb298yuiysEyHYjmTIy1WayMmuUmsj1vFT","width":4618}],"place_id":"ChIJsVzkI4O9rhIRb45fiNeYl5I","plus_code":{"compound_code":"HCRW+72 Toulouse","global_code":"8FM3HCRW+72"},"rating":4.6,"reference":"ChIJsVzkI4O9rhIRb45fiNeYl5I","types":["restaurant","point_of_interest","food","establishment"],"user_ratings_total":31},{"business_status":"OPERATIONAL","formatted_address":"41 Rue des Paradoux, 31000 Toulouse","geometry":{"location":{"lat":43.5994286,"lng":1.4424402},"viewport":{"northeast":{"lat":43.60079997989272,"lng":1.443860079892722},"southwest":{"lat":43.59810032010727,"lng":1.441160420107278}}},"icon":"https://maps.gstatic.com/mapfiles/place_api/icons/v1/png_71/restaurant-71.png","icon_background_color":"#FF9E67","icon_mask_base_uri":"https://maps.gstatic.com/mapfiles/place_api/icons/v2/restaurant_pinlet","name":"Le Boui Boui Kebab","opening_hours":{"open_now":false},"photos":[{"height":4096,"html_attributions":["<a href=\"https://maps.google.com/maps/contrib/112341748078161704117\">A Google User</a>"],"photo_reference":"AeJbb3dcXrR290OwJg_wegFvz06D9MHfhvwIE70QuFpIUNKPO9swbUJOnihyg-zIzLoTV-eW8plbDx16zYBp_6wamVU7B9tXL98DuExru4XrHQf5uHkIjpKJsQMfXhWqU96t533UYQcAJrc1ODKgBfwZxn9YnQ0rH9E4VyBxtutKecFatz9P","width":3072}],"place_id":"ChIJDR1h5927rhIRDDeciTpbiXs","plus_code":{"compound_code":"HCXR+QX Toulouse","global_code":"8FM3HCXR+QX"},"rating":4.5,"reference":"ChIJDR1h5927rhIRDDeciTpbiXs","types":["restaurant","point_of_interest","food","establishment"],"user_ratings_total":270},{"business_status":"OPERATIONAL","formatted_address":"10 Av. Tolosane, 31520 Ramonville-Saint-Agne","geometry":{"location":{"lat":43.5519963,"lng":1.469641},"viewport":{"northeast":{"lat":43.55331507989272,"lng":1.470909479892722},"southwest":{"lat":43.55061542010728,"lng":1.468209820107278}}},"icon":"https://maps.gstatic.com/mapfiles/place_api/icons/v1/png_71/restaurant-71.png","icon_background_color":"#FF9E67","icon_mask_base_uri":"https://maps.gstatic.com/mapfiles/place_api/icons/v2/restaurant_pinlet","name":"Aspendos","opening_hours":{"open_now":false},"photos":[{"height":4032,"html_attributions":["<a href=\"https://maps.google.com/maps/contrib/105430472351818428747\">ylifin</a>"],"photo_reference":"AeJbb3ckk31Ao1mHHjzpSqxK6hrHOXsh1L0nZrCQ4oMDHzR2VvF0J6WVfaGH-sgJMs5srgjcZkJ0RPrYTcKEuWv3p5H9Bhy0uAqMDDeiI2SdruvQkcPU9AeTloZP0U-CbSg8dTgzAVfH1ZrovKVwWThJKd3bdE7W8QChomR-JyvepLggg5VW","width":3024}],"place_id":"ChIJxXmpi4y9rhIRtXLlZifJ8Xc","plus_code":{"compound_code":"HF29+QV Ramonville-Saint-Agne","global_code":"8FM3HF29+QV"},"rating":4.5,"reference":"ChIJxXmpi4y9rhIRtXLlZifJ8Xc","types":["restaurant","food","point_of_interest","establishment"],"user_ratings_total":168},{"business_status":"OPERATIONAL","formatted_address":"3 Rue Peyras, 31000 Toulouse","geometry":{"location":{"lat":43.6015336,"lng":1.4439488},"viewport":{"northeast":{"lat":43.60287627989272,"lng":1.445297379892722},"southwest":{"lat":43.60017662010728,"lng":1.442597720107278}}},"icon":"https://maps.gstatic.com/mapfiles/place_api/icons/v1/png_71/restaurant-71.png","icon_background_color":"#FF9E67","icon_mask_base_uri":"https://maps.gstatic.com/mapfiles/place_api/icons/v2/restaurant_pinlet","name":"Le Snack Toulousain","opening_hours":{"open_now":false},"photos":[{"height":2688,"html_attributions":["<a href=\"https://maps.google.com/maps/contrib/101569653266647996694\">A Google User</a>"],"photo_reference":"AeJbb3cmcxOIaFUwcxo3R-4zb3dmgmrTvZTNhcm4SckJY1Q4rqyqbyd96RCc5Huz0I4HozII3_tzFr84rZQrfj0GBUBCkr0EhPUnX0DDqixImibnWkqk_FSYgi-34-KpEJBhXoWQ9akn9oeBzVAysveg0RSDxgviwk4VPmMFLia9xNlJQuav","width":2688}],"place_id":"ChIJC6EZe528rhIR9cY6GdxA29Y","plus_code":{"compound_code":"JC2V+JH Toulouse","global_code":"8FM3JC2V+JH"},"price_level":1,"rating":4.5,"reference":"ChIJC6EZe528rhIR9cY6GdxA29Y","types":["restaurant","point_of_interest","food","establishment"],"user_ratings_total":102},{"business_status":"OPERATIONAL","formatted_address":"7 Rue des Blanchers, 31000 Toulouse","geometry":{"location":{"lat":43.602139,"lng":1.4384424},"viewport":{"northeast":{"lat":43.60348557989272,"lng":1.439786979892722},"southwest":{"lat":43.60078592010727,"lng":1.437087320107278}}},"icon":"https://maps.gstatic.com/mapfiles/place_api/icons/v1/png_71/restaurant-71.png","icon_background_color":"#FF9E67","icon_mask_base_uri":"https://maps.gstatic.com/mapfiles/place_api/icons/v2/restaurant_pinlet","name":"Wok To Kebab","opening_hours":{"open_now":false},"photos":[{"height":3264,"html_attributions":["<a href=\"https://maps.google.com/maps/contrib/113576155352663325373\">Alia Bellabas</a>"],"photo_reference":"AeJbb3ca5R4dQX7XrN-C3bwn7JuGYYDOR6PrjXwUD-sV7siD1LjotIt48qIF05lY_qVcr_JdDic9rRXTeBQemGlJliBvHu53dYUMjdww0Cfd1xNIGV6eKis7zwPqzvOSOnXbMaFNU11RDDjKgYnK9PCoDuebP0S4gWyWlHnxzy5dSk8kckOu","width":4352}],"place_id":"ChIJ_yI8j6m7rhIR3NuPA3j9v7Y","plus_code":{"compound_code":"JC2Q+R8 Toulouse","global_code":"8FM3JC2Q+R8"},"rating":4.5,"reference":"ChIJ_yI8j6m7rhIR3NuPA3j9v7Y","types":["restaurant","point_of_interest","food","establishment"],"user_ratings_total":54},{"business_status":"OPERATIONAL","formatted_address":"84 Rte de Narbonne, 31400 Toulouse","geometry":{"location":{"lat":43.5673029,"lng":1.4585361},"viewport":{"northeast":{"lat":43.56854812989273,"lng":1.459876529892722},"southwest":{"lat":43.56584847010728,"lng":1.457176870107278}}},"icon":"https://maps.gstatic.com/mapfiles/place_api/icons/v1/png_71/restaurant-71.png","icon_background_color":"#FF9E67","icon_mask_base_uri":"https://maps.gstatic.com/mapfiles/place_api/icons/v2/restaurant_pinlet","name":"Aladin Kebab","opening_hours":{"open_now":false},"photos":[{"height":819,"html_attributions":["<a href=\"https://maps.google.com/maps/contrib/109236759795089634966\">A Google User</a>"],"photo_reference":"AeJbb3fIfDvmF5UEg1cNnV73CJAL6n1CDiojTriP0QL_yPFIoH1dj2_nxCoS9OQ24IG1DxsDvXCi5bbz-QEBUxpQiItoh4xly-CPGYExLOMJGinm-dccghWw5w3KO9MpFKE-WRChBpSrICkul7r3esRTcroM3YSPYuaoPn5IT43VkQ0RXkkm","width":1024}],"place_id":"ChIJm2CScxS8rhIRDjsLP_A027E","plus_code":{"compound_code":"HF85+WC Toulouse","global_code":"8FM3HF85+WC"},"price_level":1,"rating":4.4,"reference":"ChIJm2CScxS8rhIRDjsLP_A027E","types":["restaurant","point_of_interest","food","establishment"],"user_ratings_total":521},{"business_status":"OPERATIONAL","formatted_address":"18 Pl. Dupuy, 31000 Toulouse","geometry":{"location":{"lat":43.59932999999999,"lng":1.4546521},"viewport":{"northeast":{"lat":43.60070762989272,"lng":1.455981229892722},"southwest":{"lat":43.59800797010728,"lng":1.453281570107278}}},"icon":"https://maps.gstatic.com/mapfiles/place_api/icons/v1/png_71/restaurant-71.png","icon_background_color":"#FF9E67","icon_mask_base_uri":"https://maps.gstatic.com/mapfiles/place_api/icons/v2/restaurant_pinlet","name":"Sorami Kebab","opening_hours":{"open_now":false},"photos":[{"height":800,"html_attributions":["<a href=\"https://maps.google.com/maps/contrib/108804390891753055694\">A Google User</a>"],"photo_reference":"AeJbb3fTMo1BSY9c71VJ3JGzHJUGbiuvwGjN-Guy6qYdosuyvVVn32F3KKo7TcRzGyfI3_p6vwmjBj7unTgKZQrILyBVgS2K297GqtZJ1S4_1JAgXQRwph2kIbpXfi28QIpolSacDEMyYUY8QjIpCxrqNSKZ01AAZxev8i9arYHknPccR2Hs","width":1200}],"place_id":"ChIJVYzT3o-8rhIRcWcY4Zy2AhI","plus_code":{"compound_code":"HFX3+PV Toulouse","global_code":"8FM3HFX3+PV"},"price_level":1,"rating":4.4,"reference":"ChIJVYzT3o-8rhIRcWcY4Zy2AhI","types":["restaurant","food","point_of_interest","establishment"],"user_ratings_total":224},{"business_status":"OPERATIONAL","formatted_address":"5 Rue de Université du Mirail, 31100 Toulouse","geometry":{"location":{"lat":43.5751289,"lng":1.4014274},"viewport":{"northeast":{"lat":43.57653592989272,"lng":1.402613129892722},"southwest":{"lat":43.57383627010728,"lng":1.399913470107278}}},"icon":"https://maps.gstatic.com/mapfiles/place_api/icons/v1/png_71/restaurant-71.png","icon_background_color":"#FF9E67","icon_mask_base_uri":"https://maps.gstatic.com/mapfiles/place_api/icons/v2/restaurant_pinlet","name":"Saray","opening_hours":{"open_now":true},"photos":[{"height":3264,"html_attributions":["<a href=\"https://maps.google.com/maps/contrib/114923201146420647107\">dunyada garip misafir</a>"],"photo_reference":"AeJbb3ecHWcFhICkUtSN8MyMS_u4uBNb_fXWwjgYpcPg33QF88L5GhpxBn7zS5iG7N_THy2I5cMrUUat5JQeF3vT98H8kfkonJacfTJ2VJFiViYSoJgDHl_a8RP7nlJUIVuhtPzR4uYOUG2Wm0QCEhmWvibViM1sNDYToIaI7MKIrHdWVG89","width":1836}],"place_id":"ChIJW_BJlEu6rhIRybN2638aK3w","plus_code":{"compound_code":"HCG2+3H Toulouse","global_code":"8FM3HCG2+3H"},"price_level":1,"rating":4.4,"reference":"ChIJW_BJlEu6rhIRybN2638aK3w","types":["meal_takeaway","bakery","restaurant","food","point_of_interest","store","establishment"],"user_ratings_total":164},{"business_status":"OPERATIONAL","formatted_address":"4 Rue Emile Dewoitine, 31600 Seysses","geometry":{"location":{"lat":43.4894693,"lng":1.3188324},"viewport":{"northeast":{"lat":43.49091502989272,"lng":1.320037079892722},"southwest":{"lat":43.48821537010728,"lng":1.317337420107278}}},"icon":"https://maps.gstatic.com/mapfiles/place_api/icons/v1/png_71/restaurant-71.png","icon_background_color":"#FF9E67","icon_mask_base_uri":"https://maps.gstatic.com/mapfiles/place_api/icons/v2/restaurant_pinlet","name":"FANFOOD kebab","opening_hours":{"open_now":false},"photos":[{"height":810,"html_attributions":["<a href=\"https://maps.google.com/maps/contrib/106421396622075008923\">A Google User</a>"],"photo_reference":"AeJbb3e-qZTH8O11yxRpWCH4sr7jqa-JDHn20rs4tCZOhH-jSZy2UrZLJ3TkTyocQUw_YEd-qaCkVCASOQ8xnDVyh5JRkNrQD0_tRbtG9NIGXgsxU7FLp3hNgMWFC78SL8HK7duddyVXSQSRyKA0vZ_nPN-fzzJwgOrAR6VFC1CchjHd-xLv","width":1440}],"place_id":"ChIJTyj5bqe3rhIRDy3O6C1PEJo","plus_code":{"compound_code":"F8Q9+QG Seysses","global_code":"8FM3F8Q9+QG"},"rating":4.4,"reference":"ChIJTyj5bqe3rhIRDy3O6C1PEJo","types":["restaurant","point_of_interest","food","establishment"],"user_ratings_total":13},{"business_status":"OPERATIONAL","formatted_address":"85 Rue Pargaminières, 31000 Toulouse","geometry":{"location":{"lat":43.6046088,"lng":1.441001},"viewport":{"northeast":{"lat":43.60597007989274,"lng":1.442324329892723},"southwest":{"lat":43.60327042010729,"lng":1.439624670107278}}},"icon":"https://maps.gstatic.com/mapfiles/place_api/icons/v1/png_71/restaurant-71.png","icon_background_color":"#FF9E67","icon_mask_base_uri":"https://maps.gstatic.com/mapfiles/place_api/icons/v2/restaurant_pinlet","name":"Deniz Kebab","opening_hours":{"open_now":false},"photos":[{"height":4032,"html_attributions":["<a href=\"https://maps.google.com/maps/contrib/103720877306258631517\">Ravi Kiran</a>"],"photo_reference":"AeJbb3dh2RNwVMu3TrLVQ9lPn9zgFkQrfvcpMsvRESjYWDcVkPPEDl09ilTzi_k6pz1vg_6K9Mi9ikl0zd6Xn8O2-xMDdEfvrS6xC1h_zTTvYwi4aePY5f2SEeIgSbgpcWjH5zT_U1WGecdnijzlE_H-tRChTXYtc_3yArapGYpng4BI9AxB","width":3024}],"place_id":"ChIJWZWbf2G7rhIRamdnw1r8whI","plus_code":{"compound_code":"JC3R+RC Toulouse","global_code":"8FM3JC3R+RC"},"price_level":1,"rating":4.3,"reference":"ChIJWZWbf2G7rhIRamdnw1r8whI","types":["restaurant","point_of_interest","food","establishment"],"user_ratings_total":473},{"business_status":"OPERATIONAL","formatted_address":"3 Rue Clément Ader, 31300 Toulouse","geometry":{"location":{"lat":43.5852503,"lng":1.4277897},"viewport":{"northeast":{"lat":43.58663262989273,"lng":1.429170529892722},"southwest":{"lat":43.58393297010728,"lng":1.426470870107278}}},"icon":"https://maps.gstatic.com/mapfiles/place_api/icons/v1/png_71/restaurant-71.png","icon_background_color":"#FF9E67","icon_mask_base_uri":"https://maps.gstatic.com/mapfiles/place_api/icons/v2/restaurant_pinlet","name":"SNACK LESTADIUM","opening_hours":{"open_now":false},"photos":[{"height":2448,"html_attributions":["<a href=\"https://maps.google.com/maps/contrib/109852845450228184613\">Snack lestadium</a>"],"photo_reference":"AeJbb3c3Jp-gTuD-Z4oYZ9UExC2DJh3FG_z-mVjqipfo34m1EeJtUS9xwTN1F-7QeFglLAYg6tCAzrgfZTxvBCLLm0itHgnoCffak6WUQOg6Z7iVXV6FDWAugearLgOMKArfrEOnvs59-2l5cla6n15W0CyciO27Go_IBF7ylpRmw4nSQGLh","width":3264}],"place_id":"ChIJOzt3Spm7rhIRY-b24V57pvM","plus_code":{"compound_code":"HCPH+34 Toulouse","global_code":"8FM3HCPH+34"},"rating":4.3,"reference":"ChIJOzt3Spm7rhIRY-b24V57pvM","types":["restaurant","food","point_of_interest","establishment"],"user_ratings_total":123},{"business_status":"OPERATIONAL","formatted_address":"1 Av. Georges Guynemer, 31770 Colomiers","geometry":{"location":{"lat":43.6157488,"lng":1.342902},"viewport":{"northeast":{"lat":43.61709582989273,"lng":1.344194379892722},"southwest":{"lat":43.61439617010728,"lng":1.341494720107278}}},"icon":"https://maps.gstatic.com/mapfiles/place_api/icons/v1/png_71/restaurant-71.png","icon_background_color":"#FF9E67","icon_mask_base_uri":"https://maps.gstatic.com/mapfiles/place_api/icons/v2/restaurant_pinlet","name":"Cappadoce Grillades","opening_hours":{"open_now":false},"photos":[{"height":2499,"html_attributions":["<a href=\"https://maps.google.com/maps/contrib/101403019732810968987\">A Google User</a>"],"photo_reference":"AeJbb3eZMzyyJMkmTgmDWKFweuNadfxWmpbBT5Y1TOplrFWvNUdVy6rvVNOtgStRK2M-RDDSeuHdqLH2qI71GvrQ4RdDYimgq_yU_dbLkxIiW_pGnJhGvpfgADMiWP6HH1D1QzZpnM1MzDrsuX4XIfthh3T5YOECPGjEko-H_xgQ8wqOYi9g","width":3547}],"place_id":"ChIJCxQB1DuxrhIRdr-hK5VxJPk","plus_code":{"compound_code":"J88V+85 Colomiers","global_code":"8FM3J88V+85"},"price_level":2,"rating":4.3,"reference":"ChIJCxQB1DuxrhIRdr-hK5VxJPk","types":["restaurant","food","point_of_interest","establishment"],"user_ratings_total":98},{"business_status":"OPERATIONAL","formatted_address":"11 Rue Léon Gambetta, 31000 Toulouse","geometry":{"location":{"lat":43.6030056,"lng":1.4417606},"viewport":{"northeast":{"lat":43.60434322989272,"lng":1.443120929892722},"southwest":{"lat":43.60164357010728,"lng":1.440421270107278}}},"icon":"https://maps.gstatic.com/mapfiles/place_api/icons/v1/png_71/restaurant-71.png","icon_background_color":"#FF9E67","icon_mask_base_uri":"https://maps.gstatic.com/mapfiles/place_api/icons/v2/restaurant_pinlet","name":"Mac Ankara Chez Victor","opening_hours":{"open_now":false},"photos":[{"height":500,"html_attributions":["<a href=\"https://maps.google.com/maps/contrib/100515890043651068769\">sebastien Labergere</a>"],"photo_reference":"AeJbb3dF1MZYZ9RUGs0mFywFsnQb7lQmU048-flasrnbed8cInwvhn02vZk33522Kwt2zQb0QOqkEacXvEVWTRwxPyzipyBCPu3B83O5RFO80kjdD79n9sODYcv0iuSwBs9bFjlw20fza0kAKpFUorIEpgAYcnP7kRsM2YTCKioQqAeskrMn","width":736}],"place_id":"ChIJX7Z1wsu7rhIRcyrNYcX9rp8","plus_code":{"compound_code":"JC3R+6P Toulouse","global_code":"8FM3JC3R+6P"},"rating":4.3,"reference":"ChIJX7Z1wsu7rhIRcyrNYcX9rp8","types":["restaurant","point_of_interest","food","establishment"],"user_ratings_total":12},{"business_status":"OPERATIONAL","formatted_address":"25 Rue Roger Carpentier, 31700 Blagnac","geometry":{"location":{"lat":43.65296619999999,"lng":1.3742234},"viewport":{"northeast":{"lat":43.65429642989272,"lng":1.375605529892722},"southwest":{"lat":43.65159677010728,"lng":1.372905870107278}}},"icon":"https://maps.gstatic.com/mapfiles/place_api/icons/v1/png_71/restaurant-71.png","icon_background_color":"#FF9E67","icon_mask_base_uri":"https://maps.gstatic.com/mapfiles/place_api/icons/v2/restaurant_pinlet","name":"Izmir foods","opening_hours":{"open_now":false},"photos":[{"height":3250,"html_attributions":["<a href=\"https://maps.google.com/maps/contrib/101923994944627452107\">A Google User</a>"],"photo_reference":"AeJbb3dQUyj7npk2Mm2COyFDeoV-SrX_lOXhd28HzhuOcWmbOsMpvfRB3ut-wnSBOiZBMzzWk8D3cLS4K5YTPd99XHn1PDgG2tr1vIS7gTRz37SUKMoAc8hrwQyoRUANlaFjg2rSzR7C6ihbZFKeag6tiItVJEtszPJJk7p4WeuQcASvP8yK","width":5091}],"place_id":"ChIJAQDQcGalrhIRjQ7A-0tQX-U","plus_code":{"compound_code":"M93F+5M Blagnac","global_code":"8FM3M93F+5M"},"price_level":1,"rating":4.2,"reference":"ChIJAQDQcGalrhIRjQ7A-0tQX-U","types":["cafe","restaurant","food","point_of_interest","establishment"],"user_ratings_total":845},{"business_status":"OPERATIONAL","formatted_address":"151 Rte de Toulouse, 31270 Toulouse","geometry":{"location":{"lat":43.5588012,"lng":1.3657863},"viewport":{"northeast":{"lat":43.56022277989272,"lng":1.367136179892722},"southwest":{"lat":43.55752312010728,"lng":1.364436520107278}}},"icon":"https://maps.gstatic.com/mapfiles/place_api/icons/v1/png_71/restaurant-71.png","icon_background_color":"#FF9E67","icon_mask_base_uri":"https://maps.gstatic.com/mapfiles/place_api/icons/v2/restaurant_pinlet","name":"Antalya Kebab","opening_hours":{"open_now":false},"photos":[{"height":3264,"html_attributions":["<a href=\"https://maps.google.com/maps/contrib/114040185173683665252\">Diego Miretti</a>"],"photo_reference":"AeJbb3c2orDbOR7x2g21BQN_-YL0JXkPcq8rGzJuIGsrW9LpSkCZZp__RKG8So297tjkL6k7_ndGcjhicF0QqIzboMmCcVXWY4zsWOLw4Xr3bckBn33cvpq2KWlySTFr1V8dnMDj9fedONAmaPB8Jup0c01G7bEUgSgRhB-X_DIfTO2-XXeQ","width":1568}],"place_id":"ChIJA5Rn3KmwrhIRx5zeQsXpa1U","plus_code":{"compound_code":"H958+G8 Toulouse","global_code":"8FM3H958+G8"},"price_level":1,"rating":4.2,"reference":"ChIJA5Rn3KmwrhIRx5zeQsXpa1U","types":["restaurant","point_of_interest","food","establishment"],"user_ratings_total":776},{"business_status":"OPERATIONAL","formatted_address":"20 Rte de Toulouse, 31700 Cornebarrieu","geometry":{"location":{"lat":43.6508856,"lng":1.3324742},"viewport":{"northeast":{"lat":43.65226367989272,"lng":1.333848229892722},"southwest":{"lat":43.64956402010728,"lng":1.331148570107278}}},"icon":"https://maps.gstatic.com/mapfiles/place_api/icons/v1/png_71/restaurant-71.png","icon_background_color":"#FF9E67","icon_mask_base_uri":"https://maps.gstatic.com/mapfiles/place_api/icons/v2/restaurant_pinlet","name":"Escale Istanbul","opening_hours":{"open_now":false},"photos":[{"height":4224,"html_attributions":["<a href=\"https://maps.google.com/maps/contrib/114767414127137978068\">Marie Christine Vibes Bonnet</a>"],"photo_reference":"AeJbb3f4noNYGXJLWMAWd3Bg201wbjc3JjP0dYAOcenRJTQi6l5SPaQh-SCBACS-4gcMCFtHu6sM9_CYX_GrpQilD4eVsD4RSuSBprr27lQqDL5C5_NQkC9atu-o4Ayo4B7AixW-38-VEp1lKkClPDave9nN_tJUYfF5uwlfeMEfzsA0qn79","width":3136}],"place_id":"ChIJLW_S17WvrhIRYMoyZDlWbNw","plus_code":{"compound_code":"M82J+8X Cornebarrieu","global_code":"8FM3M82J+8X"},"price_level":1,"rating":4.2,"reference":"ChIJLW_S17WvrhIRYMoyZDlWbNw","types":["restaurant","point_of_interest","food","establishment"],"user_ratings_total":583},{"business_status":"OPERATIONAL","formatted_address":"77 Rte de Narbonne, 31400 Toulouse","geometry":{"location":{"lat":43.5684933,"lng":1.4565549},"viewport":{"northeast":{"lat":43.56991652989272,"lng":1.458051279892722},"southwest":{"lat":43.56721687010727,"lng":1.455351620107278}}},"icon":"https://maps.gstatic.com/mapfiles/place_api/icons/v1/png_71/restaurant-71.png","icon_background_color":"#FF9E67","icon_mask_base_uri":"https://maps.gstatic.com/mapfiles/place_api/icons/v2/restaurant_pinlet","name":"Sorami Kebab","opening_hours":{"open_now":false},"photos":[{"height":810,"html_attributions":["<a href=\"https://maps.google.com/maps/contrib/113133049855812225567\">Sorami KEBAB</a>"],"photo_reference":"AeJbb3f756sb0xCF9-U7waODOicy09IpOhlM5N63aKeciCNJmCp7preK9wVR-h-IIY59-zR-KO18fApPywzsp892mQgtj_Os3bjxX6KIxoKp_06lPkBXpOF8uNHLgmwF8yLvxzV9qZQboUnpUC06C1gGbllGEN6XAqG3FkgXOJdKcS2BvADG","width":1440}],"place_id":"ChIJJxvQCxO8rhIRh_JrTbBgwZQ","plus_code":{"compound_code":"HF94+9J Toulouse","global_code":"8FM3HF94+9J"},"price_level":1,"rating":4.2,"reference":"ChIJJxvQCxO8rhIRh_JrTbBgwZQ","types":["meal_delivery","restaurant","point_of_interest","food","establishment"],"user_ratings_total":406},{"business_status":"OPERATIONAL","formatted_address":"Rue des Écoles, 31830 Plaisance-du-Touch","geometry":{"location":{"lat":43.5669022,"lng":1.2973973},"viewport":{"northeast":{"lat":43.56821057989273,"lng":1.298692379892722},"southwest":{"lat":43.56551092010728,"lng":1.295992720107278}}},"icon":"https://maps.gstatic.com/mapfiles/place_api/icons/v1/png_71/restaurant-71.png","icon_background_color":"#FF9E67","icon_mask_base_uri":"https://maps.gstatic.com/mapfiles/place_api/icons/v2/restaurant_pinlet","name":"Rapid Grill","opening_hours":{"open_now":false},"photos":[{"height":4032,"html_attributions":["<a href=\"https://maps.google.com/maps/contrib/115160005798469376405\">A Google User</a>"],"photo_reference":"AeJbb3d1gIeQnTmX-EnArsOsjGPTgSCMpyWgJYA0OuiABFLbxqSjsEngpoAZH7g9EJJcdWTYTWLrbV_JvevgVdWwsJRR3l2rvmQ9eB02HZM7UVX0OmGN5bC5ujLHsLj5aGZNP_BQNj2t-9Fg23_YB9EAbfLVFzJ1t11SCAyPDIrsdsA7xNUK","width":3024}],"place_id":"ChIJ-Qx2w4qxrhIRqKNeO8U0ksk","plus_code":{"compound_code":"H78W+QX Plaisance-du-Touch","global_code":"8FM3H78W+QX"},"rating":4.2,"reference":"ChIJ-Qx2w4qxrhIRqKNeO8U0ksk","types":["restaurant","point_of_interest","food","establishment"],"user_ratings_total":243},{"business_status":"OPERATIONAL","formatted_address":"264 Av. de Fronton, 31200 Toulouse","geometry":{"location":{"lat":43.6481587,"lng":1.433119},"viewport":{"northeast":{"lat":43.64950752989272,"lng":1.434450529892722},"southwest":{"lat":43.64680787010728,"lng":1.431750870107278}}},"icon":"https://maps.gstatic.com/mapfiles/place_api/icons/v1/png_71/restaurant-71.png","icon_background_color":"#FF9E67","icon_mask_base_uri":"https://maps.gstatic.com/mapfiles/place_api/icons/v2/restaurant_pinlet","name":"Les saveurs d'Istanbul","opening_hours":{"open_now":false},"photos":[{"height":328,"html_attributions":["<a href=\"https://maps.google.com/maps/contrib/117200495563352927324\">A Google User</a>"],"photo_reference":"AeJbb3c7qWTemamkH4c6cS0rnlRdZpFe5DJvEtp8In71bM9mkdxPrhJ5bEyj1TObxI0A5kbdoPK2OBZV6cHqfTx5rbJGdrb7TuBemO6y3xRZBuyt-mrqX8Si3ufxZtUYUFOxii9zK_gEvcG-BqBtAYsRuTRu7QmFlOBCeVC-07L-t1SSvGTi","width":582}],"place_id":"ChIJyy6_1b-lrhIRyWv2V49pzXw","plus_code":{"compound_code":"JCXM+77 Toulouse","global_code":"8FM3JCXM+77"},"rating":4.2,"reference":"ChIJyy6_1b-lrhIRyWv2V49pzXw","types":["restaurant","food","point_of_interest","establishment"],"user_ratings_total":174},{"business_status":"OPERATIONAL","formatted_address":"28 Rue de la Colombette, 31000 Toulouse","geometry":{"location":{"lat":43.6045051,"lng":1.4521477},"viewport":{"northeast":{"lat":43.60586717989272,"lng":1.453495279892722},"southwest":{"lat":43.60316752010727,"lng":1.450795620107278}}},"icon":"https://maps.gstatic.com/mapfiles/place_api/icons/v1/png_71/restaurant-71.png","icon_background_color":"#FF9E67","icon_mask_base_uri":"https://maps.gstatic.com/mapfiles/place_api/icons/v2/restaurant_pinlet","name":"The big Blue","opening_hours":{"open_now":false},"photos":[{"height":3472,"html_attributions":["<a href=\"https://maps.google.com/maps/contrib/110499646517140310848\">Antoine Racha</a>"],"photo_reference":"AeJbb3dTLzLvvprhyZoWPmIsUbZ7ycG64EIAhUECZC2lOtAI4olAjTqeFg_K3e85cokIlrOLf3Hpk-EfMBe42OlbrlIP7K-MP6ptL22K-oF18A_2Tfj8nv353x4u2AqN6KJ1dj8k0KHaftpM-GwT2M6t_1dTTU-plnx0WzsqwVGbLCg_3rUn","width":4624}],"place_id":"ChIJu6VM9Jm8rhIRTGMfHR5iOqM","plus_code":{"compound_code":"JF32+RV Toulouse","global_code":"8FM3JF32+RV"},"price_level":1,"rating":4.2,"reference":"ChIJu6VM9Jm8rhIRTGMfHR5iOqM","types":["restaurant","food","point_of_interest","establishment"],"user_ratings_total":140},{"business_status":"OPERATIONAL","formatted_address":"64 Bd de Strasbourg, 31000 Toulouse","geometry":{"location":{"lat":43.6099602,"lng":1.4445935},"viewport":{"northeast":{"lat":43.61131077989272,"lng":1.445929529892722},"southwest":{"lat":43.60861112010728,"lng":1.443229870107278}}},"icon":"https://maps.gstatic.com/mapfiles/place_api/icons/v1/png_71/restaurant-71.png","icon_background_color":"#FF9E67","icon_mask_base_uri":"https://maps.gstatic.com/mapfiles/place_api/icons/v2/restaurant_pinlet","name":"Au Mangez Moi","opening_hours":{"open_now":true},"photos":[{"height":3024,"html_attributions":["<a href=\"https://maps.google.com/maps/contrib/110357959396691887585\">Pbenvine</a>"],"photo_reference":"AeJbb3fBOz1HPI8IXbdvU5xsLHPcg_shqOWoQvswvJLP-NUkudd8pxgM7kGNuvoLWD5kxIQDmaW1NT2u4tD7wtXTqymZJRsaC9uSjFEpEVimVliyla0Cj83RN67DB8ScmXvvzKGtRc8UVg-IzXlRMhCpNEj0cKTOFWtDzF0Ybh88vGl44lMe","width":4032}],"place_id":"ChIJlau5F6C8rhIRnMWqignCnZc","plus_code":{"compound_code":"JC5V+XV Toulouse","global_code":"8FM3JC5V+XV"},"price_level":1,"rating":4.2,"reference":"ChIJlau5F6C8rhIRnMWqignCnZc","types":["restaurant","food","point_of_interest","establishment"],"user_ratings_total":115},{"business_status":"OPERATIONAL","formatted_address":"67 Allées Maurice Sarraut, 31300 Toulouse","geometry":{"location":{"lat":43.5918038,"lng":1.4196482},"viewport":{"northeast":{"lat":43.59321787989272,"lng":1.420894679892722},"southwest":{"lat":43.59051822010728,"lng":1.418195020107278}}},"icon":"https://maps.gstatic.com/mapfiles/place_api/icons/v1/png_71/restaurant-71.png","icon_background_color":"#FF9E67","icon_mask_base_uri":"https://maps.gstatic.com/mapfiles/place_api/icons/v2/restaurant_pinlet","name":"Shah Jahan Foods","opening_hours":{"open_now":false},"photos":[{"height":300,"html_attributions":["<a href=\"https://maps.google.com/maps/contrib/116426283417631059727\">A Google User</a>"],"photo_reference":"AeJbb3cU71_ay7cGJ-E-_sDTLDoaHSkfE6C9zK9Le3SZlrOKgzeTTpNMLY_oljSlBdKRujGvA80aAQ4L23NZJqwtOcdQYWswRyaz0E38fAob6wRTLAXR5skKmzLaS7LmqKKMznaWl9AgC7rX27rPkE2niKWifgh04vVNngeQgzn-zm8PzDaE","width":450}],"place_id":"ChIJA9_oLG-7rhIRLf0KUtiMPls","plus_code":{"compound_code":"HCR9+PV Toulouse","global_code":"8FM3HCR9+PV"},"rating":4.2,"reference":"ChIJA9_oLG-7rhIRLf0KUtiMPls","types":["restaurant","food","point_of_interest","establishment"],"user_ratings_total":56},{"business_status":"OPERATIONAL","formatted_address":"26 Rue de Bayard, 31000 Toulouse","geometry":{"location":{"lat":43.6090095,"lng":1.4482501},"viewport":{"northeast":{"lat":43.61035847989272,"lng":1.449600829892722},"southwest":{"lat":43.60765882010728,"lng":1.446901170107278}}},"icon":"https://maps.gstatic.com/mapfiles/place_api/icons/v1/png_71/restaurant-71.png","icon_background_color":"#FF9E67","icon_mask_base_uri":"https://maps.gstatic.com/mapfiles/place_api/icons/v2/restaurant_pinlet","name":"Restaurant L’ AMAZIGH","opening_hours":{"open_now":false},"photos":[{"height":1836,"html_attributions":["<a href=\"https://maps.google.com/maps/contrib/114326065644128836167\">Coco Balsan</a>"],"photo_reference":"AeJbb3ddGMRIJze74-_b62kEZe-pGya6xXxISd7WlhLwXMzHDjEZ4VBb-EqbCd_tbZFoirMm_qQ7ZMI5Ki4QmpKcUSIIPdbITaRPMcFFOht0U7Zg-js1YeSsrjQafli3exmQuBCDGO6sx00YziPzC_BBuI-Hhs5y7QOI2WuWDcnb-E2jJKg6","width":3264}],"place_id":"ChIJX_3YVJ-8rhIRXlGLGBwLp80","plus_code":{"compound_code":"JC5X+H8 Toulouse","global_code":"8FM3JC5X+H8"},"rating":4.2,"reference":"ChIJX_3YVJ-8rhIRXlGLGBwLp80","types":["restaurant","point_of_interest","food","establishment"],"user_ratings_total":46},{"business_status":"OPERATIONAL","formatted_address":"26 Bd Victor Hugo, 31770 Colomiers","geometry":{"location":{"lat":43.6158398,"lng":1.3110424},"viewport":{"northeast":{"lat":43.61720557989272,"lng":1.312332929892722},"southwest":{"lat":43.61450592010728,"lng":1.309633270107278}}},"icon":"https://maps.gstatic.com/mapfiles/place_api/icons/v1/png_71/restaurant-71.png","icon_background_color":"#FF9E67","icon_mask_base_uri":"https://maps.gstatic.com/mapfiles/place_api/icons/v2/restaurant_pinlet","name":"Istanbul Grillade","opening_hours":{"open_now":false},"photos":[{"height":3840,"html_attributions":["<a href=\"https://maps.google.com/maps/contrib/105792046811365677755\">Mithun V N</a>"],"photo_reference":"AeJbb3elIrC2I1kX_fYwh-KmhTjLzAmw8Mv9BSiqga1hlb32s3W_b0RGwIKs1KO5Df4RVQrWoMDS8f29fGiYIOgisKcWfhpdloZ84goJeqkiHURkhOKlJi7gubBHXKZj0kAeAPle1SefgRHWtTzPuGxvwQO8ti_FL-jNgSU1DY5vuzcVxDRr","width":2160}],"place_id":"ChIJH50bz8OxrhIRbnW5_svqyp0","plus_code":{"compound_code":"J886+8F Colomiers","global_code":"8FM3J886+8F"},"price_level":1,"rating":4.1,"reference":"ChIJH50bz8OxrhIRbnW5_svqyp0","types":["restaurant","point_of_interest","food","establishment"],"user_ratings_total":514},{"business_status":"OPERATIONAL","formatted_address":"35 Rue Pargaminières, 31000 Toulouse","geometry":{"location":{"lat":43.6041746,"lng":1.4379931},"viewport":{"northeast":{"lat":43.60558787989272,"lng":1.439314829892722},"southwest":{"lat":43.60288822010727,"lng":1.436615170107278}}},"icon":"https://maps.gstatic.com/mapfiles/place_api/icons/v1/png_71/restaurant-71.png","icon_background_color":"#FF9E67","icon_mask_base_uri":"https://maps.gstatic.com/mapfiles/place_api/icons/v2/restaurant_pinlet","name":"Adana Kebab","opening_hours":{"open_now":false},"photos":[{"height":4032,"html_attributions":["<a href=\"https://maps.google.com/maps/contrib/111965137111836249700\">Marie France</a>"],"photo_reference":"AeJbb3fCgW4kE_n6FXEk_Uylwo3p2ui2OT0V6-zerRn_LXkB4iwagXiN8tG5Pcy3NCzRu2KPghnOMR0riMORkrbGeCXEp3k8aMnGqDtuxo5Q2ixF6XZdvYrgU0Yoewq6vzTtUYCGlsvnWH2CgwLq3CATqlYrCqTQDcfdEO5crvF0H1UQIh3C","width":3024}],"place_id":"ChIJqYFFG2S7rhIRBU-5ZimpxO4","plus_code":{"compound_code":"JC3Q+M5 Toulouse","global_code":"8FM3JC3Q+M5"},"price_level":1,"rating":4.1,"reference":"ChIJqYFFG2S7rhIRBU-5ZimpxO4","types":["restaurant","point_of_interest","food","establishment"],"user_ratings_total":286},{"business_status":"OPERATIONAL","formatted_address":"3 Av. de Grande Bretagne, 31300 Toulouse","geometry":{"location":{"lat":43.5966183,"lng":1.4223294},"viewport":{"northeast":{"lat":43.59799967989272,"lng":1.423725129892722},"southwest":{"lat":43.59530002010727,"lng":1.421025470107278}}},"icon":"https://maps.gstatic.com/mapfiles/place_api/icons/v1/png_71/restaurant-71.png","icon_background_color":"#FF9E67","icon_mask_base_uri":"https://maps.gstatic.com/mapfiles/place_api/icons/v2/restaurant_pinlet","name":"Best of India","opening_hours":{"open_now":false},"photos":[{"height":3120,"html_attributions":["<a href=\"https://maps.google.com/maps/contrib/102978084982025612869\">A Google User</a>"],"photo_reference":"AeJbb3fJhWhuubuNlf1P2Ex7XsEBZkhIiKpTPWcQ-rWg01hEjvx2YyEvf3k8ujFxywsy0hHoM5F3Px2RcG44hGTOtkbdCYwnHk0lzqdzKMpXvg-b0-UnrITfQzqqX9jVHOlcMqpir5eIAN7I81gZMSxOFGuU2BWizwDUrGjJbCfL7pZzpGld","width":4160}],"place_id":"ChIJAQDw7Qy7rhIRN7zTjUcG9K8","plus_code":{"compound_code":"HCWC+JW Toulouse","global_code":"8FM3HCWC+JW"},"rating":4.1,"reference":"ChIJAQDw7Qy7rhIRN7zTjUcG9K8","types":["restaurant","food","point_of_interest","establishment"],"user_ratings_total":246},{"business_status":"OPERATIONAL","formatted_address":"5 Rue du Pont Saint-Pierre, 31300 Toulouse","geometry":{"location":{"lat":43.5987191,"lng":1.4323834},"viewport":{"northeast":{"lat":43.60003342989272,"lng":1.433688779892722},"southwest":{"lat":43.59733377010728,"lng":1.430989120107278}}},"icon":"https://maps.gstatic.com/mapfiles/place_api/icons/v1/png_71/restaurant-71.png","icon_background_color":"#FF9E67","icon_mask_base_uri":"https://maps.gstatic.com/mapfiles/place_api/icons/v2/restaurant_pinlet","name":"Amine Kebab","opening_hours":{"open_now":false},"photos":[{"height":640,"html_attributions":["<a href=\"https://maps.google.com/maps/contrib/113953003275826354791\">Yani Prieur</a>"],"photo_reference":"AeJbb3cDp8lTEm_5h4PqPEvxvvBptHoZJaDbduv5ZcUi5SOg31LIQ6OcVKyEp2m4FzNGYbObwAZaMF5W7xdoYCmQ4AG4i6CNXfvgShsDzt7euY4IcI9HElvFE8uSSw-3d0zoR51disz924BZ5cRAWIbmUbm8vPaGHTFXa1NzQOE3KfC4obgl","width":640}],"place_id":"ChIJFVFKP3C7rhIRZUrn8u_bP1s","plus_code":{"compound_code":"HCXJ+FX Toulouse","global_code":"8FM3HCXJ+FX"},"price_level":1,"rating":4.1,"reference":"ChIJFVFKP3C7rhIRZUrn8u_bP1s","types":["restaurant","point_of_interest","food","establishment"],"user_ratings_total":216},{"business_status":"OPERATIONAL","formatted_address":"6-8 Av. Honoré Serres, 31000 Toulouse","geometry":{"location":{"lat":43.6121336,"lng":1.4386505},"viewport":{"northeast":{"lat":43.61347042989272,"lng":1.439950579892722},"southwest":{"lat":43.61077077010728,"lng":1.437250920107278}}},"icon":"https://maps.gstatic.com/mapfiles/place_api/icons/v1/png_71/restaurant-71.png","icon_background_color":"#FF9E67","icon_mask_base_uri":"https://maps.gstatic.com/mapfiles/place_api/icons/v2/restaurant_pinlet","name":"Eftelya Kebab","opening_hours":{"open_now":false},"photos":[{"height":4032,"html_attributions":["<a href=\"https://maps.google.com/maps/contrib/115253589753816368947\">Anays Da Silva</a>"],"photo_reference":"AeJbb3c5WHSeW3wx6NUvwOIAj8vtMcKVlEzUxrUDYbGxQIL8udYVyjl2WkJW96OhwBMVn3_8xKm22duyLSevW7YVNwb55S4ktC327WAXTGGK4IO8Zdgdb_SQifNcl4xV6j-VZLU591KKfjA91Nah2FpFVCm9k8Qr5SqFqq1tijfHK3yIx2wf","width":3024}],"place_id":"ChIJ971igl67rhIRWHTwBVFQGEI","plus_code":{"compound_code":"JC6Q+VF Toulouse","global_code":"8FM3JC6Q+VF"},"price_level":1,"rating":4.1,"reference":"ChIJ971igl67rhIRWHTwBVFQGEI","types":["restaurant","point_of_interest","food","establishment"],"user_ratings_total":192},{"business_status":"OPERATIONAL","formatted_address":"9 Pl. Alfred Sauvy, 31270 Cugnaux","geometry":{"location":{"lat":43.5354237,"lng":1.3635515},"viewport":{"northeast":{"lat":43.53677217989272,"lng":1.364932979892722},"southwest":{"lat":43.53407252010728,"lng":1.362233320107278}}},"icon":"https://maps.gstatic.com/mapfiles/place_api/icons/v1/png_71/restaurant-71.png","icon_background_color":"#FF9E67","icon_mask_base_uri":"https://maps.gstatic.com/mapfiles/place_api/icons/v2/restaurant_pinlet","name":"KEBAB Keeb Naan","opening_hours":{"open_now":false},"photos":[{"height":3024,"html_attributions":["<a href=\"https://maps.google.com/maps/contrib/114365127355332718925\">Dragonfire 3122</a>"],"photo_reference":"AeJbb3fG70Jm95f6gEO9sWbhPrHryoru3gves4e0WJXYZJ9o6TQQQjDxs8LKmazRTpY7PlGq7LnZ41yaWpFPWgGfRA7LM7CQTdHDbGge3pV5Y8L1Zn5FCWK1D1Bxv1vAg0vcmjyQBXKSIZKM6BpVF4jMzb4dpauTFKIuQuKyWDWrC-EjbPRL","width":4032}],"place_id":"ChIJW6XpU163rhIRegFm8vQOeJI","plus_code":{"compound_code":"G9P7+5C Cugnaux","global_code":"8FM3G9P7+5C"},"price_level":1,"rating":4.1,"reference":"ChIJW6XpU163rhIRegFm8vQOeJI","types":["restaurant","food","point_of_interest","establishment"],"user_ratings_total":174},{"business_status":"OPERATIONAL","formatted_address":"6 Pl. Marnac, 31520 Ramonville-Saint-Agne","geometry":{"location":{"lat":43.54728129999999,"lng":1.4774757},"viewport":{"northeast":{"lat":43.54859432989272,"lng":1.478882329892722},"southwest":{"lat":43.54589467010728,"lng":1.476182670107278}}},"icon":"https://maps.gstatic.com/mapfiles/place_api/icons/v1/png_71/restaurant-71.png","icon_background_color":"#FF9E67","icon_mask_base_uri":"https://maps.gstatic.com/mapfiles/place_api/icons/v2/restaurant_pinlet","name":"Ali Kebab","opening_hours":{"open_now":false},"photos":[{"height":4608,"html_attributions":["<a href=\"https://maps.google.com/maps/contrib/103438180879402464981\">pablo arce</a>"],"photo_reference":"AeJbb3fsiXi7gZCSUQKjolYClrxUBKubTQlMzttOvHOj-Ezycj8WFxBArIoG92diflTrl1fCoBSli8rDw_JvPS19AHRvY4YNTBMrnsi0ftBh03_XoWU3s1D8NGqnE52l4i5Dg9GAyyrNVdjIUcC4SDDrZH7zvR1m8GhyL86t6FG3fShxEy4o","width":3456}],"place_id":"ChIJP-VXWYG-rhIRYG1QWDiwWiI","plus_code":{"compound_code":"GFWG+WX Ramonville-Saint-Agne","global_code":"8FM3GFWG+WX"},"price_level":1,"rating":4.1,"reference":"ChIJP-VXWYG-rhIRYG1QWDiwWiI","types":["restaurant","food","point_of_interest","establishment"],"user_ratings_total":145},{"business_status":"OPERATIONAL","formatted_address":"1 Rue Jean Moulin, 31830 Plaisance-du-Touch","geometry":{"location":{"lat":43.5627301,"lng":1.2886898},"viewport":{"northeast":{"lat":43.56417217989272,"lng":1.290172429892722},"southwest":{"lat":43.56147252010728,"lng":1.287472770107278}}},"icon":"https://maps.gstatic.com/mapfiles/place_api/icons/v1/png_71/restaurant-71.png","icon_background_color":"#FF9E67","icon_mask_base_uri":"https://maps.gstatic.com/mapfiles/place_api/icons/v2/restaurant_pinlet","name":"ADDICT FOOD GRILL","opening_hours":{"open_now":false},"photos":[{"height":1024,"html_attributions":["<a href=\"https://maps.google.com/maps/contrib/111873265438342523176\">A Google User</a>"],"photo_reference":"AeJbb3eMKLD0OxP6zStLz4vmE0iQ1yr_rZHd2WOA0ap0jFRIf4edfHGI0cNWNN5_aAX3hpZR9xPiR673XZauDYBEdOw6amwopleb0Tc2fKBdFd5cV913b2MAdBdQVD-yc_yaK7MR5--Xs0i7IDMIDyf-nJ8qWPCb1pChMQgQEHVLlm1rtXLn","width":1280}],"place_id":"ChIJjxGqKZCzrhIR2MCDPNjlWbU","plus_code":{"compound_code":"H77Q+3F Plaisance-du-Touch","global_code":"8FM3H77Q+3F"},"price_level":1,"rating":4.1,"reference":"ChIJjxGqKZCzrhIR2MCDPNjlWbU","types":["restaurant","food","point_of_interest","establishment"],"user_ratings_total":79},{"business_status":"OPERATIONAL","formatted_address":"46 Rue du Ctre, 31770 Colomiers","geometry":{"location":{"lat":43.6110317,"lng":1.3332186},"viewport":{"northeast":{"lat":43.61239952989273,"lng":1.334536079892722},"southwest":{"lat":43.60969987010728,"lng":1.331836420107278}}},"icon":"https://maps.gstatic.com/mapfiles/place_api/icons/v1/png_71/restaurant-71.png","icon_background_color":"#FF9E67","icon_mask_base_uri":"https://maps.gstatic.com/mapfiles/place_api/icons/v2/restaurant_pinlet","name":"Nan Kebab","opening_hours":{"open_now":false},"photos":[{"height":4000,"html_attributions":["<a href=\"https://maps.google.com/maps/contrib/113320691499315909119\">Rouply Adam</a>"],"photo_reference":"AeJbb3eEC9p-YjG6IbxzLYcVP0tci2uyLED3Zm73MjMBTyhV7NYO_Au4dzJ0qERlOhCcJuTiVLcmYMNIDdnsIsu5fb4mAncnOwfvLnifsJJwXCmBzPpbSO9iqwfqcJlpHfjxh5ZJuuFKN-riNBVlcIAWdjdwH4xa8ExXzgmyu-LRs6Nzw3yG","width":2252}],"place_id":"ChIJgUG1HDawrhIR_aAk_dqz4Z8","plus_code":{"compound_code":"J86M+C7 Colomiers","global_code":"8FM3J86M+C7"},"rating":4.1,"reference":"ChIJgUG1HDawrhIR_aAk_dqz4Z8","types":["restaurant","point_of_interest","food","establishment"],"user_ratings_total":15},{"business_status":"OPERATIONAL","formatted_address":"10 Pl. Lafourcade, 31400 Toulouse","geometry":{"location":{"lat":43.5923434,"lng":1.4442887},"viewport":{"northeast":{"lat":43.59369292989273,"lng":1.445779479892722},"southwest":{"lat":43.59099327010728,"lng":1.443079820107278}}},"icon":"https://maps.gstatic.com/mapfiles/place_api/icons/v1/png_71/restaurant-71.png","icon_background_color":"#FF9E67","icon_mask_base_uri":"https://maps.gstatic.com/mapfiles/place_api/icons/v2/restaurant_pinlet","name":"Le Regal d'Orient","opening_hours":{"open_now":true},"photos":[{"height":3024,"html_attributions":["<a href=\"https://maps.google.com/maps/contrib/103212486670063070215\">A Google User</a>"],"photo_reference":"AeJbb3faczXlw1G0tkpEnyo8jYiZl8jG05Otfjwob0JleGMgz36cC04bAKG77VDP3AKhWd4ty18TzSokMShR3-VqoQL5C3B2b-Qk2To9f6gfZjhNf6xe6uh9YLiPcoNvrxZZMvlJREWWNgAKipp-38M43D--HpHpiy8Ta0NuJrg4ilxiDWTz","width":4032}],"place_id":"ChIJY_CgM4C8rhIRXXNINPeqmSc","plus_code":{"compound_code":"HCRV+WP Toulouse","global_code":"8FM3HCRV+WP"},"price_level":1,"rating":4,"reference":"ChIJY_CgM4C8rhIRXXNINPeqmSc","types":["restaurant","food","point_of_interest","establishment"],"user_ratings_total":462},{"business_status":"OPERATIONAL","formatted_address":"46 Bd Lazare Carnot, 31000 Toulouse","geometry":{"location":{"lat":43.6046109,"lng":1.4501522},"viewport":{"northeast":{"lat":43.60596967989272,"lng":1.451420929892722},"southwest":{"lat":43.60327002010727,"lng":1.448721270107278}}},"icon":"https://maps.gstatic.com/mapfiles/place_api/icons/v1/png_71/restaurant-71.png","icon_background_color":"#FF9E67","icon_mask_base_uri":"https://maps.gstatic.com/mapfiles/place_api/icons/v2/restaurant_pinlet","name":"Istanbul Kebab","opening_hours":{"open_now":false},"photos":[{"height":3000,"html_attributions":["<a href=\"https://maps.google.com/maps/contrib/105562068776078574563\">A Google User</a>"],"photo_reference":"AeJbb3efH540cSaUDnv_tJuM7kUzTX-NFAizYVOrZcQhB93vXXpgrKHHy2KB6V_3j0wNIdHhW0MYUbHUlcvz7NVu_WGhNNRYQi1RcCDLaVAT90ZoqKM5OeOphpiADNCFPnpO8NvbNPfLKeXzEqR5Z4eRPjJf9qBRr8b51LCbC99VN9tszUaU","width":3999}],"place_id":"ChIJ247jYpm8rhIRVme2pxZESoI","plus_code":{"compound_code":"JF32+R3 Toulouse","global_code":"8FM3JF32+R3"},"price_level":1,"rating":4,"reference":"ChIJ247jYpm8rhIRVme2pxZESoI","types":["restaurant","point_of_interest","food","establishment"],"user_ratings_total":454},{"business_status":"OPERATIONAL","formatted_address":"rue des 31000, 6 Rue des Lois, 31000 Toulouse","geometry":{"location":{"lat":43.60504359999999,"lng":1.4425074},"viewport":{"northeast":{"lat":43.60640172989272,"lng":1.443825779892722},"southwest":{"lat":43.60370207010727,"lng":1.441126120107278}}},"icon":"https://maps.gstatic.com/mapfiles/place_api/icons/v1/png_71/restaurant-71.png","icon_background_color":"#FF9E67","icon_mask_base_uri":"https://maps.gstatic.com/mapfiles/place_api/icons/v2/restaurant_pinlet","name":"Restaurant Bodrum","opening_hours":{"open_now":false},"photos":[{"height":4160,"html_attributions":["<a href=\"https://maps.google.com/maps/contrib/100119894485272133177\">Nathalie Fauré</a>"],"photo_reference":"AeJbb3d_lkDUX5kbkFc0O0bpVKcWnzr2Z_HT9BTAkaB3vI6ijOfQ0efF6QMFYJAUv4mkB_Rd87ThUbBHxEPYmwY0atu8pxm3O3ZegUWXftpRQ42Gr3MGFggPIzrA2O0ITjNeK53ev2zyEvN1g6jN3O6yAmAIFFSiABA-YxPe2gQRz0DBalBS","width":3120}],"place_id":"ChIJ96sO8mG7rhIRw300qRvtj7Y","plus_code":{"compound_code":"JC4V+22 Toulouse","global_code":"8FM3JC4V+22"},"price_level":1,"rating":4,"reference":"ChIJ96sO8mG7rhIRw300qRvtj7Y","types":["restaurant","point_of_interest","food","establishment"],"user_ratings_total":336},{"business_status":"OPERATIONAL","formatted_address":"43 Bd de Strasbourg, 31000 Toulouse","geometry":{"location":{"lat":43.6087683,"lng":1.4451806},"viewport":{"northeast":{"lat":43.61012082989272,"lng":1.446600629892722},"southwest":{"lat":43.60742117010727,"lng":1.443900970107278}}},"icon":"https://maps.gstatic.com/mapfiles/place_api/icons/v1/png_71/restaurant-71.png","icon_background_color":"#FF9E67","icon_mask_base_uri":"https://maps.gstatic.com/mapfiles/place_api/icons/v2/restaurant_pinlet","name":"Mak Food","opening_hours":{"open_now":false},"photos":[{"height":3120,"html_attributions":["<a href=\"https://maps.google.com/maps/contrib/102856731315248486910\">Mehdi BEN NACEUR</a>"],"photo_reference":"AeJbb3fGjf0Zf8svqq1REGjP5ed6eLituIBfNrCmY1O1FlIc4lkhCxA481IHoUa5miWJTK31pLYiJpmfCZ0En9qY2XPHgX4Otwr7R__XP1geDbQQ1Or_oxLvhbJSdkI6qXZF00OGEUTE5-jgN7z0zdDxdac8zFgdazg8z_5CilOr1QVPCf20","width":4160}],"place_id":"ChIJ1RLgjp-8rhIRBMfROj8DDeU","plus_code":{"compound_code":"JC5W+F2 Toulouse","global_code":"8FM3JC5W+F2"},"price_level":1,"rating":4,"reference":"ChIJ1RLgjp-8rhIRBMfROj8DDeU","types":["restaurant","point_of_interest","food","establishment"],"user_ratings_total":313},{"business_status":"OPERATIONAL","formatted_address":"9 Pass. du Ségala, 31770 Colomiers","geometry":{"location":{"lat":43.61078759999999,"lng":1.3323887},"viewport":{"northeast":{"lat":43.61212172989273,"lng":1.333635229892722},"southwest":{"lat":43.60942207010729,"lng":1.330935570107278}}},"icon":"https://maps.gstatic.com/mapfiles/place_api/icons/v1/png_71/restaurant-71.png","icon_background_color":"#FF9E67","icon_mask_base_uri":"https://maps.gstatic.com/mapfiles/place_api/icons/v2/restaurant_pinlet","name":"Izmir Grillades","opening_hours":{"open_now":true},"photos":[{"height":667,"html_attributions":["<a href=\"https://maps.google.com/maps/contrib/113184324729479681867\">A Google User</a>"],"photo_reference":"AeJbb3cYBOBn33rQmBXmNAp3gcinhVrV_aitjV53TgtrItZhgT_4q52Atr6C3dfs3movXfUoyPzPdcSzvAlJRjTt9B7PyBCV6-Pya4WNnt6GI1UvGinJPXjrO-SpvVCowVmpimc3-x6u0IxM80STsZAAmhkawH0tuAbqNuODHaz-6JuiLfba","width":1000}],"place_id":"ChIJExZY_jWwrhIRZJlIItnVw2k","plus_code":{"compound_code":"J86J+8W Colomiers","global_code":"8FM3J86J+8W"},"price_level":1,"rating":4,"reference":"ChIJExZY_jWwrhIRZJlIItnVw2k","types":["restaurant","food","point_of_interest","establishment"],"user_ratings_total":194},{"business_status":"OPERATIONAL","formatted_address":"133 Rue Henri Desbals, 31100 Toulouse","geometry":{"location":{"lat":43.5809813,"lng":1.4127825},"viewport":{"northeast":{"lat":43.58237557989272,"lng":1.414177529892722},"southwest":{"lat":43.57967592010728,"lng":1.411477870107278}}},"icon":"https://maps.gstatic.com/mapfiles/place_api/icons/v1/png_71/restaurant-71.png","icon_background_color":"#FF9E67","icon_mask_base_uri":"https://maps.gstatic.com/mapfiles/place_api/icons/v2/restaurant_pinlet","name":"Tacos Nan Kebab","opening_hours":{"open_now":false},"photos":[{"height":1080,"html_attributions":["<a href=\"https://maps.google.com/maps/contrib/117340485792424448008\">Moustapha Sow</a>"],"photo_reference":"AeJbb3dN9rNzW5bm7YB0iKj_TC6YwUBntDJuQVoWWqTwufDoeQWJErvS3QvlBqU6qZ-FEMzGBc3ECcuVlQ0ZaB4qwSSPVN3mEITDgJK-aO36c4hKh5-kdcLIAsqv33__nO0A5G9TRevFeSgzH8TloqxIZGKnVit3zk8WZ5HVF269opKFWhk8","width":1920}],"place_id":"ChIJswKr2a-7rhIRvU79tmFOdmA","plus_code":{"compound_code":"HCJ7+94 Toulouse","global_code":"8FM3HCJ7+94"},"rating":4,"reference":"ChIJswKr2a-7rhIRvU79tmFOdmA","types":["restaurant","point_of_interest","food","establishment"],"user_ratings_total":50},{"business_status":"OPERATIONAL","formatted_address":"7 Pl. Arnaud Bernard, 31000 Toulouse","geometry":{"location":{"lat":43.6110292,"lng":1.4387375},"viewport":{"northeast":{"lat":43.61257532989272,"lng":1.440101829892722},"southwest":{"lat":43.60987567010727,"lng":1.437402170107278}}},"icon":"https://maps.gstatic.com/mapfiles/place_api/icons/v1/png_71/restaurant-71.png","icon_background_color":"#FF9E67","icon_mask_base_uri":"https://maps.gstatic.com/mapfiles/place_api/icons/v2/restaurant_pinlet","name":"Dounia Kebab","opening_hours":{"open_now":true},"photos":[{"height":576,"html_attributions":["<a href=\"https://maps.google.com/maps/contrib/103090814820468936162\">A Google User</a>"],"photo_reference":"AeJbb3ebaSSD0xIIPkewJAxuZtYP1oe29otg3ctsruawH2Z9L2KMqPH8-iZ0q-uoJwRNHQtI4KqykuA1bBUT408_QlnPVO0CemE7WfZSxYefDosvRQFZiiMRMEnXEWtaltfOiZ8Zgjv2QQQYlj6zSpNsT1MzbRArl47JpIkQPY342485hzt7","width":1024}],"place_id":"ChIJ12mid167rhIRG5WEqOAyOFk","plus_code":{"compound_code":"JC6Q+CF Toulouse","global_code":"8FM3JC6Q+CF"},"rating":4,"reference":"ChIJ12mid167rhIRG5WEqOAyOFk","types":["restaurant","point_of_interest","food","establishment"],"user_ratings_total":31},{"business_status":"OPERATIONAL","formatted_address":"1 Rue Jean Moulin, 31830 Plaisance-du-Touch","geometry":{"location":{"lat":43.5627301,"lng":1.2886898},"viewport":{"northeast":{"lat":43.56417217989272,"lng":1.290172429892722},"southwest":{"lat":43.56147252010728,"lng":1.287472770107278}}},"icon":"https://maps.gstatic.com/mapfiles/place_api/icons/v1/png_71/restaurant-71.png","icon_background_color":"#FF9E67","icon_mask_base_uri":"https://maps.gstatic.com/mapfiles/place_api/icons/v2/restaurant_pinlet","name":"NAOUEL KEBAB","opening_hours":{"open_now":false},"photos":[{"height":540,"html_attributions":["<a href=\"https://maps.google.com/maps/contrib/105790342940580307690\">A Google User</a>"],"photo_reference":"AeJbb3dxp5_yKk-slu13MJSN6EiTuR02MthnaybxjIr2eqFhj7XhGPfM68MbnQ_w_Yy2uKMfbT0-Clm_8E3kfvDehPpc-t0_b5DFQ5Ql2Et_7pBL0Xj5CPYINVufxna8P_v7znJtw8-omREYk6NHxJyBycKIfwnQ-tZngTpz50zFR_mroEAO","width":960}],"place_id":"ChIJe6OvcOyzrhIRJkiV4j9VKaY","plus_code":{"compound_code":"H77Q+3F Plaisance-du-Touch","global_code":"8FM3H77Q+3F"},"rating":4,"reference":"ChIJe6OvcOyzrhIRJkiV4j9VKaY","types":["restaurant","food","point_of_interest","establishment"],"user_ratings_total":5},{"business_status":"OPERATIONAL","formatted_address":"55 Bd de Strasbourg, 31000 Toulouse","geometry":{"location":{"lat":43.6093845,"lng":1.4445394},"viewport":{"northeast":{"lat":43.61076817989272,"lng":1.445949479892722},"southwest":{"lat":43.60806852010727,"lng":1.443249820107278}}},"icon":"https://maps.gstatic.com/mapfiles/place_api/icons/v1/png_71/restaurant-71.png","icon_background_color":"#FF9E67","icon_mask_base_uri":"https://maps.gstatic.com/mapfiles/place_api/icons/v2/restaurant_pinlet","name":"Kebab Café","opening_hours":{"open_now":false},"photos":[{"height":3024,"html_attributions":["<a href=\"https://maps.google.com/maps/contrib/111195078784061544863\">Vu Thanh Long NGUYEN</a>"],"photo_reference":"AeJbb3e4q3Lq9SuyyEkuuamlEkj-uOEwvRSvi9cNuT6EBkWoSfOR1jC1R0DZtOrxfG2SrrqigIbOI_fpmMFio4ga1rxwumHPTbJ6YyHJySDHAKTgxk2GHQv9qvt5-5AimaA2JoKhGvWRdN-zsk8lkmedHxirpp8DCVpgahcorQgMrnD7OaBQ","width":4032}],"place_id":"ChIJuVKRCKC8rhIRzTfnGI-PkAY","plus_code":{"compound_code":"JC5V+QR Toulouse","global_code":"8FM3JC5V+QR"},"price_level":1,"rating":3.9,"reference":"ChIJuVKRCKC8rhIRzTfnGI-PkAY","types":["restaurant","point_of_interest","food","establishment"],"user_ratings_total":1047},{"business_status":"OPERATIONAL","formatted_address":"69 Bd Déodat de Sévérac, 31300 Toulouse","geometry":{"location":{"lat":43.5879615,"lng":1.4239763},"viewport":{"northeast":{"lat":43.58933307989273,"lng":1.425350029892722},"southwest":{"lat":43.58663342010728,"lng":1.422650370107278}}},"icon":"https://maps.gstatic.com/mapfiles/place_api/icons/v1/png_71/restaurant-71.png","icon_background_color":"#FF9E67","icon_mask_base_uri":"https://maps.gstatic.com/mapfiles/place_api/icons/v2/restaurant_pinlet","name":"Le Soleil d'Istanbul","opening_hours":{"open_now":false},"photos":[{"height":2342,"html_attributions":["<a href=\"https://maps.google.com/maps/contrib/115626331615403436083\">A Google User</a>"],"photo_reference":"AeJbb3c5a4A8-RHq4fWEDg6Oth9R6vk8ETicH1UIZvTMEknMzI6Pkl_qlPlm3EKN-LkEX9_PQrygkjC5fLPj1sh3vmSYdbpKpyeikoTZ4C6BRORvZkM1UAWnoy-KGoBhi1Dl00BgC5nnGnICjzT5AXy31TShYd8oB5qYMsY0Dy5xN3bn0-8H","width":3527}],"place_id":"ChIJc2Y6LqC7rhIRLfBysRjUZHc","plus_code":{"compound_code":"HCQF+5H Toulouse","global_code":"8FM3HCQF+5H"},"price_level":1,"rating":3.9,"reference":"ChIJc2Y6LqC7rhIRLfBysRjUZHc","types":["meal_takeaway","restaurant","point_of_interest","food","establishment"],"user_ratings_total":307},{"business_status":"OPERATIONAL","formatted_address":"67 Av. Etienne Billières, 31300 Toulouse","geometry":{"location":{"lat":43.5964722,"lng":1.4240987},"viewport":{"northeast":{"lat":43.59786672989271,"lng":1.425427979892722},"southwest":{"lat":43.59516707010727,"lng":1.422728320107278}}},"icon":"https://maps.gstatic.com/mapfiles/place_api/icons/v1/png_71/restaurant-71.png","icon_background_color":"#FF9E67","icon_mask_base_uri":"https://maps.gstatic.com/mapfiles/place_api/icons/v2/restaurant_pinlet","name":"Ajmer Kebab","opening_hours":{"open_now":false},"photos":[{"height":1920,"html_attributions":["<a href=\"https://maps.google.com/maps/contrib/101923398870057710666\">Lola Haze</a>"],"photo_reference":"AeJbb3f-S39ZbsrjgZpyZAspbTd1aRwAltDkeTHTXOJUPLoks0Q0rfUISdYHuqcl_F_pbk4iuSCtP34HcBU6CSQCn1jsMzGegw26mX4j2lzY0x9fjjQyfv7CIWsXlZaERiXBnqqodM3vCwjYLq0gM2-E_9Oxau4kG92S0nwS7k_HEfkLpUoV","width":1080}],"place_id":"ChIJHTwjywy7rhIRUyReaH_qGVU","plus_code":{"compound_code":"HCWF+HJ Toulouse","global_code":"8FM3HCWF+HJ"},"price_level":1,"rating":3.9,"reference":"ChIJHTwjywy7rhIRUyReaH_qGVU","types":["restaurant","point_of_interest","food","establishment"],"user_ratings_total":209},{"business_status":"OPERATIONAL","formatted_address":"32 Rue Louis Antoine Bougainville, 31400 Toulouse","geometry":{"location":{"lat":43.5756196,"lng":1.4621767},"viewport":{"northeast":{"lat":43.57701422989273,"lng":1.463440929892722},"southwest":{"lat":43.57431457010728,"lng":1.460741270107278}}},"icon":"https://maps.gstatic.com/mapfiles/place_api/icons/v1/png_71/restaurant-71.png","icon_background_color":"#FF9E67","icon_mask_base_uri":"https://maps.gstatic.com/mapfiles/place_api/icons/v2/restaurant_pinlet","name":"BonAp Kebab Burger","opening_hours":{"open_now":false},"photos":[{"height":4160,"html_attributions":["<a href=\"https://maps.google.com/maps/contrib/113378702779867077104\">Pierre Bolzonella</a>"],"photo_reference":"AeJbb3eEZ1eUHrXEZDgzjr5t52W8SuKMpabcf__9xF5q2T_0wTnaVCSk2JE6ay4WV6-89Tzw2ZCT-lrOeNqBFowtKCSq8h7q2YyK6fu8CF7bDMRyPA_5kUjU3XphJ9SCqr2EnrKdZ5y3xpWKZ7LP7QYuJ7J8Oxsf1pae4wbhDJ3CmgNYUHBO","width":3120}],"place_id":"ChIJ-Z7r92m8rhIRIeEcTkzZaGI","plus_code":{"compound_code":"HFG6+6V Toulouse","global_code":"8FM3HFG6+6V"},"price_level":1,"rating":3.9,"reference":"ChIJ-Z7r92m8rhIRIeEcTkzZaGI","types":["restaurant","point_of_interest","food","establishment"],"user_ratings_total":185},{"business_status":"OPERATIONAL","formatted_address":"50 Rue de la République, 31300 Toulouse","geometry":{"location":{"lat":43.5982176,"lng":1.4335846},"viewport":{"northeast":{"lat":43.59962187989272,"lng":1.434914179892722},"southwest":{"lat":43.59692222010728,"lng":1.432214520107278}}},"icon":"https://maps.gstatic.com/mapfiles/place_api/icons/v1/png_71/restaurant-71.png","icon_background_color":"#FF9E67","icon_mask_base_uri":"https://maps.gstatic.com/mapfiles/place_api/icons/v2/restaurant_pinlet","name":"Atlas Kebab","opening_hours":{"open_now":false},"photos":[{"height":3096,"html_attributions":["<a href=\"https://maps.google.com/maps/contrib/113832490103273934150\">Rayou Music</a>"],"photo_reference":"AeJbb3evQvBHm5hgomrNpM7OVb3kx5UqEiFP_nObFpiyeTFXzFPmB78GO2hfTSa745TdbxPiiEDawe_gWBqQ4ho93T2yI5dHVpWuzqw5mA3mtRUiHFpyLtDrf1yzANl3KRK5pLEhYpH2GtzbKR-zIL2BX7Uv9cSGnucFQXg49c-e3R-LnKgR","width":4128}],"place_id":"ChIJC367dnC7rhIRDD2Bze1c8UA","plus_code":{"compound_code":"HCXM+7C Toulouse","global_code":"8FM3HCXM+7C"},"price_level":1,"rating":3.9,"reference":"ChIJC367dnC7rhIRDD2Bze1c8UA","types":["restaurant","point_of_interest","food","establishment"],"user_ratings_total":177},{"business_status":"OPERATIONAL","formatted_address":"116 Rte d'Albi, 31200 Toulouse","geometry":{"location":{"lat":43.635479,"lng":1.464023},"viewport":{"northeast":{"lat":43.63681777989272,"lng":1.465306829892722},"southwest":{"lat":43.63411812010727,"lng":1.462607170107278}}},"icon":"https://maps.gstatic.com/mapfiles/place_api/icons/v1/png_71/restaurant-71.png","icon_background_color":"#FF9E67","icon_mask_base_uri":"https://maps.gstatic.com/mapfiles/place_api/icons/v2/restaurant_pinlet","name":"Grill & Saveurs (Kebab Croix Daurade)","opening_hours":{"open_now":false},"photos":[{"height":4032,"html_attributions":["<a href=\"https://maps.google.com/maps/contrib/105729945690482623358\">A Google User</a>"],"photo_reference":"AeJbb3dvytzLt-ydLyKfcpD-QJVos1QQFlGs0Y6BWN9GHsqGI-rqfhUq1LPZSZG890LjLtmRy19uuZ9SaaIJe0zIzctHCDKJNMX_KiaayO34UXV3UbXAAOTvGzAxbeqnxhJxAG_qL7aNGhjIxd1j-FsT5bQcwoFO1j1w1Qsy1dowcpS0ah6Z","width":3024}],"place_id":"ChIJyb5dtTejrhIR6MGoJ-I7H1w","plus_code":{"compound_code":"JFP7+5J Toulouse","global_code":"8FM3JFP7+5J"},"rating":3.9,"reference":"ChIJyb5dtTejrhIR6MGoJ-I7H1w","types":["restaurant","point_of_interest","food","establishment"],"user_ratings_total":142},{"business_status":"OPERATIONAL","formatted_address":"139 Gd Rue Saint-Michel, 31400 Toulouse","geometry":{"location":{"lat":43.5905977,"lng":1.445218},"viewport":{"northeast":{"lat":43.59196487989272,"lng":1.446637529892722},"southwest":{"lat":43.58926522010728,"lng":1.443937870107278}}},"icon":"https://maps.gstatic.com/mapfiles/place_api/icons/v1/png_71/restaurant-71.png","icon_background_color":"#FF9E67","icon_mask_base_uri":"https://maps.gstatic.com/mapfiles/place_api/icons/v2/restaurant_pinlet","name":"Kebab Indien","opening_hours":{"open_now":true},"photos":[{"height":3741,"html_attributions":["<a href=\"https://maps.google.com/maps/contrib/109992931361044132130\">A Google User</a>"],"photo_reference":"AeJbb3cFw3WrBcNLv7eSfLqbIyAxQvkNOpFUxb7DgMWqtZuniiplmv3BksXxPCNkI2sYFJoMddbO_BPO5no8ZzMTj386ONs2xFwzvLqvfzYFoWRr8qX2xjWbQMA45GC1HR6z6kaELlv0zDD9SiG4f8Q42c6rGvHdvLkma21mfmeMTG0LTIHF","width":1840}],"place_id":"ChIJN58bcIC8rhIRCNPXrBcsn-0","plus_code":{"compound_code":"HCRW+63 Toulouse","global_code":"8FM3HCRW+63"},"rating":3.8,"reference":"ChIJN58bcIC8rhIRCNPXrBcsn-0","types":["restaurant","point_of_interest","food","establishment"],"user_ratings_total":236},{"business_status":"OPERATIONAL","formatted_address":"2 Av. de Francazal, 31270 Cugnaux","geometry":{"location":{"lat":43.5357859,"lng":1.3473089},"viewport":{"northeast":{"lat":43.53716257989272,"lng":1.348665029892722},"southwest":{"lat":43.53446292010727,"lng":1.345965370107278}}},"icon":"https://maps.gstatic.com/mapfiles/place_api/icons/v1/png_71/restaurant-71.png","icon_background_color":"#FF9E67","icon_mask_base_uri":"https://maps.gstatic.com/mapfiles/place_api/icons/v2/restaurant_pinlet","name":"DELICES KEBAB","opening_hours":{"open_now":false},"photos":[{"height":1586,"html_attributions":["<a href=\"https://maps.google.com/maps/contrib/103610917271915989056\">A Google User</a>"],"photo_reference":"AeJbb3fY02D6ULOwB9_8EaJDYZGBYVD6D3SGWYOHuBnSm4KnBkM41s-ugrY0rjMCdsrpF97y_MzsKioBmmWCZDZ7E-Bc4th1BawhbKBxePmaG2r-SY4bpJ3FFDsixifDk61rYfasmcCAHmNQCfUcvgwTmkEX3vGR7LT5URXKgbAVN-8eGorM","width":1409}],"place_id":"ChIJeTbavhK3rhIRX6n_h94fFD4","plus_code":{"compound_code":"G8PW+8W Cugnaux","global_code":"8FM3G8PW+8W"},"rating":3.7,"reference":"ChIJeTbavhK3rhIRX6n_h94fFD4","types":["restaurant","point_of_interest","food","establishment"],"user_ratings_total":32},{"business_status":"OPERATIONAL","formatted_address":"35 All. Jean Jaurès, 31000 Toulouse","geometry":{"location":{"lat":43.6071319,"lng":1.4501941},"viewport":{"northeast":{"lat":43.60843502989272,"lng":1.451642879892722},"southwest":{"lat":43.60573537010728,"lng":1.448943220107278}}},"icon":"https://maps.gstatic.com/mapfiles/place_api/icons/v1/png_71/restaurant-71.png","icon_background_color":"#FF9E67","icon_mask_base_uri":"https://maps.gstatic.com/mapfiles/place_api/icons/v2/restaurant_pinlet","name":"Star Kebab","opening_hours":{"open_now":false},"photos":[{"height":4032,"html_attributions":["<a href=\"https://maps.google.com/maps/contrib/110075576848857342015\">Charlotte bulle</a>"],"photo_reference":"AeJbb3f54wxauzxHklTPnVVPxebaFk4Qcz1agEtXnXLxVlcwsy08odQTRWVh9RlMHgsXoxkNiwKbn7SMt0FYudREG5eFcyVOgU7Ma-BGHesnYCX3ITxl88iKVOr-U_1e9cvOFdnhCYIzcTU1PgFBA7iUsO1GB5ewq9ULL59m3Ynql-Njr8X0","width":3024}],"place_id":"ChIJwxNy-5i8rhIRfi6ecC9w1A0","plus_code":{"compound_code":"JF42+V3 Toulouse","global_code":"8FM3JF42+V3"},"price_level":1,"rating":3.6,"reference":"ChIJwxNy-5i8rhIRfi6ecC9w1A0","types":["restaurant","point_of_interest","food","establishment"],"user_ratings_total":252},{"business_status":"OPERATIONAL","formatted_address":"17 Bd Armand Duportal, 31000 Toulouse","geometry":{"location":{"lat":43.6067721,"lng":1.4345567},"viewport":{"northeast":{"lat":43.60812117989272,"lng":1.435923979892722},"southwest":{"lat":43.60542152010727,"lng":1.433224320107278}}},"icon":"https://maps.gstatic.com/mapfiles/place_api/icons/v1/png_71/restaurant-71.png","icon_background_color":"#FF9E67","icon_mask_base_uri":"https://maps.gstatic.com/mapfiles/place_api/icons/v2/restaurant_pinlet","name":"best of cafe kebab","opening_hours":{"open_now":false},"photos":[{"height":324,"html_attributions":["<a href=\"https://maps.google.com/maps/contrib/101631402699304534332\">A Google User</a>"],"photo_reference":"AeJbb3d2oBEhVDxos5qKEdU7rsmwcllOd3MDjb_Z6OPkyEYpOVKRmURXZ_NLl1IRX8c2ulqcO0R85QSzbK_XsIPHpqO4kvKxDhOu90jSNPNhA5EW7BsmJmyVMg96cLqZnLNFOXZSzQ8gGNvLNAQUvttq2Fl_wPUKovsN0eDwY-1Dhz8hg-hT","width":434}],"place_id":"ChIJxcJPnUm7rhIR8oME87D1slY","plus_code":{"compound_code":"JC4M+PQ Toulouse","global_code":"8FM3JC4M+PQ"},"rating":3.6,"reference":"ChIJxcJPnUm7rhIR8oME87D1slY","types":["restaurant","point_of_interest","food","establishment"],"user_ratings_total":36},{"business_status":"OPERATIONAL","formatted_address":"15-13 Av. de la Gloire, 31500 Toulouse","geometry":{"location":{"lat":43.6055254,"lng":1.4587085},"viewport":{"northeast":{"lat":43.60686102989272,"lng":1.460096479892722},"southwest":{"lat":43.60416137010728,"lng":1.457396820107278}}},"icon":"https://maps.gstatic.com/mapfiles/place_api/icons/v1/png_71/restaurant-71.png","icon_background_color":"#FF9E67","icon_mask_base_uri":"https://maps.gstatic.com/mapfiles/place_api/icons/v2/restaurant_pinlet","name":"Sams Grill","photos":[{"height":1080,"html_attributions":["<a href=\"https://maps.google.com/maps/contrib/116467306148872928319\">A Google User</a>"],"photo_reference":"AeJbb3cDrau3Ir1muVqyhRB5SIhmoUnaFiOVwDTwBxXZyGsDJOKsARDepA6dQFc4mDtUZwNxU9-DXw36HZtJlIWA_IDSLAjD6ALnIuTAklXbzOwNb-xPvqHwh1SM7UMYik5b-A7i5-iUnKbO5xNeM0IiRFTvC5RoXiralwkQAmUG006IUhgI","width":1920}],"place_id":"ChIJL6p1P5S8rhIRn6OAVmv6Xc4","plus_code":{"compound_code":"JF45+6F Toulouse","global_code":"8FM3JF45+6F"},"rating":3.6,"reference":"ChIJL6p1P5S8rhIRn6OAVmv6Xc4","types":["restaurant","food","point_of_interest","establishment"],"user_ratings_total":29},{"business_status":"OPERATIONAL","formatted_address":"41 Rue de Fenouillet, 31140 Saint-Alban","geometry":{"location":{"lat":43.687648,"lng":1.4062217},"viewport":{"northeast":{"lat":43.68911452989272,"lng":1.407592179892722},"southwest":{"lat":43.68641487010728,"lng":1.404892520107278}}},"icon":"https://maps.gstatic.com/mapfiles/place_api/icons/v1/png_71/restaurant-71.png","icon_background_color":"#FF9E67","icon_mask_base_uri":"https://maps.gstatic.com/mapfiles/place_api/icons/v2/restaurant_pinlet","name":"MC KEBAB CAFE","opening_hours":{"open_now":false},"photos":[{"height":4032,"html_attributions":["<a href=\"https://maps.google.com/maps/contrib/108554222315992279527\">Olivier BUSO</a>"],"photo_reference":"AeJbb3cdBpLoBYbEm58UxAVlPjbscXQCCr-DlngL21NhiUNGErs8KvzATL9BbdhrwfZsx5a0MCyV2pkUvT0dxpWieHANb9LHUTv7sACH1cA0gKVe5jk3OBu7A7MTQUUhtZeGZIC5aZw0eVMO0ovq7eh9ZSuKCazh180YFJRi97DNIG6JP0tx","width":3024}],"place_id":"ChIJgXrAajWkrhIRyfana9GU0qk","plus_code":{"compound_code":"MCQ4+3G Saint-Alban","global_code":"8FM3MCQ4+3G"},"price_level":1,"rating":3.5,"reference":"ChIJgXrAajWkrhIRyfana9GU0qk","types":["restaurant","point_of_interest","food","establishment"],"user_ratings_total":271},{"business_status":"OPERATIONAL","formatted_address":"33 Rue des Filatiers, 31000 Toulouse","geometry":{"location":{"lat":43.5989933,"lng":1.4439769},"viewport":{"northeast":{"lat":43.60035087989272,"lng":1.445377679892722},"southwest":{"lat":43.59765122010727,"lng":1.442678020107278}}},"icon":"https://maps.gstatic.com/mapfiles/place_api/icons/v1/png_71/restaurant-71.png","icon_background_color":"#FF9E67","icon_mask_base_uri":"https://maps.gstatic.com/mapfiles/place_api/icons/v2/restaurant_pinlet","name":"Populaire Kebab","opening_hours":{"open_now":false},"photos":[{"height":3024,"html_attributions":["<a href=\"https://maps.google.com/maps/contrib/113495105707399562751\">vrakob</a>"],"photo_reference":"AeJbb3cpsGNEGeno6F5V4CGz--hO9WZYfna_UElBzQoFwRwAuRRr0nt4Amk6bP1dCpQHZYBrWuAPd5crsTHoPzM6Dn6hLYBrb_jJbJvQZcJTscjsY3GmEd_p1KOqzDEgcLl1_Rqctmm1jqVoUqQf7UKlRE16YxDBbUUTKoXncmch0rOxr7EP","width":4032}],"place_id":"ChIJp0JJpYK8rhIRyg5HNA63MOU","plus_code":{"compound_code":"HCXV+HH Toulouse","global_code":"8FM3HCXV+HH"},"price_level":1,"rating":3.5,"reference":"ChIJp0JJpYK8rhIRyg5HNA63MOU","types":["restaurant","point_of_interest","food","establishment"],"user_ratings_total":186},{"business_status":"OPERATIONAL","formatted_address":"6 Rte de Fronton, 31140 Aucamville","geometry":{"location":{"lat":43.6667126,"lng":1.4298091},"viewport":{"northeast":{"lat":43.66803832989272,"lng":1.431117879892722},"southwest":{"lat":43.66533867010727,"lng":1.428418220107278}}},"icon":"https://maps.gstatic.com/mapfiles/place_api/icons/v1/png_71/restaurant-71.png","icon_background_color":"#FF9E67","icon_mask_base_uri":"https://maps.gstatic.com/mapfiles/place_api/icons/v2/restaurant_pinlet","name":"Ali baba indian kebab","opening_hours":{"open_now":false},"photos":[{"height":719,"html_attributions":["<a href=\"https://maps.google.com/maps/contrib/104170068089998160822\">A Google User</a>"],"photo_reference":"AeJbb3d1K_e0lKFUiyVXR4UsGLQvWPJE6sPfEGzLIsOBoNh0YlDPOWyBdeevpmlUfRctQgArNpKzMRhN16rxxUZt3_YoNrdgf2xuVbXmIID3Hg8epeQnXfCiffu8oHt_V3ETqh97sHLkvyhYVO57RgbrX12d4Y5xZVCc4oGi8QoXLnQjT4m5","width":1279}],"place_id":"ChIJ99bF5omkrhIR5HsDrA-ZpPA","plus_code":{"compound_code":"MC8H+MW Aucamville","global_code":"8FM3MC8H+MW"},"rating":3.5,"reference":"ChIJ99bF5omkrhIR5HsDrA-ZpPA","types":["restaurant","point_of_interest","food","establishment"],"user_ratings_total":151},{"business_status":"OPERATIONAL","formatted_address":"43 Gd Rue Saint-Michel, 31400 Toulouse","geometry":{"location":{"lat":43.5865246,"lng":1.4469081},"viewport":{"northeast":{"lat":43.58788292989271,"lng":1.448311279892722},"southwest":{"lat":43.58518327010727,"lng":1.445611620107278}}},"icon":"https://maps.gstatic.com/mapfiles/place_api/icons/v1/png_71/restaurant-71.png","icon_background_color":"#FF9E67","icon_mask_base_uri":"https://maps.gstatic.com/mapfiles/place_api/icons/v2/restaurant_pinlet","name":"EAT STREET","opening_hours":{"open_now":false},"photos":[{"height":2048,"html_attributions":["<a href=\"https://maps.google.com/maps/contrib/112722081037385523975\">yacine ouandjeli</a>"],"photo_reference":"AeJbb3cg6-pZeSWIC2S3c6YZ6zasnyMcH15ZoGKVuZFpAnDDcACtpliKNQITYS5ZLacMW-aBSZRkOkbnZmA4n0GN5GSSm3RPYWu7a1AgqjMYITQ8JJLUShzfq5dJtZTXoIsmsNOiEpqfnZaFgo6TsmtfAAa96_gjYa4HLacYo5ga87pS7r2V","width":1536}],"place_id":"ChIJDapP6n68rhIRdwDw79jSjS0","plus_code":{"compound_code":"HCPW+JQ Toulouse","global_code":"8FM3HCPW+JQ"},"price_level":1,"rating":3.5,"reference":"ChIJDapP6n68rhIRdwDw79jSjS0","types":["restaurant","food","point_of_interest","establishment"],"user_ratings_total":114},{"business_status":"OPERATIONAL","formatted_address":"2 Rue Dalayrac, 31000 Toulouse","geometry":{"location":{"lat":43.6069521,"lng":1.4493084},"viewport":{"northeast":{"lat":43.60828352989272,"lng":1.450652729892722},"southwest":{"lat":43.60558387010727,"lng":1.447953070107278}}},"icon":"https://maps.gstatic.com/mapfiles/place_api/icons/v1/png_71/restaurant-71.png","icon_background_color":"#FF9E67","icon_mask_base_uri":"https://maps.gstatic.com/mapfiles/place_api/icons/v2/restaurant_pinlet","name":"Kebab Ali Baba","opening_hours":{"open_now":false},"photos":[{"height":877,"html_attributions":["<a href=\"https://maps.google.com/maps/contrib/105958736593459811298\">A Google User</a>"],"photo_reference":"AeJbb3fkQ5QEBzHqrxxQ9G6ry2zefGJxGqiSiMcggcmNF69Ri4ngn8JwHCpiBCUMEWldIYMUIp0He5XGZYiSxhLaMQJPFL8HlKbOlQc6T6AuFOlJfVu53Zh3FrK_z3PMW8F6DzOj1t4PW4BlcdJ_unvqm7pBbqPYwNLrGSEgZjKKW5v8U6mJ","width":1125}],"place_id":"ChIJ-X9bmva9rhIRKvr0wRyVdQ8","plus_code":{"compound_code":"JC4X+QP Toulouse","global_code":"8FM3JC4X+QP"},"rating":3.3,"reference":"ChIJ-X9bmva9rhIRKvr0wRyVdQ8","types":["restaurant","point_of_interest","food","establishment"],"user_ratings_total":19},{"business_status":"OPERATIONAL","formatted_address":"67 Rue de Bayard, 31000 Toulouse","geometry":{"location":{"lat":43.61118219999999,"lng":1.45171},"viewport":{"northeast":{"lat":43.61248227989272,"lng":1.453109279892722},"southwest":{"lat":43.60978262010727,"lng":1.450409620107278}}},"icon":"https://maps.gstatic.com/mapfiles/place_api/icons/v1/png_71/restaurant-71.png","icon_background_color":"#FF9E67","icon_mask_base_uri":"https://maps.gstatic.com/mapfiles/place_api/icons/v2/restaurant_pinlet","name":"Spécialités libanaises","opening_hours":{"open_now":false},"photos":[{"height":1126,"html_attributions":["<a href=\"https://maps.google.com/maps/contrib/111938848310229788216\">A Google User</a>"],"photo_reference":"AeJbb3fiGCYccl1ohiXNb_Cxo573Tev8vZxwu_ACUKtRonhDgx9rPG0W6SdWUQYNARxIqRAHiFnJQQuZ0OD-vlzZzuJaYvIsdTC11KwOwr60TA7noo7TlFjXNLcYnBW8Vkg9aTOseRUF75pZilE1Dj7N_G5h42x45PARCgCvknxcxShjtHEP","width":2000}],"place_id":"ChIJa3sXXUy9rhIRL4ElnH3rcNs","plus_code":{"compound_code":"JF62+FM Toulouse","global_code":"8FM3JF62+FM"},"rating":3,"reference":"ChIJa3sXXUy9rhIRL4ElnH3rcNs","types":["restaurant","food","point_of_interest","establishment"],"user_ratings_total":4}]