[{"business_status":"OPERATIONAL","formatted_address":"3 Rue François Verdier, 31830 Plaisance-du-Touch","geometry":{"location":{"lat":43.5627088,"lng":1.2885321},"viewport":{"northeast":{"lat":43.56414232989272,"lng":1.289816479892722},"southwest":{"lat":43.56144267010727,"lng":1.287116820107278}}},"icon":"https://maps.gstatic.com/mapfiles/place_api/icons/v1/png_71/restaurant-71.png","icon_background_color":"#FF9E67","icon_mask_base_uri":"https://maps.gstatic.com/mapfiles/place_api/icons/v2/restaurant_pinlet","name":"San Tacos","opening_hours":{"open_now":false},"photos":[{"height":2976,"html_attributions":["<a href=\"https://maps.google.com/maps/contrib/105916062135589593087\">A Google User</a>"],"photo_reference":"AeJbb3ejbEE1YWx4BHNFmAxRGUs3ESZVRGszlEmNaRWqw2nUIX1xr2qnnR_we8tYT-55eg2pWWBYACb7kxuaAuN1qlTyo22V-kSrnXEa4BeRK9jwDy5lMVXRjRB3tcv0k2XmcZs7lrGNOFaTmeXLr-UCMlDDOuK-gcH007Hvj8cJxi1nKkU1","width":3968}],"place_id":"ChIJK-A1FuezrhIR2DQD-086YF4","plus_code":{"compound_code":"H77Q+3C Plaisance-du-Touch","global_code":"8FM3H77Q+3C"},"rating":4.9,"reference":"ChIJK-A1FuezrhIR2DQD-086YF4","types":["meal_delivery","meal_takeaway","restaurant","food","point_of_interest","establishment"],"user_ratings_total":157},{"business_status":"OPERATIONAL","formatted_address":"91 Rte de Narbonne, 31400 Toulouse","geometry":{"location":{"lat":43.5675832,"lng":1.4576205},"viewport":{"northeast":{"lat":43.56885867989271,"lng":1.459018079892722},"southwest":{"lat":43.56615902010727,"lng":1.456318420107278}}},"icon":"https://maps.gstatic.com/mapfiles/place_api/icons/v1/png_71/restaurant-71.png","icon_background_color":"#FF9E67","icon_mask_base_uri":"https://maps.gstatic.com/mapfiles/place_api/icons/v2/restaurant_pinlet","name":"Chicken WIZZ","opening_hours":{"open_now":false},"photos":[{"height":960,"html_attributions":["<a href=\"https://maps.google.com/maps/contrib/113090272938403223819\">A Google User</a>"],"photo_reference":"AeJbb3fZthfQfqCk_u5TEBqCsYQE6-12HBMa3P8Wga0IvDChSPgGIahHKAjQSH7QNtbtQomKBplQnvLQgeq-dmLRHFDfCqGXDrL_f1krPl7XbGzc-Uh8OyEMGgasr-B7qqdFKujnOO4rz0Xk-IoNYco0mlx1DuIWgs_PB5XteMnKBtb4sGk","width":1280}],"place_id":"ChIJF2_qVyu9rhIRlD1rP4a0qAk","plus_code":{"compound_code":"HF95+22 Toulouse","global_code":"8FM3HF95+22"},"rating":4.7,"reference":"ChIJF2_qVyu9rhIRlD1rP4a0qAk","types":["restaurant","food","point_of_interest","establishment"],"user_ratings_total":325},{"business_status":"OPERATIONAL","formatted_address":"112 Rte de Grenade, 31700 Blagnac","geometry":{"location":{"lat":43.6363019,"lng":1.3911245},"viewport":{"northeast":{"lat":43.63764582989272,"lng":1.392397529892722},"southwest":{"lat":43.63494617010728,"lng":1.389697870107278}}},"icon":"https://maps.gstatic.com/mapfiles/place_api/icons/v1/png_71/restaurant-71.png","icon_background_color":"#FF9E67","icon_mask_base_uri":"https://maps.gstatic.com/mapfiles/place_api/icons/v2/restaurant_pinlet","name":"MASTER FOOD","opening_hours":{"open_now":false},"photos":[{"height":1080,"html_attributions":["<a href=\"https://maps.google.com/maps/contrib/112127698511536958757\">A Google User</a>"],"photo_reference":"AeJbb3fKKG9hiExob37y9nUMTqCH8_NCnh27h152eY1A8tG_RdvFP4-9mGhBbaYyumUBo0c4X3inuEcJMS5EUDKpsMHGsj3Mg1Tbxz57D28qRAHC8e3to5Nm8RH0UjgRy-KDznK8SIGABTff3OIHo_UkyI03t4kkTxoydqO-T-DOnSgE8u6T","width":1080}],"place_id":"ChIJ8xH46RqlrhIRfvOzdmNk9fg","plus_code":{"compound_code":"J9PR+GC Blagnac","global_code":"8FM3J9PR+GC"},"rating":4.7,"reference":"ChIJ8xH46RqlrhIRfvOzdmNk9fg","types":["restaurant","food","point_of_interest","establishment"],"user_ratings_total":101},{"business_status":"OPERATIONAL","formatted_address":"20 Rue Pierre-Paul Riquet, 31000 Toulouse","geometry":{"location":{"lat":43.6012205,"lng":1.4540993},"viewport":{"northeast":{"lat":43.60257467989272,"lng":1.455469179892722},"southwest":{"lat":43.59987502010728,"lng":1.452769520107278}}},"icon":"https://maps.gstatic.com/mapfiles/place_api/icons/v1/png_71/restaurant-71.png","icon_background_color":"#FF9E67","icon_mask_base_uri":"https://maps.gstatic.com/mapfiles/place_api/icons/v2/restaurant_pinlet","name":"Burger'N'co","opening_hours":{"open_now":false},"photos":[{"height":3492,"html_attributions":["<a href=\"https://maps.google.com/maps/contrib/117486873014862928791\">Gal</a>"],"photo_reference":"AeJbb3dqEmOSwLpR9gnHu5gSENnqT3jPVcZebMYGHcd1GE9MkpCoa3L0hm8MJFuUnY6Gzku0NnYGzNmIQH5VHRki_cuawAz5RkNAe1FWrol8FUOTP_YiaVWXfsSDQclDeVIh2d9ZIQFGsG4kwB4IZ_AA2ny0G2gCjio2A9zym_MNstQdejry","width":4656}],"place_id":"ChIJHyPdaJC8rhIRh0Zfi-zJb60","plus_code":{"compound_code":"JF23+FM Toulouse","global_code":"8FM3JF23+FM"},"price_level":2,"rating":4.6,"reference":"ChIJHyPdaJC8rhIRh0Zfi-zJb60","types":["restaurant","food","point_of_interest","establishment"],"user_ratings_total":1017},{"business_status":"OPERATIONAL","formatted_address":"700 La Pyrénéenne, 31670 Labège","geometry":{"location":{"lat":43.5501192,"lng":1.506027},"viewport":{"northeast":{"lat":43.55145662989272,"lng":1.507352579892722},"southwest":{"lat":43.54875697010728,"lng":1.504652920107278}}},"icon":"https://maps.gstatic.com/mapfiles/place_api/icons/v1/png_71/restaurant-71.png","icon_background_color":"#FF9E67","icon_mask_base_uri":"https://maps.gstatic.com/mapfiles/place_api/icons/v2/restaurant_pinlet","name":"NACHOS - Fajita, burrito, tacos, bowl","opening_hours":{"open_now":false},"photos":[{"height":1920,"html_attributions":["<a href=\"https://maps.google.com/maps/contrib/116951883552513996937\">A Google User</a>"],"photo_reference":"AeJbb3ftpafDlbfDLb1EMoS9G1muU4s7wKgaukqsXHpV2VV1N3s1zCOjGaWop9RBRVHJS1PJaPMmz45UP9B8QDJIKdlQTvTFHjyMqLxnXw7JchGOWNaVy0PYWe2RGTE0z-hzTOzrVdQs5vmYbSxQ1EE86uvBbSOhlIIqh9CPjAwudgGpIlAz","width":1080}],"place_id":"ChIJv_1sGk2_rhIR8RFh2eiJYOM","plus_code":{"compound_code":"HG24+2C Labège","global_code":"8FM3HG24+2C"},"price_level":1,"rating":4.6,"reference":"ChIJv_1sGk2_rhIR8RFh2eiJYOM","types":["meal_delivery","meal_takeaway","restaurant","food","point_of_interest","establishment"],"user_ratings_total":856},{"business_status":"OPERATIONAL","formatted_address":"3 Pl. du Peyrou, 31000 Toulouse","geometry":{"location":{"lat":43.60749999999999,"lng":1.4397222},"viewport":{"northeast":{"lat":43.60879132989272,"lng":1.441087179892722},"southwest":{"lat":43.60609167010728,"lng":1.438387520107278}}},"icon":"https://maps.gstatic.com/mapfiles/place_api/icons/v1/png_71/restaurant-71.png","icon_background_color":"#FF9E67","icon_mask_base_uri":"https://maps.gstatic.com/mapfiles/place_api/icons/v2/restaurant_pinlet","name":"Le Coyote Burgers","opening_hours":{"open_now":false},"photos":[{"height":2976,"html_attributions":["<a href=\"https://maps.google.com/maps/contrib/107062394836684639667\">Cristof Colombani</a>"],"photo_reference":"AeJbb3c9qBqHZl7O3UmIMzIe7lMtVNK4PklddZuzG44QQzeFnFWNdxpN2Ak-hhAsNW48aJzhT-wC1CkIoTYeedBqawzf07ElDGJP8_EWwGMIM3nVwDCjCDt696wLoan5WKZah3VbJwkl-aDGCE4UOJRUcWbXsjbwo8-oFBpSya3MfTodAw-2","width":3968}],"place_id":"ChIJV6reH2G7rhIR2VSuNluKNwM","plus_code":{"compound_code":"JC4Q+XV Toulouse","global_code":"8FM3JC4Q+XV"},"price_level":1,"rating":4.6,"reference":"ChIJV6reH2G7rhIR2VSuNluKNwM","types":["restaurant","food","point_of_interest","establishment"],"user_ratings_total":368},{"business_status":"OPERATIONAL","formatted_address":"30 Av. des Pyrénées, 31830 Plaisance-du-Touch","geometry":{"location":{"lat":43.5654331,"lng":1.2965123},"viewport":{"northeast":{"lat":43.56679772989272,"lng":1.297839879892722},"southwest":{"lat":43.56409807010728,"lng":1.295140220107278}}},"icon":"https://maps.gstatic.com/mapfiles/place_api/icons/v1/png_71/restaurant-71.png","icon_background_color":"#FF9E67","icon_mask_base_uri":"https://maps.gstatic.com/mapfiles/place_api/icons/v2/restaurant_pinlet","name":"O'comptoir du burger","opening_hours":{"open_now":false},"photos":[{"height":1280,"html_attributions":["<a href=\"https://maps.google.com/maps/contrib/105995902891600287339\">A Google User</a>"],"photo_reference":"AeJbb3fMpxT8-_hT73QoeVz6hwFvNG_zv74EYCiGjKn5c9G3MAYeLfDjy8M-Txa5pPOhswg925MfWUEUyanCPI_Y582aJeWyAdn9pf3sk3HkMzpFNuJ9FwbyWpClpyEY-miBRLoHKaHvTwVzFEdcXPGp2ack0bW7h793MogUlZutbWHD_wdC","width":1920}],"place_id":"ChIJ7WjPAVuxrhIRtjEaecASALo","plus_code":{"compound_code":"H78W+5J Plaisance-du-Touch","global_code":"8FM3H78W+5J"},"rating":4.6,"reference":"ChIJ7WjPAVuxrhIRtjEaecASALo","types":["restaurant","food","point_of_interest","establishment"],"user_ratings_total":171},{"business_status":"OPERATIONAL","formatted_address":"2 Pl. Marcel Bouilloux-Lafont, 31400 Toulouse","geometry":{"location":{"lat":43.5717254,"lng":1.4797199},"viewport":{"northeast":{"lat":43.57284682989272,"lng":1.481167329892722},"southwest":{"lat":43.57014717010728,"lng":1.478467670107278}}},"icon":"https://maps.gstatic.com/mapfiles/place_api/icons/v1/png_71/restaurant-71.png","icon_background_color":"#FF9E67","icon_mask_base_uri":"https://maps.gstatic.com/mapfiles/place_api/icons/v2/restaurant_pinlet","name":"London Corner","opening_hours":{"open_now":true},"photos":[{"height":506,"html_attributions":["<a href=\"https://maps.google.com/maps/contrib/106746845203468366786\">A Google User</a>"],"photo_reference":"AeJbb3cUtK3dtHFl9QNQgBHcsEus0RMWtx2DzHNg0yn0a9Cpe-BPjnKly6P-RFR0WOJQdJwlEViODqcA92omFQo32B-vIp5fHzMQOqkT9t1hf46wdt7uxUMVPfKpF9mX_ppGcWask3i47sf8CPqWgaoJqlDiN1qhbL2NWoI1a12fDaS57uuH","width":900}],"place_id":"ChIJ523zmZC9rhIR41woQl1z6J4","plus_code":{"compound_code":"HFCH+MV Toulouse","global_code":"8FM3HFCH+MV"},"rating":4.6,"reference":"ChIJ523zmZC9rhIR41woQl1z6J4","types":["cafe","meal_takeaway","bar","restaurant","food","point_of_interest","establishment"],"user_ratings_total":136},{"business_status":"OPERATIONAL","formatted_address":"2 Rue de l'Abbé Gabriel Latour, 31200 Toulouse","geometry":{"location":{"lat":43.6527763,"lng":1.4392712},"viewport":{"northeast":{"lat":43.65405322989272,"lng":1.440615679892722},"southwest":{"lat":43.65135357010728,"lng":1.437916020107278}}},"icon":"https://maps.gstatic.com/mapfiles/place_api/icons/v1/png_71/restaurant-71.png","icon_background_color":"#FF9E67","icon_mask_base_uri":"https://maps.gstatic.com/mapfiles/place_api/icons/v2/restaurant_pinlet","name":"FOOD PARC Sporting Village - Aucamville - Launaguet","opening_hours":{"open_now":false},"photos":[{"height":3024,"html_attributions":["<a href=\"https://maps.google.com/maps/contrib/107052785083814598908\">A Google User</a>"],"photo_reference":"AeJbb3ciXnCHBxNbAJN3sBfGLJgHoAfVdPz_-KzmbapUIfECz5aqwMhPopccr-2N31bZiPdcIEZ5ZCy5_BfNvjYSaKiNvDEjNbstHYElKKYHcRC6YlWiOkSCuDYeoYPEJE5ZQXoLtoDsLtNLqQG28dLZ3wfS6rh214IymCYsEzjo0NbDu9DN","width":4032}],"place_id":"ChIJXapwOoylrhIR6dehwQgm4BU","plus_code":{"compound_code":"MC3Q+4P Toulouse","global_code":"8FM3MC3Q+4P"},"rating":4.6,"reference":"ChIJXapwOoylrhIR6dehwQgm4BU","types":["restaurant","food","point_of_interest","establishment"],"user_ratings_total":108},{"business_status":"OPERATIONAL","formatted_address":"36 Rue des Filatiers, 31000 Toulouse","geometry":{"location":{"lat":43.5989742,"lng":1.444163},"viewport":{"northeast":{"lat":43.60033737989271,"lng":1.445516379892722},"southwest":{"lat":43.59763772010727,"lng":1.442816720107278}}},"icon":"https://maps.gstatic.com/mapfiles/place_api/icons/v1/png_71/restaurant-71.png","icon_background_color":"#FF9E67","icon_mask_base_uri":"https://maps.gstatic.com/mapfiles/place_api/icons/v2/restaurant_pinlet","name":"Bouche b","opening_hours":{"open_now":false},"photos":[{"height":4000,"html_attributions":["<a href=\"https://maps.google.com/maps/contrib/105603076493366447332\">A Google User</a>"],"photo_reference":"AeJbb3cX7OhV2M5Vcj6s8sZZM76W6CPQsFehipvumTLd7x7y03NgFvgDgiblHBnaK-5IE7Ob0rjAFVDu_MgddcdjcS1HVn8U7-FZIzcEWbdrhcNynB2Jo7v93xhZu8y00ROsVOQeF1UuIbcx1L2I9OQUKnK_llAc9Hu81pfULJ7WoDJzP-B9","width":3000}],"place_id":"ChIJ_9MRvIa8rhIRDb_BoMQkHnI","plus_code":{"compound_code":"HCXV+HM Toulouse","global_code":"8FM3HCXV+HM"},"price_level":2,"rating":4.5,"reference":"ChIJ_9MRvIa8rhIRDb_BoMQkHnI","types":["restaurant","food","point_of_interest","establishment"],"user_ratings_total":2062},{"business_status":"OPERATIONAL","formatted_address":"23 Rue de la République, 31300 Toulouse","geometry":{"location":{"lat":43.5987105,"lng":1.4352403},"viewport":{"northeast":{"lat":43.60005297989272,"lng":1.436600679892722},"southwest":{"lat":43.59735332010728,"lng":1.433901020107278}}},"icon":"https://maps.gstatic.com/mapfiles/place_api/icons/v1/png_71/restaurant-71.png","icon_background_color":"#FF9E67","icon_mask_base_uri":"https://maps.gstatic.com/mapfiles/place_api/icons/v2/restaurant_pinlet","name":"Burger'n'Co St Cyprien","opening_hours":{"open_now":false},"photos":[{"height":467,"html_attributions":["<a href=\"https://maps.google.com/maps/contrib/106456652729576806499\">Burger&#39; N&#39;co Toulouse</a>"],"photo_reference":"AeJbb3etYpRzPMVN86XTQv903U_z-cLlCHClAsE_u1mDZHe1m26_e12aFBo0nsKKhkcVmeW5VfB4smbcaRNc04j6ax_NUnkp532odkqULagrdGDCMPegdcc6ufrkz00yYIYiKiifj34-uR_Y_8XjUsb1QzlQ-YGRF-klNU-RrSGNIdWSaRk5","width":700}],"place_id":"ChIJKd_caJC8rhIRHWLKmVWJjoA","plus_code":{"compound_code":"HCXP+G3 Toulouse","global_code":"8FM3HCXP+G3"},"price_level":1,"rating":4.5,"reference":"ChIJKd_caJC8rhIRHWLKmVWJjoA","types":["restaurant","food","point_of_interest","establishment"],"user_ratings_total":1019},{"business_status":"OPERATIONAL","formatted_address":"505 Rue Jean Rostand, 31670 Labège","geometry":{"location":{"lat":43.5447719,"lng":1.5106572},"viewport":{"northeast":{"lat":43.54610707989272,"lng":1.512109579892722},"southwest":{"lat":43.54340742010727,"lng":1.509409920107277}}},"icon":"https://maps.gstatic.com/mapfiles/place_api/icons/v1/png_71/restaurant-71.png","icon_background_color":"#FF9E67","icon_mask_base_uri":"https://maps.gstatic.com/mapfiles/place_api/icons/v2/restaurant_pinlet","name":"Eat Salad","opening_hours":{"open_now":false},"photos":[{"height":619,"html_attributions":["<a href=\"https://maps.google.com/maps/contrib/115765525743979691036\">A Google User</a>"],"photo_reference":"AeJbb3fSeeud7_vxf1hWlnj-TC0o_TKp_gnfhC9eUwtGcbdBokPGTp2cRt5iKF339KvTaZ6aDXQAUhqO023EwNPTcAKlAnvT6cdD-Z5d6-Sokoj9WZgj6tLOsj552ztEmv5Ctw7UqTUUq7WgAVVmRCZmf4uoa0qgcIsYqlT5DjzwNntA3w-G","width":1091}],"place_id":"ChIJWcMgtJe_rhIRhLfroCmu-Xw","plus_code":{"compound_code":"GGV6+W7 Labège","global_code":"8FM3GGV6+W7"},"price_level":2,"rating":4.5,"reference":"ChIJWcMgtJe_rhIRhLfroCmu-Xw","types":["restaurant","food","point_of_interest","establishment"],"user_ratings_total":261},{"business_status":"OPERATIONAL","formatted_address":"1 Pass. de la Margeride, 31770 Colomiers","geometry":{"location":{"lat":43.611157,"lng":1.3324197},"viewport":{"northeast":{"lat":43.61260282989272,"lng":1.333820579892722},"southwest":{"lat":43.60990317010727,"lng":1.331120920107278}}},"icon":"https://maps.gstatic.com/mapfiles/place_api/icons/v1/png_71/restaurant-71.png","icon_background_color":"#FF9E67","icon_mask_base_uri":"https://maps.gstatic.com/mapfiles/place_api/icons/v2/restaurant_pinlet","name":"Chicken Ben's","opening_hours":{"open_now":false},"photos":[{"height":4032,"html_attributions":["<a href=\"https://maps.google.com/maps/contrib/105147101788181077969\">A Google User</a>"],"photo_reference":"AeJbb3cxLIj03rRNJ9bW9qXgcP5FPnynqwcOZsp_Djof2ZJwV2VlZGlPXE863ms4xhHRch9H4CMI9HMYMhffoTNN7xjeKQ5-qoQ3m1yoN6ocR9Kg4Tzwd5CJnhu8ev_KGm_Bo-sU_lQq_f5gcFnAy_GN3rnoR8mkPMxRE8hQCY-jgpOAWl7n","width":3024}],"place_id":"ChIJlRlIcg-xrhIRWI_oW7f4Lps","plus_code":{"compound_code":"J86J+FX Colomiers","global_code":"8FM3J86J+FX"},"rating":4.5,"reference":"ChIJlRlIcg-xrhIRWI_oW7f4Lps","types":["restaurant","food","point_of_interest","establishment"],"user_ratings_total":252},{"business_status":"OPERATIONAL","formatted_address":"226 Rte de Seysses, 31100 Toulouse","geometry":{"location":{"lat":43.5670978,"lng":1.4123054},"viewport":{"northeast":{"lat":43.56849512989272,"lng":1.413552979892722},"southwest":{"lat":43.56579547010728,"lng":1.410853320107278}}},"icon":"https://maps.gstatic.com/mapfiles/place_api/icons/v1/png_71/restaurant-71.png","icon_background_color":"#FF9E67","icon_mask_base_uri":"https://maps.gstatic.com/mapfiles/place_api/icons/v2/restaurant_pinlet","name":"Royalfood","opening_hours":{"open_now":false},"photos":[{"height":873,"html_attributions":["<a href=\"https://maps.google.com/maps/contrib/102477700772743159129\">A Google User</a>"],"photo_reference":"AeJbb3c6tk25rSUCtQuGUSuVNzSoCPAC5D75X1jL6h42AuoHbtlAVlpyaJ9Z3FVj6rYTTzJaT6EsPBrNBbJ3YBHGYXpmvH2SMji6aglNyvHAko2xxuO8vQsh_UMX8VIWsUfIaYWCswmgLmNyFyfD2WYNUGklhoGmiE3cgqCLA5N7o9DBMh-r","width":874}],"place_id":"ChIJleCU2ci7rhIRgcEeOAGTrhU","plus_code":{"compound_code":"HC86+RW Toulouse","global_code":"8FM3HC86+RW"},"price_level":1,"rating":4.5,"reference":"ChIJleCU2ci7rhIRgcEeOAGTrhU","types":["restaurant","food","point_of_interest","establishment"],"user_ratings_total":249},{"business_status":"OPERATIONAL","formatted_address":"4 Av. Prat Gimont, 31130 Balma","geometry":{"location":{"lat":43.6269558,"lng":1.4843139},"viewport":{"northeast":{"lat":43.62834772989272,"lng":1.485661829892722},"southwest":{"lat":43.62564807010728,"lng":1.482962170107278}}},"icon":"https://maps.gstatic.com/mapfiles/place_api/icons/v1/png_71/restaurant-71.png","icon_background_color":"#FF9E67","icon_mask_base_uri":"https://maps.gstatic.com/mapfiles/place_api/icons/v2/restaurant_pinlet","name":"Le China Fast Food Restaurant","opening_hours":{"open_now":false},"photos":[{"height":1920,"html_attributions":["<a href=\"https://maps.google.com/maps/contrib/111084085182874834648\">Yo pollux</a>"],"photo_reference":"AeJbb3cN7mAJfqY6uOK00iQ1sGACvCFvqaAwbwPHy8V51PyliqBt2d0uaASlHEVv3DQXyTTVIDqEYN8zaA9HDvg7YGApUmbnxnB2-HuqyBL-VO3LyjZLJOVy-t_oPiDzNDu2ckAQOLWwtpAKNmUl7kzTzryE0YgOaBhXGOumwTpMw2ggrmDj","width":1080}],"place_id":"ChIJWcpDaF29rhIRGR5qj4HE0XE","plus_code":{"compound_code":"JFGM+QP Balma","global_code":"8FM3JFGM+QP"},"rating":4.5,"reference":"ChIJWcpDaF29rhIRGR5qj4HE0XE","types":["restaurant","food","point_of_interest","establishment"],"user_ratings_total":159},{"business_status":"OPERATIONAL","formatted_address":"Bd des Écoles, 31820 Pibrac","geometry":{"location":{"lat":43.6180404,"lng":1.2800511},"viewport":{"northeast":{"lat":43.61938047989272,"lng":1.281304029892722},"southwest":{"lat":43.61668082010728,"lng":1.278604370107277}}},"icon":"https://maps.gstatic.com/mapfiles/place_api/icons/v1/png_71/restaurant-71.png","icon_background_color":"#FF9E67","icon_mask_base_uri":"https://maps.gstatic.com/mapfiles/place_api/icons/v2/restaurant_pinlet","name":"TACOS & CO","opening_hours":{"open_now":false},"photos":[{"height":4032,"html_attributions":["<a href=\"https://maps.google.com/maps/contrib/113022433672355363542\">A Google User</a>"],"photo_reference":"AeJbb3e3-yUvoCuFAM-0gUQQumSsSFSmlHukWxSWHB0NF0q5dTEv5A9JSDCwDS9N83I8AC1cR6UUEiLOqY30fV0jRHvEeJF7TMOiJQeYxDhgkUEi0QxgWhOMYox1fUX-qOnH5EJzlpsonyE5I21exCDMpNXxxUcewsLdyTcM0xbzJcyOn4vG","width":3024}],"place_id":"ChIJuUS98pyzrhIRSFuACMp9jNA","plus_code":{"compound_code":"J79J+62 Pibrac","global_code":"8FM3J79J+62"},"rating":4.5,"reference":"ChIJuUS98pyzrhIRSFuACMp9jNA","types":["restaurant","food","point_of_interest","establishment"],"user_ratings_total":73},{"business_status":"OPERATIONAL","formatted_address":"112 Rte d'Albi, 31200 Toulouse","geometry":{"location":{"lat":43.6353331,"lng":1.4639599},"viewport":{"northeast":{"lat":43.63665527989272,"lng":1.465238929892722},"southwest":{"lat":43.63395562010728,"lng":1.462539270107278}}},"icon":"https://maps.gstatic.com/mapfiles/place_api/icons/v1/png_71/restaurant-71.png","icon_background_color":"#FF9E67","icon_mask_base_uri":"https://maps.gstatic.com/mapfiles/place_api/icons/v2/restaurant_pinlet","name":"MEXI'N'CO","opening_hours":{"open_now":false},"photos":[{"height":2988,"html_attributions":["<a href=\"https://maps.google.com/maps/contrib/106080717583177729469\">A Google User</a>"],"photo_reference":"AeJbb3fp4dkjTTqV9x1-ApwYZT2FKzBg67LIH1yLhYTPy4YY8NtL7zeVW6gPMXRM4WZ-z3Q4tzCWQV5xmqEBXPK62mIEQiC-rwxDd5yxxW-qybX0h0eIiggkNdnCwEftgZUudGuwqz6YeZ7JYavC4_LBrk5SUicUXdPg28tTZLdVU-FjFQwN","width":5312}],"place_id":"ChIJYSGJGYWjrhIRbso4_QB9wDQ","plus_code":{"compound_code":"JFP7+4H Toulouse","global_code":"8FM3JFP7+4H"},"rating":4.5,"reference":"ChIJYSGJGYWjrhIRbso4_QB9wDQ","types":["restaurant","food","point_of_interest","establishment"],"user_ratings_total":32},{"business_status":"OPERATIONAL","formatted_address":"112 R. du Feretra, 31400 Toulouse","geometry":{"location":{"lat":43.5827684,"lng":1.4441981},"viewport":{"northeast":{"lat":43.58414202989272,"lng":1.445572379892722},"southwest":{"lat":43.58144237010728,"lng":1.442872720107278}}},"icon":"https://maps.gstatic.com/mapfiles/place_api/icons/v1/png_71/restaurant-71.png","icon_background_color":"#FF9E67","icon_mask_base_uri":"https://maps.gstatic.com/mapfiles/place_api/icons/v2/restaurant_pinlet","name":"SPEED BURGER TOULOUSE FERETRA","opening_hours":{"open_now":false},"photos":[{"height":2976,"html_attributions":["<a href=\"https://maps.google.com/maps/contrib/106550600505743288189\">Speed Burger</a>"],"photo_reference":"AeJbb3cyZMoqhsrq-xytRrKJIa1jfgPHP2JD5lL7cW6RVJdVBHBuE39smXMhj5nM9eKNjLNkwEsDIQFGTvdvn0E0n7kXXJP0vma7lEL08N2jYwjG9DxJtW63SyihnBs1qy3K08-4a61V7Jy_QWPJPn43qpNvWAcFJuW2KkaGq3JTHNWkWiRd","width":3968}],"place_id":"ChIJTe-hYni8rhIRX6lBSPzCzGc","plus_code":{"compound_code":"HCMV+4M Toulouse","global_code":"8FM3HCMV+4M"},"price_level":1,"rating":4.4,"reference":"ChIJTe-hYni8rhIRX6lBSPzCzGc","types":["meal_takeaway","meal_delivery","restaurant","food","point_of_interest","establishment"],"user_ratings_total":648},{"business_status":"OPERATIONAL","formatted_address":"37 Rue Saint-Rome, 31000 Toulouse","geometry":{"location":{"lat":43.603136,"lng":1.4434181},"viewport":{"northeast":{"lat":43.60448602989272,"lng":1.444771029892722},"southwest":{"lat":43.60178637010728,"lng":1.442071370107278}}},"icon":"https://maps.gstatic.com/mapfiles/place_api/icons/v1/png_71/restaurant-71.png","icon_background_color":"#FF9E67","icon_mask_base_uri":"https://maps.gstatic.com/mapfiles/place_api/icons/v2/restaurant_pinlet","name":"Tacos corner","opening_hours":{"open_now":false},"photos":[{"height":3840,"html_attributions":["<a href=\"https://maps.google.com/maps/contrib/101185063108305529907\">A Google User</a>"],"photo_reference":"AeJbb3cTeqSNT5LsRXornI0qXcvTLCnwM6rPiBDUeKykVdx4O00bIZmSTYK1ZfRsJsdRZurOHukfQ_pppWOviRhR96Cxcrn0-q_l0rDCw5DxR-ix6I-NoQwUXMyNinBr-aDfJGGadm-cuY2hvvt2kL7wgcJBTFLFKIj35Hf9DSfYFvJnR5M-","width":5760}],"place_id":"ChIJ2b5ltQm7rhIRRGHZMtaPNsY","plus_code":{"compound_code":"JC3V+79 Toulouse","global_code":"8FM3JC3V+79"},"rating":4.4,"reference":"ChIJ2b5ltQm7rhIRRGHZMtaPNsY","types":["restaurant","food","point_of_interest","establishment"],"user_ratings_total":315},{"business_status":"OPERATIONAL","formatted_address":"10 All. Victor Hugo, 31240 Saint-Jean","geometry":{"location":{"lat":43.6640573,"lng":1.5006474},"viewport":{"northeast":{"lat":43.66536937989272,"lng":1.502007429892722},"southwest":{"lat":43.66266972010728,"lng":1.499307770107278}}},"icon":"https://maps.gstatic.com/mapfiles/place_api/icons/v1/png_71/restaurant-71.png","icon_background_color":"#FF9E67","icon_mask_base_uri":"https://maps.gstatic.com/mapfiles/place_api/icons/v2/restaurant_pinlet","name":"un burger dans la cuisine","opening_hours":{"open_now":false},"photos":[{"height":4032,"html_attributions":["<a href=\"https://maps.google.com/maps/contrib/110037075213170411013\">Golf Sierra RUN</a>"],"photo_reference":"AeJbb3fTLRuTkD7uItb8NHfOyJVu6Xd4wQmggm2iCvRwGhYGkA2GcKtoF183ngnfiUOjts2S3PiIFhlZOzd8XHe9cFoxolioZJUm3qCP7o13vHjaHQuHB4_v1MJsV8hZKR9oTbhaxxFNZdUj1DISWiGbKHwIJwn6_vmN2cvddyJqncrK49sC","width":3024}],"place_id":"ChIJVVWJI_WirhIRtHDBQvKGlzI","plus_code":{"compound_code":"MG72+J7 Saint-Jean","global_code":"8FM3MG72+J7"},"rating":4.4,"reference":"ChIJVVWJI_WirhIRtHDBQvKGlzI","types":["restaurant","food","point_of_interest","establishment"],"user_ratings_total":280},{"business_status":"OPERATIONAL","formatted_address":"1 Chem. de Belbèze, 31240 Saint-Jean","geometry":{"location":{"lat":43.6645949,"lng":1.5052782},"viewport":{"northeast":{"lat":43.66601407989273,"lng":1.506708779892722},"southwest":{"lat":43.66331442010728,"lng":1.504009120107278}}},"icon":"https://maps.gstatic.com/mapfiles/place_api/icons/v1/png_71/restaurant-71.png","icon_background_color":"#FF9E67","icon_mask_base_uri":"https://maps.gstatic.com/mapfiles/place_api/icons/v2/restaurant_pinlet","name":"Speed Tacos","opening_hours":{"open_now":false},"photos":[{"height":2448,"html_attributions":["<a href=\"https://maps.google.com/maps/contrib/102326168431960682479\">A Google User</a>"],"photo_reference":"AeJbb3f2tajlowTHnrCB5dPDoebtXZ3Fyohsqz1uIRWQOAvwi4VxZxLrPhHA7OHeZsEkPl2AnvEFu--KgePneNV-aOs3ZZlqdtr5SWFObMYwzn6RXePYdsI8Q2JXKbHKUvLog_LmphlRH0W-M9y3ljNQVQottCg8TbBoMQF6cpd-Iuly0_-3","width":3264}],"place_id":"ChIJuxhEtH-jrhIRAODPTMrilFI","plus_code":{"compound_code":"MG74+R4 Saint-Jean","global_code":"8FM3MG74+R4"},"rating":4.4,"reference":"ChIJuxhEtH-jrhIRAODPTMrilFI","types":["restaurant","food","point_of_interest","establishment"],"user_ratings_total":157},{"business_status":"OPERATIONAL","formatted_address":"5 Rue de la Liberté, 31700 Mondonville","geometry":{"location":{"lat":43.6709713,"lng":1.2853811},"viewport":{"northeast":{"lat":43.67231857989272,"lng":1.286807479892722},"southwest":{"lat":43.66961892010728,"lng":1.284107820107278}}},"icon":"https://maps.gstatic.com/mapfiles/place_api/icons/v1/png_71/restaurant-71.png","icon_background_color":"#FF9E67","icon_mask_base_uri":"https://maps.gstatic.com/mapfiles/place_api/icons/v2/restaurant_pinlet","name":"Tacos Time Burger Kebab","opening_hours":{"open_now":false},"photos":[{"height":608,"html_attributions":["<a href=\"https://maps.google.com/maps/contrib/106808419618208094141\">A Google User</a>"],"photo_reference":"AeJbb3dcaLNQxbRBSEPcVYrEp-aYssJ4TuP_ViJ_rFAE4kz2zVXY5uXJ7RoOZWsYsboO_YESg0UMOAPV38LAnibJOrCImK07IpwAnNfhFrCwimQ-C3cclj4YN1AkDvrp1bgTIbYXvWsK7XJQ9Jr6M6ruSzc-wm7_OBtZkKJdtdxuioZ7yVv9","width":1080}],"place_id":"ChIJR_nS2T2trhIR3czkpLEDpZ0","plus_code":{"compound_code":"M7CP+95 Mondonville","global_code":"8FM3M7CP+95"},"rating":4.4,"reference":"ChIJR_nS2T2trhIR3czkpLEDpZ0","types":["restaurant","food","point_of_interest","establishment"],"user_ratings_total":135},{"business_status":"OPERATIONAL","formatted_address":"14 Rue Marie-Louise Dissard, 31300 Toulouse","geometry":{"location":{"lat":43.603507,"lng":1.3649883},"viewport":{"northeast":{"lat":43.60480602989272,"lng":1.366309729892722},"southwest":{"lat":43.60210637010728,"lng":1.363610070107278}}},"icon":"https://maps.gstatic.com/mapfiles/place_api/icons/v1/png_71/restaurant-71.png","icon_background_color":"#FF9E67","icon_mask_base_uri":"https://maps.gstatic.com/mapfiles/place_api/icons/v2/restaurant_pinlet","name":"Dubble Toulouse Parc Saint Martin | Healthy Food","opening_hours":{"open_now":true},"photos":[{"height":3120,"html_attributions":["<a href=\"https://maps.google.com/maps/contrib/106070315006733180677\">A Google User</a>"],"photo_reference":"AeJbb3esCXan8o7MriZg6EhNB70WwWc_ndXFcJIHymtBBYhDCreICrEhDxHg8Qk6FGno5-DIKfOh-a5MY6aLBBbrahKCT_qYEd17mnNVBSiGdthGJIknWYGJzUc6a6xOwdGSY5XE0Ml_YaPCd2rwsYL-OYCAfn973tItmEdK5D9u0CZ_N69p","width":4160}],"place_id":"ChIJV_KZXouxrhIR5pWPKWwB39I","plus_code":{"compound_code":"J937+CX Toulouse","global_code":"8FM3J937+CX"},"price_level":2,"rating":4.4,"reference":"ChIJV_KZXouxrhIR5pWPKWwB39I","types":["meal_takeaway","restaurant","food","point_of_interest","establishment"],"user_ratings_total":65},{"business_status":"OPERATIONAL","formatted_address":"Centre Commercial Fenouillet - ZI Saint Jory, 5004 Rue des Usines - RN20, 31150 Fenouillet","geometry":{"location":{"lat":43.6907647,"lng":1.4002119},"viewport":{"northeast":{"lat":43.69258762989272,"lng":1.401706229892722},"southwest":{"lat":43.68988797010728,"lng":1.399006570107278}}},"icon":"https://maps.gstatic.com/mapfiles/place_api/icons/v1/png_71/restaurant-71.png","icon_background_color":"#FF9E67","icon_mask_base_uri":"https://maps.gstatic.com/mapfiles/place_api/icons/v2/restaurant_pinlet","name":"Steak ’n Shake","opening_hours":{"open_now":false},"photos":[{"height":2988,"html_attributions":["<a href=\"https://maps.google.com/maps/contrib/114020744899771944007\">Steak n Shake</a>"],"photo_reference":"AeJbb3cfYDoW5z1dSQm0kBUc8VrdcszYR0nARRFMjMK6P-IOe3_IC189K1Msg1sHN9dJH-p9ebI_0om9uvS6uL98SUMDG9jCrad3WOPwjIwioWp07ytM5FRV7Cz2fVDwdHm8ytK6qNhdBZEZFch55x7iQjeNKAs5KbUCuGOPTNeUFFQ1NeWu","width":5312}],"place_id":"ChIJOxHpYcqlrhIRjNwJoLBV8wg","plus_code":{"compound_code":"MCR2+83 Fenouillet","global_code":"8FM3MCR2+83"},"price_level":2,"rating":4.3,"reference":"ChIJOxHpYcqlrhIRjNwJoLBV8wg","types":["meal_takeaway","restaurant","food","point_of_interest","establishment"],"user_ratings_total":1923},{"business_status":"OPERATIONAL","formatted_address":"54 Av. Jules Julien, 31400 Toulouse","geometry":{"location":{"lat":43.5761368,"lng":1.4513227},"viewport":{"northeast":{"lat":43.57745717989272,"lng":1.452579979892722},"southwest":{"lat":43.57475752010728,"lng":1.449880320107278}}},"icon":"https://maps.gstatic.com/mapfiles/place_api/icons/v1/png_71/restaurant-71.png","icon_background_color":"#FF9E67","icon_mask_base_uri":"https://maps.gstatic.com/mapfiles/place_api/icons/v2/restaurant_pinlet","name":"Pimp My Burger","opening_hours":{"open_now":false},"photos":[{"height":2160,"html_attributions":["<a href=\"https://maps.google.com/maps/contrib/113088496295546368685\">Vincent Ferry</a>"],"photo_reference":"AeJbb3fJGHWfnRO0lLRVSGghZAP1v1KIVweTBZfCIxKoEd-0jX7a74q0rZnAMUr0ozw-ld5j-lNn_-ool3KTzGheuVjP9CVU4UTxaGkJEPmgfMpCFnMGowhwPhKFx8Ou_cImIaRpqkdAkiXW8cNjPqaeUNr_p7kRvFb8THlS-yPes5rTukwX","width":3840}],"place_id":"ChIJudjYhHG8rhIRENfRNnNoe28","plus_code":{"compound_code":"HFG2+FG Toulouse","global_code":"8FM3HFG2+FG"},"price_level":2,"rating":4.3,"reference":"ChIJudjYhHG8rhIRENfRNnNoe28","types":["restaurant","food","point_of_interest","establishment"],"user_ratings_total":725},{"business_status":"OPERATIONAL","formatted_address":"106 Av. des États Unis, 31200 Toulouse","geometry":{"location":{"lat":43.6335651,"lng":1.4315966},"viewport":{"northeast":{"lat":43.63488337989273,"lng":1.432843229892722},"southwest":{"lat":43.63218372010729,"lng":1.430143570107278}}},"icon":"https://maps.gstatic.com/mapfiles/place_api/icons/v1/png_71/restaurant-71.png","icon_background_color":"#FF9E67","icon_mask_base_uri":"https://maps.gstatic.com/mapfiles/place_api/icons/v2/restaurant_pinlet","name":"Tacos Burger Avenue Toulouse","opening_hours":{"open_now":false},"photos":[{"height":3024,"html_attributions":["<a href=\"https://maps.google.com/maps/contrib/115028069049267164628\">Omar Olarte</a>"],"photo_reference":"AeJbb3dBSctHmEWBHk6NhWC7p4oI52Yz0qAXigGNWwBndibGIL1RQcj8tLnBxNbTyFqFnl_YJWV6I3yYT_f5OARJJRwRUf7fOI4jf9-Uxm4SYdMQybcDBG9t20xvwTXjt0ix1KKn0dtDz5CZTyXRk2nNHggMWhns39nhoYXj1nijBtNdq4XR","width":4032}],"place_id":"ChIJU0XNhrGkrhIRNWywfOvBgZE","plus_code":{"compound_code":"JCMJ+CJ Toulouse","global_code":"8FM3JCMJ+CJ"},"rating":4.3,"reference":"ChIJU0XNhrGkrhIRNWywfOvBgZE","types":["restaurant","food","point_of_interest","establishment"],"user_ratings_total":440},{"business_status":"OPERATIONAL","formatted_address":"3 Rue Clément Ader, 31300 Toulouse","geometry":{"location":{"lat":43.5852503,"lng":1.4277897},"viewport":{"northeast":{"lat":43.58663262989273,"lng":1.429170529892722},"southwest":{"lat":43.58393297010728,"lng":1.426470870107278}}},"icon":"https://maps.gstatic.com/mapfiles/place_api/icons/v1/png_71/restaurant-71.png","icon_background_color":"#FF9E67","icon_mask_base_uri":"https://maps.gstatic.com/mapfiles/place_api/icons/v2/restaurant_pinlet","name":"SNACK LESTADIUM","opening_hours":{"open_now":false},"photos":[{"height":2448,"html_attributions":["<a href=\"https://maps.google.com/maps/contrib/109852845450228184613\">Snack lestadium</a>"],"photo_reference":"AeJbb3cY_CngThgeaMVaQflY24aeqpVcGhlCw6sh7_UVZspSgOTCieTspvTbikxB-7DTaIxSMlg-f-cJ-UqyFcMk4EyuW96vEeGXwaDvbyJuktYGdAdLPCH1V_N-A6Sa3Z-ojFly4_0T27gh9WiCwPC8sRvto9zzaPmNkSHmxJTBqUOnL7bu","width":3264}],"place_id":"ChIJOzt3Spm7rhIRY-b24V57pvM","plus_code":{"compound_code":"HCPH+34 Toulouse","global_code":"8FM3HCPH+34"},"rating":4.3,"reference":"ChIJOzt3Spm7rhIRY-b24V57pvM","types":["restaurant","food","point_of_interest","establishment"],"user_ratings_total":123},{"business_status":"OPERATIONAL","formatted_address":"Avenue des Arènes, parking Intermarché, 31130 Balma","geometry":{"location":{"lat":43.615135,"lng":1.488676},"viewport":{"northeast":{"lat":43.61646427989272,"lng":1.490074279892722},"southwest":{"lat":43.61376462010728,"lng":1.487374620107278}}},"icon":"https://maps.gstatic.com/mapfiles/place_api/icons/v1/png_71/generic_business-71.png","icon_background_color":"#7B9EB0","icon_mask_base_uri":"https://maps.gstatic.com/mapfiles/place_api/icons/v2/generic_pinlet","name":"Burger-POP","opening_hours":{"open_now":true},"photos":[{"height":1000,"html_attributions":["<a href=\"https://maps.google.com/maps/contrib/105277117931926133271\">Burger-POP</a>"],"photo_reference":"AeJbb3dEm-rSi-llGLmfgWxoIAo-CWZxautEqY_zYwv__JqFGTEu3rAZFgcBd2nJTD5dN--JycEZHpGhhWchSAU7dlYqkCh7nmy4bcUzfpDzjVtDzB3seAIG02qN0-1x5BN2pAe1s4hchFfGk4p-35BsO0JU8577iKCJJ5_duwVabCSOv_op","width":2500}],"place_id":"ChIJGakDRSS9rhIRdKrnHFM17Iw","plus_code":{"compound_code":"JF8Q+3F Balma","global_code":"8FM3JF8Q+3F"},"rating":4.3,"reference":"ChIJGakDRSS9rhIRdKrnHFM17Iw","types":["meal_delivery","restaurant","food","point_of_interest","establishment"],"user_ratings_total":76},{"business_status":"OPERATIONAL","formatted_address":"21 Rue Nicolas Bachelier, 31000 Toulouse","geometry":{"location":{"lat":43.606387,"lng":1.4521966},"viewport":{"northeast":{"lat":43.60777332989272,"lng":1.453522429892722},"southwest":{"lat":43.60507367010728,"lng":1.450822770107278}}},"icon":"https://maps.gstatic.com/mapfiles/place_api/icons/v1/png_71/restaurant-71.png","icon_background_color":"#FF9E67","icon_mask_base_uri":"https://maps.gstatic.com/mapfiles/place_api/icons/v2/restaurant_pinlet","name":"Bun's","opening_hours":{"open_now":false},"photos":[{"height":890,"html_attributions":["<a href=\"https://maps.google.com/maps/contrib/117285896072472443880\">A Google User</a>"],"photo_reference":"AeJbb3cSNe2ZG9biyvLZIrqDtjjsZLXjDagSwTT7Chsa8MkXQeiBWFhyHCzoyV-Q7lQAzexHD46CIMBxZPtD_BqVqJ2KKeD4ihgzXuzs3AtTLQVu9Fassga2OMi8Tq0W1pfQ8YHzRPvf3KY5BVugJ0l1fmiER-bfXVBxe8_xqht6-_2Mhm9a","width":1188}],"place_id":"ChIJwcB57569rhIRnSq5oO7WZoM","plus_code":{"compound_code":"JF42+HR Toulouse","global_code":"8FM3JF42+HR"},"rating":4.3,"reference":"ChIJwcB57569rhIRnSq5oO7WZoM","types":["restaurant","food","point_of_interest","establishment"],"user_ratings_total":12},{"business_status":"OPERATIONAL","formatted_address":"7 Rue Charles de Rémusat, 31000 Toulouse","geometry":{"location":{"lat":43.6052784,"lng":1.4438327},"viewport":{"northeast":{"lat":43.60663652989273,"lng":1.445206829892722},"southwest":{"lat":43.60393687010728,"lng":1.442507170107277}}},"icon":"https://maps.gstatic.com/mapfiles/place_api/icons/v1/png_71/restaurant-71.png","icon_background_color":"#FF9E67","icon_mask_base_uri":"https://maps.gstatic.com/mapfiles/place_api/icons/v2/restaurant_pinlet","name":"Duck Me","opening_hours":{"open_now":false},"photos":[{"height":1365,"html_attributions":["<a href=\"https://maps.google.com/maps/contrib/101265107664682794086\">Jossuha Théophile</a>"],"photo_reference":"AeJbb3f2n_-u8qTakq0yTnXpinwjAn80NZLLXdUstiRFm06jGxr48IuxrcHKHvqiBfjVBJra2uWhj60-Al6d48Rh7mY1cSVjntTrdb9l_fYCO_G4isPhe3S9jZqeBLlIWRa50crxGeyjd7kz5PW5n7MUDc01T1faKRBuP90nvLa8tPoE0VXn","width":2048}],"place_id":"ChIJlxGGG568rhIRW-Luc4rkdJs","plus_code":{"compound_code":"JC4V+4G Toulouse","global_code":"8FM3JC4V+4G"},"rating":4.2,"reference":"ChIJlxGGG568rhIRW-Luc4rkdJs","types":["restaurant","food","point_of_interest","establishment"],"user_ratings_total":1037},{"business_status":"OPERATIONAL","formatted_address":"74 Rue du Faubourg Bonnefoy, 31500 Toulouse","geometry":{"location":{"lat":43.62050869999999,"lng":1.4577052},"viewport":{"northeast":{"lat":43.62188192989272,"lng":1.458963429892722},"southwest":{"lat":43.61918227010727,"lng":1.456263770107278}}},"icon":"https://maps.gstatic.com/mapfiles/place_api/icons/v1/png_71/restaurant-71.png","icon_background_color":"#FF9E67","icon_mask_base_uri":"https://maps.gstatic.com/mapfiles/place_api/icons/v2/restaurant_pinlet","name":"Kurty's Burger à Toulouse","opening_hours":{"open_now":false},"photos":[{"height":4000,"html_attributions":["<a href=\"https://maps.google.com/maps/contrib/106258887135523655262\">A Google User</a>"],"photo_reference":"AeJbb3fPoRrz8DVnGe2ZTbww5ngajGTSsAqiiaKPgtcrCg27AJV18N5OJOZBa0WcgN4qC-Jq4Rwt3MAOX7Q6F8nbFxjnBAWcBjXtSXgmBA1BPXWbnmwlGBMmXCP0uz7WCFdapo-tiVgSTGn_65NUynxatDA6CgyPEkS2qd6ceX_nkj0sPwyV","width":6016}],"place_id":"ChIJHTAyDkGjrhIRrJEfWtbTDT4","plus_code":{"compound_code":"JFC5+63 Toulouse","global_code":"8FM3JFC5+63"},"rating":4.2,"reference":"ChIJHTAyDkGjrhIRrJEfWtbTDT4","types":["meal_takeaway","meal_delivery","restaurant","food","point_of_interest","establishment"],"user_ratings_total":552},{"business_status":"OPERATIONAL","formatted_address":"2 Rue Paul Mériel, 31000 Toulouse","geometry":{"location":{"lat":43.60367129999999,"lng":1.4482463},"viewport":{"northeast":{"lat":43.60502732989273,"lng":1.449535879892722},"southwest":{"lat":43.60232767010728,"lng":1.446836220107278}}},"icon":"https://maps.gstatic.com/mapfiles/place_api/icons/v1/png_71/restaurant-71.png","icon_background_color":"#FF9E67","icon_mask_base_uri":"https://maps.gstatic.com/mapfiles/place_api/icons/v2/restaurant_pinlet","name":"Eat Salad","opening_hours":{"open_now":false},"photos":[{"height":2448,"html_attributions":["<a href=\"https://maps.google.com/maps/contrib/116640743568808478139\">EAT SALAD</a>"],"photo_reference":"AeJbb3dUJtvl_G3jll21MW0r_M3ZJ05L1Uy6GduQv4fSWMBTjQ936KRrCowARdpD70JUV0zM8aiPG-pcKIMD8HkCy9kI0x6bEF6RPi3grrMXsiz-N9QINiSCj4Hrht8AD5D9CcRRXql_niSpQeVIPTSIXImnqiSXPk_Z4wYpYJc0zSibvIX4","width":3264}],"place_id":"ChIJKeUFCZy8rhIRn4Jz7EMD03o","plus_code":{"compound_code":"JC3X+F7 Toulouse","global_code":"8FM3JC3X+F7"},"price_level":2,"rating":4.2,"reference":"ChIJKeUFCZy8rhIRn4Jz7EMD03o","types":["restaurant","food","point_of_interest","establishment"],"user_ratings_total":536},{"business_status":"OPERATIONAL","formatted_address":"15 Esp. André Michaux, 31130 Balma","geometry":{"location":{"lat":43.6244533,"lng":1.4949609},"viewport":{"northeast":{"lat":43.62570362989272,"lng":1.496293029892722},"southwest":{"lat":43.62300397010728,"lng":1.493593370107278}}},"icon":"https://maps.gstatic.com/mapfiles/place_api/icons/v1/png_71/restaurant-71.png","icon_background_color":"#FF9E67","icon_mask_base_uri":"https://maps.gstatic.com/mapfiles/place_api/icons/v2/restaurant_pinlet","name":"Eat Salad","opening_hours":{"open_now":false},"photos":[{"height":2976,"html_attributions":["<a href=\"https://maps.google.com/maps/contrib/115774824451175911174\">Bernard Sancerni</a>"],"photo_reference":"AeJbb3fNy0DIw1h2rYPS-W4oicw9eIMjQaZSWo1I-p3QFgzs8M1q1juHJWdYQm3ONf-2IsqAemJ3tMwxRqbh-TOzuFihsOHg9WOh4K57ZKD33Y4i2k0erYF8GiXsu0xbvKp6yR-ABUpRU8EYCC18uy3aAP3I66SS94cPmPnoxHzrrUyG8NF1","width":3968}],"place_id":"ChIJd6ugtzO9rhIRL2WZGR8Vf_o","plus_code":{"compound_code":"JFFV+QX Balma","global_code":"8FM3JFFV+QX"},"price_level":2,"rating":4.2,"reference":"ChIJd6ugtzO9rhIRL2WZGR8Vf_o","types":["restaurant","food","point_of_interest","establishment"],"user_ratings_total":341},{"business_status":"OPERATIONAL","formatted_address":"42 Chem. des Izards, 31200 Toulouse","geometry":{"location":{"lat":43.6396255,"lng":1.4444986},"viewport":{"northeast":{"lat":43.64097772989271,"lng":1.445805979892722},"southwest":{"lat":43.63827807010727,"lng":1.443106320107278}}},"icon":"https://maps.gstatic.com/mapfiles/place_api/icons/v1/png_71/restaurant-71.png","icon_background_color":"#FF9E67","icon_mask_base_uri":"https://maps.gstatic.com/mapfiles/place_api/icons/v2/restaurant_pinlet","name":"Pepper's","opening_hours":{"open_now":false},"photos":[{"height":3024,"html_attributions":["<a href=\"https://maps.google.com/maps/contrib/117867804573201372287\">A Google User</a>"],"photo_reference":"AeJbb3f_vqZAm6yi6rmunLWsStcoA5fl5oKmI74E7rC49Shg3Z4eHhbtUwSWJVW61MsrOXH1DNb1JOBlIOD77KwGJjxvv4QXXjl2RFqoWBtHg6m4PreBvY18oGGb1zOEr9OZjv2EEh1BKZkR7dJR0kzRv6pPd4a6o2VkzmmyNldAnajFdmiZ","width":4032}],"place_id":"ChIJmfoKaVijrhIRKxi7RQGx6jY","plus_code":{"compound_code":"JCQV+RR Toulouse","global_code":"8FM3JCQV+RR"},"rating":4.2,"reference":"ChIJmfoKaVijrhIRKxi7RQGx6jY","types":["restaurant","food","point_of_interest","establishment"],"user_ratings_total":264},{"business_status":"OPERATIONAL","formatted_address":"18 Rue des Changes, 31000 Toulouse","geometry":{"location":{"lat":43.6010042,"lng":1.4437923},"viewport":{"northeast":{"lat":43.60261827989272,"lng":1.445050829892722},"southwest":{"lat":43.59991862010727,"lng":1.442351170107278}}},"icon":"https://maps.gstatic.com/mapfiles/place_api/icons/v1/png_71/restaurant-71.png","icon_background_color":"#FF9E67","icon_mask_base_uri":"https://maps.gstatic.com/mapfiles/place_api/icons/v2/restaurant_pinlet","name":"Chamas Tacos® Toulouse","opening_hours":{"open_now":false},"photos":[{"height":2048,"html_attributions":["<a href=\"https://maps.google.com/maps/contrib/115159976244695614383\">A Google User</a>"],"photo_reference":"AeJbb3efuz2nhOkPVJwWSUsZ8aIYx9DIISki2z4y8Luk79m71P7c-FGjgoVJS7QqEQtm5_C8IFgindvJ-y51Ii9mrFpOz0IyC10u7jnqXp2MZTQfoPvsD5_uh4j5PPcGk_QxydbgYoOWLjn8XnSF4UNwLfkKPu00A-mhuy_XDhkdPUdVLvJA","width":1536}],"place_id":"ChIJMzSuNTK9rhIRp0S27wHebVo","plus_code":{"compound_code":"JC2V+CG Toulouse","global_code":"8FM3JC2V+CG"},"price_level":1,"rating":4.2,"reference":"ChIJMzSuNTK9rhIRp0S27wHebVo","types":["restaurant","food","point_of_interest","establishment"],"user_ratings_total":112},{"business_status":"OPERATIONAL","formatted_address":"1 Rue des Lauriers, 31650 Saint-Orens-de-Gameville","geometry":{"location":{"lat":43.5428201,"lng":1.5430803},"viewport":{"northeast":{"lat":43.54413312989272,"lng":1.544302929892722},"southwest":{"lat":43.54143347010728,"lng":1.541603270107278}}},"icon":"https://maps.gstatic.com/mapfiles/place_api/icons/v1/png_71/restaurant-71.png","icon_background_color":"#FF9E67","icon_mask_base_uri":"https://maps.gstatic.com/mapfiles/place_api/icons/v2/restaurant_pinlet","name":"Nan Burger","opening_hours":{"open_now":false},"photos":[{"height":8000,"html_attributions":["<a href=\"https://maps.google.com/maps/contrib/112458964059606936428\">rouabssi walid</a>"],"photo_reference":"AeJbb3c8hKNbudOrN_XH7vdBE3EwhK4dZ7-hxpg3rDGkbkFZ5L2Ef8KtgPVJxewiDbpYMgJx-IGzrtlN4yPC6_BUxfoELTEXfXQUYykjXco6F-LQC2Vb9dpMEPXp3pOV96Is2Ayw_X7OmVm9LfEBwPZGi-gkQh3N_kUWB2u8hnWYcgPUw109","width":6000}],"place_id":"ChIJ_V3v-9yVrhIRjnsEtIdaF9w","plus_code":{"compound_code":"GGVV+46 Saint-Orens-de-Gameville","global_code":"8FM3GGVV+46"},"rating":4.1,"reference":"ChIJ_V3v-9yVrhIRjnsEtIdaF9w","types":["restaurant","food","point_of_interest","establishment"],"user_ratings_total":157},{"business_status":"OPERATIONAL","formatted_address":"7 Bd de l'Europe, 31120 Portet-sur-Garonne","geometry":{"location":{"lat":43.5305802,"lng":1.4023874},"viewport":{"northeast":{"lat":43.53197112989272,"lng":1.403762729892722},"southwest":{"lat":43.52927147010728,"lng":1.401063070107278}}},"icon":"https://maps.gstatic.com/mapfiles/place_api/icons/v1/png_71/restaurant-71.png","icon_background_color":"#FF9E67","icon_mask_base_uri":"https://maps.gstatic.com/mapfiles/place_api/icons/v2/restaurant_pinlet","name":"Burger King","opening_hours":{"open_now":false},"photos":[{"height":3120,"html_attributions":["<a href=\"https://maps.google.com/maps/contrib/117381178026292573007\">Peter Suhai</a>"],"photo_reference":"AeJbb3cOTo07V4CX29_nvgujI37r2m1FmMNom9q8pt2ed91e-FiqK9PkUoaLzCbOSeHCje_gY7RLbntpVOGl1zrHqSnLxQELUnXm4cTcOpxRB1_g2gmAsliQ495om6XnQEyCdfjxU6SfsGWHWaKYNFGIqx4_RULa7F-yGoFS4w-sPjqGzrqi","width":4160}],"place_id":"ChIJ3dZDVaC5rhIRobkAY0uZmOo","plus_code":{"compound_code":"GCJ2+6X Portet-sur-Garonne","global_code":"8FM3GCJ2+6X"},"price_level":1,"rating":4,"reference":"ChIJ3dZDVaC5rhIRobkAY0uZmOo","types":["meal_takeaway","bar","restaurant","food","point_of_interest","establishment"],"user_ratings_total":3666},{"business_status":"OPERATIONAL","formatted_address":"Centre Commercial, 2 All. des Champs Pinsons, 31650 Saint-Orens-de-Gameville","geometry":{"location":{"lat":43.5632815,"lng":1.5188016},"viewport":{"northeast":{"lat":43.56454057989272,"lng":1.520221029892722},"southwest":{"lat":43.56184092010728,"lng":1.517521370107278}}},"icon":"https://maps.gstatic.com/mapfiles/place_api/icons/v1/png_71/restaurant-71.png","icon_background_color":"#FF9E67","icon_mask_base_uri":"https://maps.gstatic.com/mapfiles/place_api/icons/v2/restaurant_pinlet","name":"Burger King","opening_hours":{"open_now":false},"photos":[{"height":1080,"html_attributions":["<a href=\"https://maps.google.com/maps/contrib/116351301713633546880\">Metge Cédric</a>"],"photo_reference":"AeJbb3euX0CvOmZfJG0MyxGx5KvMsA_UswAqoM2Cb5hx2eVjb4Q4ppgL3YLUWX6hy08kVhFcO95SSxooQvcMecX0sGWvXGKgG1w7OgrAzhcyWAThGfHshf0sT5TLMXZFFBLTkYMBmFWMQvm4jJEuysCui3N8VOoKtO1kox9KBfw6GxvGj2pk","width":1920}],"place_id":"ChIJMyYzw_a9rhIRmBQCoERAP5g","plus_code":{"compound_code":"HG79+8G Saint-Orens-de-Gameville","global_code":"8FM3HG79+8G"},"price_level":1,"rating":4,"reference":"ChIJMyYzw_a9rhIRmBQCoERAP5g","types":["meal_takeaway","bar","restaurant","food","point_of_interest","establishment"],"user_ratings_total":2286},{"business_status":"OPERATIONAL","formatted_address":"11 All. du Président Franklin Roosevelt, 31000 Toulouse","geometry":{"location":{"lat":43.60568749999999,"lng":1.4482347},"viewport":{"northeast":{"lat":43.60702822989273,"lng":1.449596229892722},"southwest":{"lat":43.60432857010728,"lng":1.446896570107278}}},"icon":"https://maps.gstatic.com/mapfiles/place_api/icons/v1/png_71/restaurant-71.png","icon_background_color":"#FF9E67","icon_mask_base_uri":"https://maps.gstatic.com/mapfiles/place_api/icons/v2/restaurant_pinlet","name":"Big Fernand","opening_hours":{"open_now":false},"photos":[{"height":1816,"html_attributions":["<a href=\"https://maps.google.com/maps/contrib/114052574343604870557\">Lucas ROMERA</a>"],"photo_reference":"AeJbb3dev7dzD9eaKZ2LF0HdSaDnhlCpRd93qmc1JkJPdYXnTbtP_RB-xc_0pm7aItI-nbfd1tWstbo6MolxsIOBAE0KrQdp6ElpN6mZNGIuh1b9yuXN1fLT-g9PnA8X438Rjiuzg3nUUtYurziF58EnHV0A3FDphOdZQbD6OV8yZt5I6CT1","width":4032}],"place_id":"ChIJfzCTyp68rhIRql6j-96DkAs","plus_code":{"compound_code":"JC4X+77 Toulouse","global_code":"8FM3JC4X+77"},"price_level":2,"rating":4,"reference":"ChIJfzCTyp68rhIRql6j-96DkAs","types":["meal_takeaway","meal_delivery","restaurant","food","point_of_interest","establishment"],"user_ratings_total":1186},{"business_status":"OPERATIONAL","formatted_address":"62 Rue Roland Garros, 31700 Blagnac","geometry":{"location":{"lat":43.6449565,"lng":1.3670384},"viewport":{"northeast":{"lat":43.64619732989271,"lng":1.368311229892722},"southwest":{"lat":43.64349767010727,"lng":1.365611570107278}}},"icon":"https://maps.gstatic.com/mapfiles/place_api/icons/v1/png_71/restaurant-71.png","icon_background_color":"#FF9E67","icon_mask_base_uri":"https://maps.gstatic.com/mapfiles/place_api/icons/v2/restaurant_pinlet","name":"Burger King","opening_hours":{"open_now":false},"photos":[{"height":960,"html_attributions":["<a href=\"https://maps.google.com/maps/contrib/101225935252610229064\">A Google User</a>"],"photo_reference":"AeJbb3eHhz4b0MGiww7qj1Wr_Ni-2hq6GxMfVqAfg3nqzrIhgZi4uLrRbGzBsit-IDb3yDEq31UaT07sfH0okZYK216lmolS--w0n3jdg0fG_rZZkSAviSXku0QSu2mKXIasuQnTwCg09FfwdYw43Dh_WCxGlrB7kKX3JFouUGr0kxfoR1db","width":1280}],"place_id":"ChIJ5aGPsOilrhIRPHEPTnCNugQ","plus_code":{"compound_code":"J9V8+XR Blagnac","global_code":"8FM3J9V8+XR"},"price_level":1,"rating":4,"reference":"ChIJ5aGPsOilrhIRPHEPTnCNugQ","types":["meal_takeaway","bar","restaurant","food","point_of_interest","establishment"],"user_ratings_total":782},{"business_status":"OPERATIONAL","formatted_address":"44 Rue Jean-Baptiste Merly, 31000 Toulouse","geometry":{"location":{"lat":43.6102599,"lng":1.4430811},"viewport":{"northeast":{"lat":43.61161822989271,"lng":1.444397379892722},"southwest":{"lat":43.60891857010727,"lng":1.441697720107278}}},"icon":"https://maps.gstatic.com/mapfiles/place_api/icons/v1/png_71/restaurant-71.png","icon_background_color":"#FF9E67","icon_mask_base_uri":"https://maps.gstatic.com/mapfiles/place_api/icons/v2/restaurant_pinlet","name":"So Chicken","opening_hours":{"open_now":false},"photos":[{"height":3024,"html_attributions":["<a href=\"https://maps.google.com/maps/contrib/104470657325418077929\">Helmi Abd Ghani</a>"],"photo_reference":"AeJbb3cDlG12u3MOZpSKWVh8iCKlYz-SN2SYHbynVVdRCAHIVO1yDFRovS2AfFy7Kw-owKOMxNCDwoq3ZVCZbvIFZt45EGAiP1rVrtgxal4ETr5GB6urfFrhPJFft4-wpgFENjlynD_xl77N-aYtVq3jpPjVsxVtPdcZeMANpYZB1cCLolby","width":4032}],"place_id":"ChIJeUec81-7rhIRPj-NE8A6v7A","plus_code":{"compound_code":"JC6V+36 Toulouse","global_code":"8FM3JC6V+36"},"price_level":1,"rating":4,"reference":"ChIJeUec81-7rhIRPj-NE8A6v7A","types":["restaurant","food","point_of_interest","establishment"],"user_ratings_total":582},{"business_status":"OPERATIONAL","formatted_address":"43 Bd de Strasbourg, 31000 Toulouse","geometry":{"location":{"lat":43.6087683,"lng":1.4451806},"viewport":{"northeast":{"lat":43.61012082989272,"lng":1.446600629892722},"southwest":{"lat":43.60742117010727,"lng":1.443900970107278}}},"icon":"https://maps.gstatic.com/mapfiles/place_api/icons/v1/png_71/restaurant-71.png","icon_background_color":"#FF9E67","icon_mask_base_uri":"https://maps.gstatic.com/mapfiles/place_api/icons/v2/restaurant_pinlet","name":"Mak Food","opening_hours":{"open_now":false},"photos":[{"height":2988,"html_attributions":["<a href=\"https://maps.google.com/maps/contrib/110357959396691887585\">Benoit Paillard</a>"],"photo_reference":"AeJbb3c9mdj0_OM0njjeazjmLXomjDmtyLcU5mWBEqYtDXd9Ly6K3NkeQFs3TLVWEVDqrP8apyIsV2RBHAsi1pwONHBwSYRkzEJwmrPkZkem8q3vaPTt3YXSmImQRDR9Vynr6isPYSVIt7_urMLI6kX9sqzgBzyOt8LTJQ0zT9ge_s1Guwyq","width":5312}],"place_id":"ChIJ1RLgjp-8rhIRBMfROj8DDeU","plus_code":{"compound_code":"JC5W+F2 Toulouse","global_code":"8FM3JC5W+F2"},"price_level":1,"rating":4,"reference":"ChIJ1RLgjp-8rhIRBMfROj8DDeU","types":["restaurant","food","point_of_interest","establishment"],"user_ratings_total":313},{"business_status":"OPERATIONAL","formatted_address":"105 Rte d'Agde, 31500 Toulouse","geometry":{"location":{"lat":43.6295019,"lng":1.4808758},"viewport":{"northeast":{"lat":43.63079517989272,"lng":1.482446029892722},"southwest":{"lat":43.62809552010728,"lng":1.479746370107278}}},"icon":"https://maps.gstatic.com/mapfiles/place_api/icons/v1/png_71/restaurant-71.png","icon_background_color":"#FF9E67","icon_mask_base_uri":"https://maps.gstatic.com/mapfiles/place_api/icons/v2/restaurant_pinlet","name":"Burger King","opening_hours":{"open_now":false},"photos":[{"height":2340,"html_attributions":["<a href=\"https://maps.google.com/maps/contrib/110237407993691480487\">YO BOURDET</a>"],"photo_reference":"AeJbb3c7xfE1QtiyrukIURdr1X-ZEglLrbNZjBEwjmhgcST41F2UAZCjZqU-gS2KP8ihKvxcX7dXAQ6PHdZkgpgLzz9PMcZRKXGyA3vEcyHkA20Fo4d_jbxALNWM3sjg1Krjsn1hJZPo3cb1JmIzq_jsWYNluk-y1eRMmfNOrNKlzEQG9U2o","width":4160}],"place_id":"ChIJYZ1ewSqjrhIRf9clMnGC1ac","plus_code":{"compound_code":"JFHJ+R9 Toulouse","global_code":"8FM3JFHJ+R9"},"price_level":1,"rating":3.9,"reference":"ChIJYZ1ewSqjrhIRf9clMnGC1ac","types":["meal_takeaway","bar","restaurant","food","point_of_interest","establishment"],"user_ratings_total":2757},{"business_status":"OPERATIONAL","formatted_address":"175 Rte de Revel, 31400 Toulouse","geometry":{"location":{"lat":43.5711271,"lng":1.4995805},"viewport":{"northeast":{"lat":43.57247762989272,"lng":1.500930479892722},"southwest":{"lat":43.56977797010727,"lng":1.498230820107278}}},"icon":"https://maps.gstatic.com/mapfiles/place_api/icons/v1/png_71/restaurant-71.png","icon_background_color":"#FF9E67","icon_mask_base_uri":"https://maps.gstatic.com/mapfiles/place_api/icons/v2/restaurant_pinlet","name":"Kfc Toulouse Montaudran","opening_hours":{"open_now":false},"photos":[{"height":3024,"html_attributions":["<a href=\"https://maps.google.com/maps/contrib/113631489195680417685\">Michel MARTIN</a>"],"photo_reference":"AeJbb3fXs27qXhylJPhtHoMsPRkNGMMbAyYYCv4LVKboi3I3C9xKuWjPL8Xw3vx5zP9l5W8D5NX9gaCWFkGxgcEOHErYiqrwabmzpHizN-6839Sbb3ayUYQfBvbAXcK17OIjeZZeNQICd0Raud-hHOwVqDOdb_5fZGMCRiVreXU-QPeMa3Eq","width":4032}],"place_id":"ChIJv34hmL-9rhIRSW3x0LkhQFc","plus_code":{"compound_code":"HFCX+FR Toulouse","global_code":"8FM3HFCX+FR"},"price_level":1,"rating":3.9,"reference":"ChIJv34hmL-9rhIRSW3x0LkhQFc","types":["meal_takeaway","meal_delivery","restaurant","food","point_of_interest","establishment"],"user_ratings_total":1745},{"business_status":"OPERATIONAL","formatted_address":"25 Chem. de la Salvetat, 31770 Colomiers","geometry":{"location":{"lat":43.6037292,"lng":1.3069721},"viewport":{"northeast":{"lat":43.60526157989273,"lng":1.308465329892722},"southwest":{"lat":43.60256192010728,"lng":1.305765670107278}}},"icon":"https://maps.gstatic.com/mapfiles/place_api/icons/v1/png_71/restaurant-71.png","icon_background_color":"#FF9E67","icon_mask_base_uri":"https://maps.gstatic.com/mapfiles/place_api/icons/v2/restaurant_pinlet","name":"Burger King","opening_hours":{"open_now":false},"photos":[{"height":2304,"html_attributions":["<a href=\"https://maps.google.com/maps/contrib/116099593649329022992\">A Google User</a>"],"photo_reference":"AeJbb3ekxVdhJ3zgFtWsMXVkqOhXEra4g8pkhn8osJpRxZu_j_C-_m0kqSjpwwPYByJ-Xsavi-MBewlyLxjYr_yOAR_kUTD6O9U8E0-L0fvFD8AqwxPpni5DTnwRR3Ip_o_h2FizTGQqeYhYufJvkD735uIk6hDK-jPCRK7tyengwZtCFg7u","width":1728}],"place_id":"ChIJaSytfaixrhIRobiUUpWtg70","plus_code":{"compound_code":"J834+FQ Colomiers","global_code":"8FM3J834+FQ"},"price_level":1,"rating":3.9,"reference":"ChIJaSytfaixrhIRobiUUpWtg70","types":["meal_takeaway","bar","restaurant","food","point_of_interest","establishment"],"user_ratings_total":959},{"business_status":"OPERATIONAL","formatted_address":"89 Gd Rue Saint-Michel, 31400 Toulouse","geometry":{"location":{"lat":43.5886187,"lng":1.4461174},"viewport":{"northeast":{"lat":43.59001267989272,"lng":1.447458029892722},"southwest":{"lat":43.58731302010728,"lng":1.444758370107278}}},"icon":"https://maps.gstatic.com/mapfiles/place_api/icons/v1/png_71/restaurant-71.png","icon_background_color":"#FF9E67","icon_mask_base_uri":"https://maps.gstatic.com/mapfiles/place_api/icons/v2/restaurant_pinlet","name":"Chicken Ben's st Michel","opening_hours":{"open_now":false},"photos":[{"height":1152,"html_attributions":["<a href=\"https://maps.google.com/maps/contrib/111542213350620540619\">Chicken Ben&#39;s</a>"],"photo_reference":"AeJbb3cL8lyZkwjHCGW9jUlT0ihA35Y22pTB6z1ntFbJ9q-fPHt-JJwtRbgwTxrAI4-ogR0odZWhSSv0mlQxTSusAsG3s8ljW34BI3Y7BZ5eg3rIkmilYk3BOi9SvEHqHYSd8_cwJuFG3B8Ui942W5p_koGThZ9b3zMnWsEVWRY9xJsKMlkI","width":2048}],"place_id":"ChIJu7C1S368rhIRkBGNysoZsKA","plus_code":{"compound_code":"HCQW+FC Toulouse","global_code":"8FM3HCQW+FC"},"price_level":1,"rating":3.9,"reference":"ChIJu7C1S368rhIRkBGNysoZsKA","types":["restaurant","food","point_of_interest","establishment"],"user_ratings_total":479},{"business_status":"OPERATIONAL","formatted_address":"55 Av. de Toulouse, 31240 L'Union","geometry":{"location":{"lat":43.657331,"lng":1.4801417},"viewport":{"northeast":{"lat":43.65863382989272,"lng":1.481549329892722},"southwest":{"lat":43.65593417010728,"lng":1.478849670107278}}},"icon":"https://maps.gstatic.com/mapfiles/place_api/icons/v1/png_71/restaurant-71.png","icon_background_color":"#FF9E67","icon_mask_base_uri":"https://maps.gstatic.com/mapfiles/place_api/icons/v2/restaurant_pinlet","name":"Tacos Burger Avenue L' Union","opening_hours":{"open_now":false},"photos":[{"height":3456,"html_attributions":["<a href=\"https://maps.google.com/maps/contrib/105191501105875232341\">Valerie V</a>"],"photo_reference":"AeJbb3d7VcCVzFcN3I0vcgSe5anpDR7QKzZ5HyRU61sO-88LphGanzzuIodfZX8Waz0RzkgPJbVR0hc81OWto2a0m-jTswszXEF9e6jzE2yZVFApEccPebIEbjAOpCwcNvx7eSC7_f0lRreY2tkjC1dzc8SvuZ6NLmT4IlVSdXeX4DYG3nTb","width":4608}],"place_id":"ChIJ7bEDHiijrhIRFrMWt_3VbTo","plus_code":{"compound_code":"MF4J+W3 L'Union","global_code":"8FM3MF4J+W3"},"rating":3.9,"reference":"ChIJ7bEDHiijrhIRFrMWt_3VbTo","types":["restaurant","food","point_of_interest","establishment"],"user_ratings_total":232},{"business_status":"OPERATIONAL","formatted_address":"118 Rte d'Espagne, 31100 Toulouse","geometry":{"location":{"lat":43.5702018,"lng":1.4238243},"viewport":{"northeast":{"lat":43.57140372989273,"lng":1.425198379892722},"southwest":{"lat":43.56870407010728,"lng":1.422498720107278}}},"icon":"https://maps.gstatic.com/mapfiles/place_api/icons/v1/png_71/restaurant-71.png","icon_background_color":"#FF9E67","icon_mask_base_uri":"https://maps.gstatic.com/mapfiles/place_api/icons/v2/restaurant_pinlet","name":"Dubble Toulouse Route d'Espagne | Healthy Food","opening_hours":{"open_now":true},"photos":[{"height":1080,"html_attributions":["<a href=\"https://maps.google.com/maps/contrib/104175225744890243038\">A Google User</a>"],"photo_reference":"AeJbb3etKS2xWXu6R3qdQVMwdNg_x3N5NfOibLPoXmw-U1eFlbTm5qk4IlAN2P75UJe3ABm6tDqfByuQXTL7k-F7uO7ZjkyPHp4QQ6X4zrBBbODewrFjzFWyJQCwN106ZC0dOS6KwLWt6NjDE16nwVRlDGYXlgrT1YkL4kKBKB7DWMLVWcwf","width":1080}],"place_id":"ChIJccngHsC7rhIR8qrfO-OGWPg","plus_code":{"compound_code":"HCCF+3G Toulouse","global_code":"8FM3HCCF+3G"},"price_level":2,"rating":3.9,"reference":"ChIJccngHsC7rhIR8qrfO-OGWPg","types":["meal_takeaway","restaurant","food","point_of_interest","establishment"],"user_ratings_total":69},{"business_status":"OPERATIONAL","formatted_address":"1 Bd de Strasbourg, 31000 Toulouse","geometry":{"location":{"lat":43.6057561,"lng":1.4482614},"viewport":{"northeast":{"lat":43.60705322989272,"lng":1.449653779892722},"southwest":{"lat":43.60435357010728,"lng":1.446954120107278}}},"icon":"https://maps.gstatic.com/mapfiles/place_api/icons/v1/png_71/restaurant-71.png","icon_background_color":"#FF9E67","icon_mask_base_uri":"https://maps.gstatic.com/mapfiles/place_api/icons/v2/restaurant_pinlet","name":"Burger King","opening_hours":{"open_now":false},"photos":[{"height":2160,"html_attributions":["<a href=\"https://maps.google.com/maps/contrib/101352489314402496734\">Laurent Bertrand</a>"],"photo_reference":"AeJbb3fvVWCqocyWcJx783gh-Xt65kbbLMjrXCMMlHiMXtOFpahpr-6Eu5ai3gEkT5O8itqIGUPV1Lb4VxjE4OH1doRwlcpOjt_zfek3nMKbT6ujM-Olu_egW8Ir3cSY5hhFQ_Dcaf25HJlpwgYmEMqGDuAUr-UafAysTZAenIWc3Ki9E17O","width":2880}],"place_id":"ChIJt49jy568rhIRfsPvH5zbQ0Y","plus_code":{"compound_code":"JC4X+88 Toulouse","global_code":"8FM3JC4X+88"},"price_level":1,"rating":3.8,"reference":"ChIJt49jy568rhIRfsPvH5zbQ0Y","types":["meal_takeaway","bar","restaurant","food","point_of_interest","establishment"],"user_ratings_total":3311},{"business_status":"OPERATIONAL","formatted_address":"Centre Commerciale Espace Gramont, 31200 Toulouse","geometry":{"location":{"lat":43.6323273,"lng":1.4863975},"viewport":{"northeast":{"lat":43.63332422989272,"lng":1.487844679892722},"southwest":{"lat":43.63062457010728,"lng":1.485145020107278}}},"icon":"https://maps.gstatic.com/mapfiles/place_api/icons/v1/png_71/restaurant-71.png","icon_background_color":"#FF9E67","icon_mask_base_uri":"https://maps.gstatic.com/mapfiles/place_api/icons/v2/restaurant_pinlet","name":"GYROS TOULOUSE GRAMONT","opening_hours":{"open_now":false},"photos":[{"height":4032,"html_attributions":["<a href=\"https://maps.google.com/maps/contrib/114981690531126599828\">A Google User</a>"],"photo_reference":"AeJbb3c4A62J8LnmRvMGlDGdvr-emCBhSOp_OBT2Q30HFvaVr2uL2DWWUbYvBuuEB77rIu1W5vfkfsQgDB5Q25n7smH4itgA7vhY_ApaFo9-isqhGNh0hmq33Twc_FyWuwZOJZC7BBOBsOsxik89hjFe57UKddXqC9N29odVCnhPONIUb44l","width":3024}],"place_id":"ChIJb5mc-U6jrhIRCcq4woqwHWQ","plus_code":{"compound_code":"JFJP+WH Toulouse","global_code":"8FM3JFJP+WH"},"rating":3.8,"reference":"ChIJb5mc-U6jrhIRCcq4woqwHWQ","types":["restaurant","food","point_of_interest","establishment"],"user_ratings_total":393},{"business_status":"OPERATIONAL","formatted_address":"327 Av. des États Unis, 31200 Toulouse","geometry":{"location":{"lat":43.654207,"lng":1.4227551},"viewport":{"northeast":{"lat":43.65558652989272,"lng":1.424121079892722},"southwest":{"lat":43.65288687010727,"lng":1.421421420107278}}},"icon":"https://maps.gstatic.com/mapfiles/place_api/icons/v1/png_71/restaurant-71.png","icon_background_color":"#FF9E67","icon_mask_base_uri":"https://maps.gstatic.com/mapfiles/place_api/icons/v2/restaurant_pinlet","name":"Boum Burger","opening_hours":{"open_now":false},"photos":[{"height":4032,"html_attributions":["<a href=\"https://maps.google.com/maps/contrib/104750274110261142417\">las Julien</a>"],"photo_reference":"AeJbb3fNUS8cgeVVrww-49vKgHznbikyIoF1brPO-C_PhOqbZy4zGT9uQ8yGycWjhZslhfKB4KygupcPNdNFt_8GthfZOi99wEO46iQxy3_7W568MSNnGz_dvkHSH0AvIpnUS2yNV-a-BqRBoYH9jal99vvpy3iJTBSeQ5PbP06_sJylJ2rp","width":1960}],"place_id":"ChIJB2pv6eykrhIRIChMFP3C3g8","plus_code":{"compound_code":"MC3F+M3 Toulouse","global_code":"8FM3MC3F+M3"},"rating":3.7,"reference":"ChIJB2pv6eykrhIRIChMFP3C3g8","types":["restaurant","food","point_of_interest","establishment"],"user_ratings_total":861},{"business_status":"OPERATIONAL","formatted_address":"29 Av. de Grande Bretagne, 31300 Toulouse","geometry":{"location":{"lat":43.5971727,"lng":1.421067},"viewport":{"northeast":{"lat":43.59857122989272,"lng":1.422382729892722},"southwest":{"lat":43.59587157010728,"lng":1.419683070107278}}},"icon":"https://maps.gstatic.com/mapfiles/place_api/icons/v1/png_71/restaurant-71.png","icon_background_color":"#FF9E67","icon_mask_base_uri":"https://maps.gstatic.com/mapfiles/place_api/icons/v2/restaurant_pinlet","name":"BFC Food","opening_hours":{"open_now":false},"photos":[{"height":3376,"html_attributions":["<a href=\"https://maps.google.com/maps/contrib/102312619112070392546\">richard florent</a>"],"photo_reference":"AeJbb3dVnv8LG-BrrN118iNWsusUg4AUJkCtZsLABxMmMsND5mFQy8RP1LOIWWO57Gs0_jZjdj_75Q89gtB7DwqT-jp7bof6kLP1bEoL2lGgZ_qTWnyWYUaJognadsi0ect7tRYRZkIGoSlmEmP0MWIB-243eI4gxUGfG0XdRhYw-bVZoi-l","width":5984}],"place_id":"ChIJAQAUTgy7rhIRKLoWxNbuij8","plus_code":{"compound_code":"HCWC+VC Toulouse","global_code":"8FM3HCWC+VC"},"rating":3.7,"reference":"ChIJAQAUTgy7rhIRKLoWxNbuij8","types":["restaurant","food","point_of_interest","establishment"],"user_ratings_total":307},{"business_status":"OPERATIONAL","formatted_address":"43 Gd Rue Saint-Michel, 31000 Toulouse","geometry":{"location":{"lat":43.586523,"lng":1.4469086},"viewport":{"northeast":{"lat":43.58787482989271,"lng":1.448271229892722},"southwest":{"lat":43.58517517010727,"lng":1.445571570107278}}},"icon":"https://maps.gstatic.com/mapfiles/place_api/icons/v1/png_71/restaurant-71.png","icon_background_color":"#FF9E67","icon_mask_base_uri":"https://maps.gstatic.com/mapfiles/place_api/icons/v2/restaurant_pinlet","name":"Must Chicken","opening_hours":{"open_now":false},"photos":[{"height":4032,"html_attributions":["<a href=\"https://maps.google.com/maps/contrib/101105101862705253286\">Luck Yron</a>"],"photo_reference":"AeJbb3fRJ9tpKEMNU79QOqMTWxzxiCQDjavqiv-FKZHGJ4Bi3dGu6iBTQZu43z4oZKDe02y2BSztqHBeyP5XNxqbDbGTrlXG84PUAMFK-NHn-r6CyYcNPx4bcVd6MTz4w6YZ130ImG3nbEgbq2076qi5_5yIDWKqT-UrcHSUkd3r1g11QtkQ","width":3024}],"place_id":"ChIJe_yKwH68rhIRMTx7p17qYoA","plus_code":{"compound_code":"HCPW+JP Toulouse","global_code":"8FM3HCPW+JP"},"rating":3.7,"reference":"ChIJe_yKwH68rhIRMTx7p17qYoA","types":["restaurant","food","point_of_interest","establishment"],"user_ratings_total":177},{"business_status":"OPERATIONAL","formatted_address":"23 Pl. du Capitole, 31000 Toulouse","geometry":{"location":{"lat":43.6050397,"lng":1.4436359},"viewport":{"northeast":{"lat":43.60636207989272,"lng":1.444979779892722},"southwest":{"lat":43.60366242010727,"lng":1.442280120107278}}},"icon":"https://maps.gstatic.com/mapfiles/place_api/icons/v1/png_71/restaurant-71.png","icon_background_color":"#FF9E67","icon_mask_base_uri":"https://maps.gstatic.com/mapfiles/place_api/icons/v2/restaurant_pinlet","name":"McDonald's Toulouse Capitole","opening_hours":{"open_now":true},"photos":[{"height":1960,"html_attributions":["<a href=\"https://maps.google.com/maps/contrib/105878643571210089065\">bernard borello</a>"],"photo_reference":"AeJbb3d4GWTv9gyFUqUayBuYRX8CaEsyHw60BYbIikIJM-YdS-sTTEBhawSBiq4rdfAJjLK3AFF86o1vsw0U_cDb-94sMVa_YTybLZLLV9sgHkenEePUxTUeXBZadGQ7r1fMe6Gge0rsmqttoXn_svi2_Rqx0evZPNFgKYQn1HXlFPFcl1cj","width":4032}],"place_id":"ChIJl6LYAp68rhIR52hPGY6KVkY","plus_code":{"compound_code":"JC4V+2C Toulouse","global_code":"8FM3JC4V+2C"},"price_level":1,"rating":3.6,"reference":"ChIJl6LYAp68rhIR52hPGY6KVkY","types":["meal_takeaway","restaurant","food","point_of_interest","establishment"],"user_ratings_total":2729},{"business_status":"OPERATIONAL","formatted_address":"81 Rue Pargaminières, 31000 Toulouse","geometry":{"location":{"lat":43.604471,"lng":1.4407556},"viewport":{"northeast":{"lat":43.60589777989272,"lng":1.442091879892722},"southwest":{"lat":43.60319812010728,"lng":1.439392220107278}}},"icon":"https://maps.gstatic.com/mapfiles/place_api/icons/v1/png_71/restaurant-71.png","icon_background_color":"#FF9E67","icon_mask_base_uri":"https://maps.gstatic.com/mapfiles/place_api/icons/v2/restaurant_pinlet","name":"Chicken Cook","opening_hours":{"open_now":false},"photos":[{"height":2048,"html_attributions":["<a href=\"https://maps.google.com/maps/contrib/117920589919707441121\">Kyle D</a>"],"photo_reference":"AeJbb3eLrklbYmq68_C-BtvZ_34dlXVGQQzDx64l9h9lrxU7ZKrxNDtYdOZkHpae5wG5M2kaRc6Z9GGj6QA72IYaVtG8rdFNYX7QTeo7Ql3P8sc64JTCBYvzLAgd9oCYzFyQ1yuWbvk9BC8Psf31ofpfStj13sLOVam0uSrww8TFpXYDfDlz","width":1535}],"place_id":"ChIJu2r-1WO7rhIRRysd6Jnq2h0","plus_code":{"compound_code":"JC3R+Q8 Toulouse","global_code":"8FM3JC3R+Q8"},"price_level":1,"rating":3.6,"reference":"ChIJu2r-1WO7rhIRRysd6Jnq2h0","types":["restaurant","food","point_of_interest","establishment"],"user_ratings_total":394},{"business_status":"OPERATIONAL","formatted_address":"1 bis Av. de Grande Bretagne, 31300 Toulouse","geometry":{"location":{"lat":43.5966022,"lng":1.4224613},"viewport":{"northeast":{"lat":43.59796987989272,"lng":1.423826229892722},"southwest":{"lat":43.59527022010728,"lng":1.421126570107278}}},"icon":"https://maps.gstatic.com/mapfiles/place_api/icons/v1/png_71/restaurant-71.png","icon_background_color":"#FF9E67","icon_mask_base_uri":"https://maps.gstatic.com/mapfiles/place_api/icons/v2/restaurant_pinlet","name":"King Tacos Toulouse - Restaurant Fast Food","opening_hours":{"open_now":false},"photos":[{"height":1080,"html_attributions":["<a href=\"https://maps.google.com/maps/contrib/109136624405164678760\">King Tacos Toulouse - Restaurant Fast Food</a>"],"photo_reference":"AeJbb3eoJLWw9QoZHbd60mGSLqXYjpT-9VwvHTdrhHLr1qj3moAniPAQGGDGmK-ekaKOVwQ0yx1YHS-fJCJF-3GPG6ZW0mfKuRhjssWos3hJMRjN0wwRlgzyUhmUgHaCNP3YQkJoQ_yPlAajeDo3APpWbDzIZmcKY3ngChFisEpE7ezDttqa","width":1920}],"place_id":"ChIJoSfd8Q-7rhIRAzodOwW-Sfs","plus_code":{"compound_code":"HCWC+JX Toulouse","global_code":"8FM3HCWC+JX"},"price_level":1,"rating":3.5,"reference":"ChIJoSfd8Q-7rhIRAzodOwW-Sfs","types":["restaurant","food","point_of_interest","establishment"],"user_ratings_total":132},{"business_status":"OPERATIONAL","formatted_address":"All. de Bellefontaine, 31100 Toulouse","geometry":{"location":{"lat":43.56591299999999,"lng":1.3989764},"viewport":{"northeast":{"lat":43.56725812989272,"lng":1.400211329892722},"southwest":{"lat":43.56455847010727,"lng":1.397511670107278}}},"icon":"https://maps.gstatic.com/mapfiles/place_api/icons/v1/png_71/restaurant-71.png","icon_background_color":"#FF9E67","icon_mask_base_uri":"https://maps.gstatic.com/mapfiles/place_api/icons/v2/restaurant_pinlet","name":"Quick Burger","opening_hours":{"open_now":false},"photos":[{"height":1920,"html_attributions":["<a href=\"https://maps.google.com/maps/contrib/113442183497992213704\">chokri sassi</a>"],"photo_reference":"AeJbb3eTpBjj5VFgQ9N7-gU9_EqdADub0JnT_pDIap-QRa4esRh8z-9TdRL5UhvNjHcU_HBhN6egMBioLG2TgAiWD8TO4SIjjuvU0mNG5fhzgg7wUSDmCTtFYjqqahq8sjxYxRV5av7xnXbBMa5Le92fdZ6yAiF2_kLJ6Ij6iscP1lQso2HO","width":1080}],"place_id":"ChIJ1YBQRjG6rhIRazZo-DrTG90","plus_code":{"compound_code":"H98X+8H Toulouse","global_code":"8FM3H98X+8H"},"price_level":1,"rating":3.5,"reference":"ChIJ1YBQRjG6rhIRazZo-DrTG90","types":["restaurant","food","point_of_interest","establishment"],"user_ratings_total":44},{"business_status":"OPERATIONAL","formatted_address":"3 Rue Erik Satie appt 158, 31100 Toulouse","geometry":{"location":{"lat":43.5681044,"lng":1.4046436},"viewport":{"northeast":{"lat":43.56940202989272,"lng":1.406038379892722},"southwest":{"lat":43.56670237010727,"lng":1.403338720107278}}},"icon":"https://maps.gstatic.com/mapfiles/place_api/icons/v1/png_71/restaurant-71.png","icon_background_color":"#FF9E67","icon_mask_base_uri":"https://maps.gstatic.com/mapfiles/place_api/icons/v2/restaurant_pinlet","name":"Go fast food 31","opening_hours":{"open_now":false},"place_id":"ChIJJ-Ls47u7rhIRXVY--em2xDo","plus_code":{"compound_code":"HC93+6V Toulouse","global_code":"8FM3HC93+6V"},"rating":0,"reference":"ChIJJ-Ls47u7rhIRXVY--em2xDo","types":["restaurant","food","point_of_interest","establishment"],"user_ratings_total":0},{"business_status":"OPERATIONAL","formatted_address":"61 Bd de Strasbourg, 31000 Toulouse","geometry":{"location":{"lat":43.6096742,"lng":1.4441675},"viewport":{"northeast":{"lat":43.61106877989272,"lng":1.445598679892722},"southwest":{"lat":43.60836912010728,"lng":1.442899020107278}}},"icon":"https://maps.gstatic.com/mapfiles/place_api/icons/v1/png_71/restaurant-71.png","icon_background_color":"#FF9E67","icon_mask_base_uri":"https://maps.gstatic.com/mapfiles/place_api/icons/v2/restaurant_pinlet","name":"Hamburger","place_id":"ChIJGzLT-km9rhIR-Uda0EZvI_A","plus_code":{"compound_code":"JC5V+VM Toulouse","global_code":"8FM3JC5V+VM"},"rating":0,"reference":"ChIJGzLT-km9rhIR-Uda0EZvI_A","types":["restaurant","food","point_of_interest","establishment"],"user_ratings_total":0},{"business_status":"OPERATIONAL","formatted_address":"6 Rue Hergé, 31400 Toulouse","geometry":{"location":{"lat":43.550657,"lng":1.4581062},"viewport":{"northeast":{"lat":43.55192872989272,"lng":1.459464479892722},"southwest":{"lat":43.54922907010727,"lng":1.456764820107278}}},"icon":"https://maps.gstatic.com/mapfiles/place_api/icons/v1/png_71/restaurant-71.png","icon_background_color":"#FF9E67","icon_mask_base_uri":"https://maps.gstatic.com/mapfiles/place_api/icons/v2/restaurant_pinlet","name":"Chicken","place_id":"ChIJof0ffGa_rhIRTvtegSu372A","plus_code":{"compound_code":"HF25+76 Toulouse","global_code":"8FM3HF25+76"},"rating":0,"reference":"ChIJof0ffGa_rhIRTvtegSu372A","types":["restaurant","food","point_of_interest","establishment"],"user_ratings_total":0}]