[{"business_status":"OPERATIONAL","formatted_address":"19 Pl. de l'Estrapade, 31300 Toulouse","geometry":{"location":{"lat":43.5987161,"lng":1.4329125},"viewport":{"northeast":{"lat":43.60007862989272,"lng":1.434270629892722},"southwest":{"lat":43.59737897010727,"lng":1.431570970107278}}},"icon":"https://maps.gstatic.com/mapfiles/place_api/icons/v1/png_71/restaurant-71.png","icon_background_color":"#FF9E67","icon_mask_base_uri":"https://maps.gstatic.com/mapfiles/place_api/icons/v2/restaurant_pinlet","name":"Chez loustic","opening_hours":{"open_now":false},"photos":[{"height":3024,"html_attributions":["<a href=\"https://maps.google.com/maps/contrib/106472314300106274402\">Jean-Marc Lasserre</a>"],"photo_reference":"AeJbb3eYPMkPMJ02iSdndtWaOEJLjUJW-ikeU4bfvm2hhdARYkYBa201M6wUi0yFO4o5yfJ7BYJZbIdGQ9fhek092f7F8e8u5Du2zMVsb7pC4tk916__TxYV4qFVujxw9URoPUCxK-WySoJmoPCUj9_EwgvAHkbJC741cw_f0wjdyOCIspQ_","width":4032}],"place_id":"ChIJ0_3qkB67rhIRG72EQXGXGmc","plus_code":{"compound_code":"HCXM+F5 Toulouse","global_code":"8FM3HCXM+F5"},"rating":4.9,"reference":"ChIJ0_3qkB67rhIRG72EQXGXGmc","types":["restaurant","food","point_of_interest","establishment"],"user_ratings_total":35},{"business_status":"OPERATIONAL","formatted_address":"81 Rue Pierre-Paul Riquet, 31000 Toulouse","geometry":{"location":{"lat":43.6060336,"lng":1.4539626},"viewport":{"northeast":{"lat":43.60738932989272,"lng":1.455333579892722},"southwest":{"lat":43.60468967010728,"lng":1.452633920107278}}},"icon":"https://maps.gstatic.com/mapfiles/place_api/icons/v1/png_71/restaurant-71.png","icon_background_color":"#FF9E67","icon_mask_base_uri":"https://maps.gstatic.com/mapfiles/place_api/icons/v2/restaurant_pinlet","name":"La Cantine Des Sales Gosses","opening_hours":{"open_now":false},"photos":[{"height":3840,"html_attributions":["<a href=\"https://maps.google.com/maps/contrib/110550033698865311074\">A Google User</a>"],"photo_reference":"AeJbb3eMa-Sub3nrxqbnH-jg0IggPDSkA1Ecw3loC-Ps6Epqy9wqlfyHJa2F8Z26b6-JlYe8s95KKXSTqPcDqDc_UoxCHlCpb4pOnqwJcBLPex_Sdw6a2B5wqFydLCYQ2EzbdRPrRs0HwXO731P2joE6UB9qiAmSE3fmSROCz9VSavlmfgFr","width":5760}],"place_id":"ChIJQThGbpe8rhIRlFfEKpLtJDA","plus_code":{"compound_code":"JF43+CH Toulouse","global_code":"8FM3JF43+CH"},"price_level":2,"rating":4.8,"reference":"ChIJQThGbpe8rhIRlFfEKpLtJDA","types":["restaurant","point_of_interest","food","establishment"],"user_ratings_total":1104},{"business_status":"OPERATIONAL","formatted_address":"2 Rue d'Austerlitz, 31000 Toulouse","geometry":{"location":{"lat":43.6054879,"lng":1.4475091},"viewport":{"northeast":{"lat":43.60692342989272,"lng":1.448810729892722},"southwest":{"lat":43.60422377010728,"lng":1.446111070107278}}},"icon":"https://maps.gstatic.com/mapfiles/place_api/icons/v1/png_71/restaurant-71.png","icon_background_color":"#FF9E67","icon_mask_base_uri":"https://maps.gstatic.com/mapfiles/place_api/icons/v2/restaurant_pinlet","name":"Oh la vache!","opening_hours":{"open_now":false},"photos":[{"height":1857,"html_attributions":["<a href=\"https://maps.google.com/maps/contrib/117823520011833169123\">A Google User</a>"],"photo_reference":"AeJbb3czG2AbBUdVYyaQeVYBcrKgYW3WcbcYUGvJiGUPZRPTSijNWg4EIbvSlIDyiaZ84W-ow6CjC-9brxk-8G7V7s7LJes2zS_7dxTpTU6nej3tRtEPhCWbCV8o2TnkTfUfILrELbE4dQf1vaDGOmqep-Rl6l2FHji9hjLMzZ3-zhNchu40","width":3302}],"place_id":"ChIJkxS84pq9rhIR1nwdsqfPgiE","plus_code":{"compound_code":"JC4X+52 Toulouse","global_code":"8FM3JC4X+52"},"price_level":2,"rating":4.8,"reference":"ChIJkxS84pq9rhIR1nwdsqfPgiE","types":["restaurant","food","point_of_interest","establishment"],"user_ratings_total":842},{"business_status":"OPERATIONAL","formatted_address":"17 Pl. Dupuy, 31000 Toulouse","geometry":{"location":{"lat":43.5991892,"lng":1.454973},"viewport":{"northeast":{"lat":43.60052712989272,"lng":1.456367629892722},"southwest":{"lat":43.59782747010727,"lng":1.453667970107278}}},"icon":"https://maps.gstatic.com/mapfiles/place_api/icons/v1/png_71/restaurant-71.png","icon_background_color":"#FF9E67","icon_mask_base_uri":"https://maps.gstatic.com/mapfiles/place_api/icons/v2/restaurant_pinlet","name":"Grain De Folie","opening_hours":{"open_now":false},"photos":[{"height":576,"html_attributions":["<a href=\"https://maps.google.com/maps/contrib/108697448617557039524\">Sébastien Caumes</a>"],"photo_reference":"AeJbb3dlv4kg0NuCfkjACjzNmiajE8gKS38QN-YaROwjQSUvznE5K4Cp_Ppoo4c6zMtl9NxUcziF-jtcRjKllY2i1meTZZbycAyibJex_kiT9mdBEZhZ6jsdB8AxCpdPI5D2p4yZ-CGVISffns0rKNiD1iyVRthWoWOExcOTF-J8Qg1n82Do","width":1024}],"place_id":"ChIJPT2O2Y-8rhIRut6iglk2HDc","plus_code":{"compound_code":"HFX3+MX Toulouse","global_code":"8FM3HFX3+MX"},"price_level":2,"rating":4.7,"reference":"ChIJPT2O2Y-8rhIRut6iglk2HDc","types":["restaurant","point_of_interest","food","establishment"],"user_ratings_total":627},{"business_status":"OPERATIONAL","formatted_address":"20 Rue des Filatiers, 31000 Toulouse","geometry":{"location":{"lat":43.59853409999999,"lng":1.4442346},"viewport":{"northeast":{"lat":43.59988297989273,"lng":1.445573329892722},"southwest":{"lat":43.59718332010728,"lng":1.442873670107278}}},"icon":"https://maps.gstatic.com/mapfiles/place_api/icons/v1/png_71/restaurant-71.png","icon_background_color":"#FF9E67","icon_mask_base_uri":"https://maps.gstatic.com/mapfiles/place_api/icons/v2/restaurant_pinlet","name":"Au Petit Bonheur","opening_hours":{"open_now":false},"photos":[{"height":4032,"html_attributions":["<a href=\"https://maps.google.com/maps/contrib/116280978561461026404\">Sophie Garcia</a>"],"photo_reference":"AeJbb3emo2DycZWW4HZi1OIxsReWGjCiMyBALP_0lEZirSuy1qbzP61d0FJVtkaEUd4-jBWzkAGc4HduaVlxRz97gYUoSlRcJjvLfijH8ZfD5ibpCbGRAne7br-QBJdbt9GRHxe-Zk9v8xz77iKYT8H_pF88u5S226_YkCYKnb2rHB5fU04g","width":3024}],"place_id":"ChIJ3VkPvYK8rhIR8FC3aGMu-Do","plus_code":{"compound_code":"HCXV+CM Toulouse","global_code":"8FM3HCXV+CM"},"price_level":2,"rating":4.7,"reference":"ChIJ3VkPvYK8rhIR8FC3aGMu-Do","types":["restaurant","food","point_of_interest","establishment"],"user_ratings_total":416},{"business_status":"OPERATIONAL","formatted_address":"20 Rue de la Fonderie, 31000 Toulouse","geometry":{"location":{"lat":43.594984,"lng":1.4434653},"viewport":{"northeast":{"lat":43.59634847989272,"lng":1.444760779892722},"southwest":{"lat":43.59364882010728,"lng":1.442061120107278}}},"icon":"https://maps.gstatic.com/mapfiles/place_api/icons/v1/png_71/restaurant-71.png","icon_background_color":"#FF9E67","icon_mask_base_uri":"https://maps.gstatic.com/mapfiles/place_api/icons/v2/restaurant_pinlet","name":"Les Diables au Thym","opening_hours":{"open_now":false},"photos":[{"height":4608,"html_attributions":["<a href=\"https://maps.google.com/maps/contrib/107895079909230149223\">A Google User</a>"],"photo_reference":"AeJbb3fMA1GbngjPIuZyCZ3RSnLIDwgKvLmm4ot_DfAJEYSLjL78vdEBCXpW38OXQ8CMAJ3hkg8mKhxjjhT-iBl0afhTRvSCoG1LByh8wAV0QPqvlH_TQovK_Vsd4cJf60sFFZq8o9WsGW2t1mMOvhAlwsklLTGiwTJxQB6ooa1axpDKw-4","width":3456}],"place_id":"ChIJPTqB_327rhIRUmPEHabevcg","plus_code":{"compound_code":"HCVV+X9 Toulouse","global_code":"8FM3HCVV+X9"},"rating":4.7,"reference":"ChIJPTqB_327rhIRUmPEHabevcg","types":["restaurant","point_of_interest","food","establishment"],"user_ratings_total":198},{"business_status":"OPERATIONAL","formatted_address":"4 Rue des Blanchers, 31000 Toulouse","geometry":{"location":{"lat":43.6022583,"lng":1.438413},"viewport":{"northeast":{"lat":43.60358812989273,"lng":1.439787479892722},"southwest":{"lat":43.60088847010729,"lng":1.437087820107278}}},"icon":"https://maps.gstatic.com/mapfiles/place_api/icons/v1/png_71/restaurant-71.png","icon_background_color":"#FF9E67","icon_mask_base_uri":"https://maps.gstatic.com/mapfiles/place_api/icons/v2/restaurant_pinlet","name":"Le Petit Flore","opening_hours":{"open_now":false},"photos":[{"height":3912,"html_attributions":["<a href=\"https://maps.google.com/maps/contrib/111548639489948255260\">Le Petit Flore</a>"],"photo_reference":"AeJbb3feuIhqHjTwVqK6XeI5E-rvagmhUhbsWyGe4H_hkQcORsRIYYYGfNeM3Tap9n3o6B95enJX-pJOf2ZJJ3v4fpdp8Jx9m1J1KF0UqVzCmt8Xh9r15ZxEy_FXYs4gcU2NEllCo7bbP1_zD6Q7tUEhbetPc2TPBBJFkCu-22pmlNk1jzlf","width":5868}],"place_id":"ChIJgcRffmS7rhIRM-wF4LXYkMw","plus_code":{"compound_code":"JC2Q+W9 Toulouse","global_code":"8FM3JC2Q+W9"},"rating":4.7,"reference":"ChIJgcRffmS7rhIRM-wF4LXYkMw","types":["restaurant","food","point_of_interest","establishment"],"user_ratings_total":106},{"business_status":"OPERATIONAL","formatted_address":"L, 1 All. des Nymphéas, 31240 L'Union","geometry":{"location":{"lat":43.655188,"lng":1.4765242},"viewport":{"northeast":{"lat":43.65648072989272,"lng":1.477892979892722},"southwest":{"lat":43.65378107010728,"lng":1.475193320107278}}},"icon":"https://maps.gstatic.com/mapfiles/place_api/icons/v1/png_71/restaurant-71.png","icon_background_color":"#FF9E67","icon_mask_base_uri":"https://maps.gstatic.com/mapfiles/place_api/icons/v2/restaurant_pinlet","name":"French Papilles","opening_hours":{"open_now":false},"photos":[{"height":1280,"html_attributions":["<a href=\"https://maps.google.com/maps/contrib/103298233999813346800\">QUE DU PLAISIR</a>"],"photo_reference":"AeJbb3dhgwaabhC-zqRWtb-UIs_zgoLTew2XNXGRnn2ZfX3s9JB21CzAcLaN7WurtwHlUFz5cl09LgE_CXP6IKCXnQqZGJrElaWoohQ4Os5KEIRt9j1rhbanCZNGkA2W5T73A72uXxcADJOorYKx7ktcJDBbQaYwATKoLfopDYQHTsRIE_nD","width":1920}],"place_id":"ChIJZUzDQxujrhIRhjxhirP2c8M","plus_code":{"compound_code":"MF4G+3J L'Union","global_code":"8FM3MF4G+3J"},"rating":4.7,"reference":"ChIJZUzDQxujrhIRhjxhirP2c8M","types":["restaurant","cafe","store","point_of_interest","food","establishment"],"user_ratings_total":68},{"business_status":"OPERATIONAL","formatted_address":"7 Rue des Paradoux, 31000 Toulouse","geometry":{"location":{"lat":43.5983347,"lng":1.4427631},"viewport":{"northeast":{"lat":43.59967847989273,"lng":1.444113729892722},"southwest":{"lat":43.59697882010729,"lng":1.441414070107278}}},"icon":"https://maps.gstatic.com/mapfiles/place_api/icons/v1/png_71/restaurant-71.png","icon_background_color":"#FF9E67","icon_mask_base_uri":"https://maps.gstatic.com/mapfiles/place_api/icons/v2/restaurant_pinlet","name":"Le Point D'ogre","opening_hours":{"open_now":false},"photos":[{"height":3264,"html_attributions":["<a href=\"https://maps.google.com/maps/contrib/103526309280807197864\">André Werner</a>"],"photo_reference":"AeJbb3eAhZzlUe_vXkuHyDoxo4oXL2XRVMGpM961GYtZnMn5-8noINWUCJ_pSUXAtio8SuqS79ZDK9wlK_jEZyeVQJSnKFXNKEtw8nv5mqmsnFViyWfTdxS1zZnUCR6QQdU9dijpQ_PaUwcihjX8Bxn5rpqOJX2fX_IwYs9dF7xT2iJY4mX6","width":1836}],"place_id":"ChIJgUaLaH27rhIRuGM2DUAqNL0","plus_code":{"compound_code":"HCXV+83 Toulouse","global_code":"8FM3HCXV+83"},"price_level":3,"rating":4.6,"reference":"ChIJgUaLaH27rhIRuGM2DUAqNL0","types":["restaurant","point_of_interest","food","establishment"],"user_ratings_total":744},{"business_status":"OPERATIONAL","formatted_address":"8 Av. des Pyrénées, 31270 Frouzins","geometry":{"location":{"lat":43.5111368,"lng":1.3279987},"viewport":{"northeast":{"lat":43.51250672989271,"lng":1.329287729892722},"southwest":{"lat":43.50980707010727,"lng":1.326588070107278}}},"icon":"https://maps.gstatic.com/mapfiles/place_api/icons/v1/png_71/restaurant-71.png","icon_background_color":"#FF9E67","icon_mask_base_uri":"https://maps.gstatic.com/mapfiles/place_api/icons/v2/restaurant_pinlet","name":"Restaurant Le Brasier","opening_hours":{"open_now":false},"photos":[{"height":4160,"html_attributions":["<a href=\"https://maps.google.com/maps/contrib/116108982834560167911\">Gaetan Borel</a>"],"photo_reference":"AeJbb3cqwRJa8kG9WkzcQAHg9CPENiHWa1w-NyvvXxBSZ_gCmpyCLXkbJho-Cn__ObrDwxIUv2nkzu-ZAP7qr7XiBnFwlpfTu2Y6h8CwLvegEq9qTIUaYbwdpQgoyX9g8q7j2RJrUEXJTR6ByLStl6cv6IOEWtiE1Kq5L57LpsLpr4mFnB-U","width":3120}],"place_id":"ChIJV9InNau3rhIR25HLCNwAZPo","plus_code":{"compound_code":"G86H+F6 Frouzins","global_code":"8FM3G86H+F6"},"price_level":2,"rating":4.6,"reference":"ChIJV9InNau3rhIR25HLCNwAZPo","types":["restaurant","food","point_of_interest","establishment"],"user_ratings_total":574},{"business_status":"OPERATIONAL","formatted_address":"11 Pl. de la Daurade, 31000 Toulouse","geometry":{"location":{"lat":43.6018001,"lng":1.4395062},"viewport":{"northeast":{"lat":43.60312022989272,"lng":1.440815529892722},"southwest":{"lat":43.60042057010728,"lng":1.438115870107278}}},"icon":"https://maps.gstatic.com/mapfiles/place_api/icons/v1/png_71/restaurant-71.png","icon_background_color":"#FF9E67","icon_mask_base_uri":"https://maps.gstatic.com/mapfiles/place_api/icons/v2/restaurant_pinlet","name":"les 4 z'arts","opening_hours":{"open_now":false},"photos":[{"height":2988,"html_attributions":["<a href=\"https://maps.google.com/maps/contrib/117174272526519703988\">Angel Moreno</a>"],"photo_reference":"AeJbb3c7qmX9RaMaP0vjxV1J1rx65fLutZ_qlO-T77b5u19RDvl7uj3tqssPgUv3prjbJDrboBEgDUOfJkzg3sIekKzSywXcU0Zb9SHgcatt9yuAptFUt3xY0p2O88UwCmmu9fkDyRUUp92ktSML9bzJlCZlYLvR1T6SoJ67lPtjSyBUnYJ_","width":5312}],"place_id":"ChIJXcfXcGO7rhIRgP27x7AEyI4","plus_code":{"compound_code":"JC2Q+PR Toulouse","global_code":"8FM3JC2Q+PR"},"price_level":2,"rating":4.6,"reference":"ChIJXcfXcGO7rhIRgP27x7AEyI4","types":["restaurant","food","point_of_interest","establishment"],"user_ratings_total":567},{"business_status":"OPERATIONAL","formatted_address":"7 Rue de l'Industrie, 31000 Toulouse","geometry":{"location":{"lat":43.6047751,"lng":1.4509497},"viewport":{"northeast":{"lat":43.60612392989272,"lng":1.452302879892722},"southwest":{"lat":43.60342427010728,"lng":1.449603220107278}}},"icon":"https://maps.gstatic.com/mapfiles/place_api/icons/v1/png_71/restaurant-71.png","icon_background_color":"#FF9E67","icon_mask_base_uri":"https://maps.gstatic.com/mapfiles/place_api/icons/v2/restaurant_pinlet","name":"Les Sales Gosses - le Bistrot","opening_hours":{"open_now":false},"photos":[{"height":3024,"html_attributions":["<a href=\"https://maps.google.com/maps/contrib/101734549683488438758\">Damien Thomas</a>"],"photo_reference":"AeJbb3fdoY7y5CcMrvSnhNZHu6aLLY46Xp6xLdbWWmN_s-IpMk4KCMvU5LS3pJRrAKlpjLpQknRqnZ0Q2WYCEzfS9-nHA_3-Q5vrm78gfjS6eADLLZEDYZnzUoAxQVuFNvZvgzFTZUucs9ABeL1TGrkFrXqI8C8JTR2g1x1dnysffxe0P7_i","width":4032}],"place_id":"ChIJq6qvg5m8rhIR89qdhe1xM1g","plus_code":{"compound_code":"JF32+W9 Toulouse","global_code":"8FM3JF32+W9"},"price_level":2,"rating":4.6,"reference":"ChIJq6qvg5m8rhIR89qdhe1xM1g","types":["restaurant","food","point_of_interest","establishment"],"user_ratings_total":547},{"business_status":"OPERATIONAL","formatted_address":"3 Rue Genty-Magre, 31000 Toulouse","geometry":{"location":{"lat":43.6014968,"lng":1.4451632},"viewport":{"northeast":{"lat":43.60285457989271,"lng":1.446479579892722},"southwest":{"lat":43.60015492010727,"lng":1.443779920107278}}},"icon":"https://maps.gstatic.com/mapfiles/place_api/icons/v1/png_71/restaurant-71.png","icon_background_color":"#FF9E67","icon_mask_base_uri":"https://maps.gstatic.com/mapfiles/place_api/icons/v2/restaurant_pinlet","name":"Le Genty Magre","opening_hours":{"open_now":false},"photos":[{"height":1668,"html_attributions":["<a href=\"https://maps.google.com/maps/contrib/116791125701881402730\">Le Genty Magre</a>"],"photo_reference":"AeJbb3fvIxoBDzU5h3IMQbJnF74aTulDEu0IYlIUxBqAaOhc3Lr_KnoqwuroRby22ao89B8QVm-kjbCZCBNTEurgpY7HzEh-90Jm6dYAir1yFACNISZ-PLwvh55kmE_2jSrvam9Iqer3psvUcTLH7KqeLJdADhd2g2XtV0nW-bGBwvBYVQF0","width":2500}],"place_id":"ChIJ2xRBBZ28rhIRtT9zbHqv2nU","plus_code":{"compound_code":"JC2W+J3 Toulouse","global_code":"8FM3JC2W+J3"},"price_level":3,"rating":4.6,"reference":"ChIJ2xRBBZ28rhIRtT9zbHqv2nU","types":["restaurant","point_of_interest","food","establishment"],"user_ratings_total":507},{"business_status":"OPERATIONAL","formatted_address":"8 Rue de l'Esquile, 31000 Toulouse","geometry":{"location":{"lat":43.6063135,"lng":1.4418201},"viewport":{"northeast":{"lat":43.60763287989272,"lng":1.443071179892722},"southwest":{"lat":43.60493322010728,"lng":1.440371520107278}}},"icon":"https://maps.gstatic.com/mapfiles/place_api/icons/v1/png_71/restaurant-71.png","icon_background_color":"#FF9E67","icon_mask_base_uri":"https://maps.gstatic.com/mapfiles/place_api/icons/v2/restaurant_pinlet","name":"Restaurant Les P'tits Fayots","opening_hours":{"open_now":false},"photos":[{"height":4480,"html_attributions":["<a href=\"https://maps.google.com/maps/contrib/116869856444272673912\">A Google User</a>"],"photo_reference":"AeJbb3ejyJDOLi7Q7YkJf8hk_eV3Km49sjO8bPE03WCLImDrsR-nXzyDI6lGIu_2VtfhELNBZACkwKhZNctXmnf_pcYmICzh1-ydubC-ojCf2OEBz407qnPhG-AEzB8gGMkaO22Yb--uKv8DiItQu4BQaFAXdtxIEjMj_VFQwtXq5xHdcZAR","width":6720}],"place_id":"ChIJn10DsWG7rhIRNag-pcdHWIM","plus_code":{"compound_code":"JC4R+GP Toulouse","global_code":"8FM3JC4R+GP"},"price_level":3,"rating":4.6,"reference":"ChIJn10DsWG7rhIRNag-pcdHWIM","types":["restaurant","point_of_interest","food","establishment"],"user_ratings_total":486},{"business_status":"OPERATIONAL","formatted_address":"4 Pl. de Damloup, 31000 Toulouse","geometry":{"location":{"lat":43.605603,"lng":1.4531182},"viewport":{"northeast":{"lat":43.60693272989272,"lng":1.454422929892722},"southwest":{"lat":43.60423307010728,"lng":1.451723270107278}}},"icon":"https://maps.gstatic.com/mapfiles/place_api/icons/v1/png_71/restaurant-71.png","icon_background_color":"#FF9E67","icon_mask_base_uri":"https://maps.gstatic.com/mapfiles/place_api/icons/v2/restaurant_pinlet","name":"Jour de Marché","opening_hours":{"open_now":false},"photos":[{"height":3024,"html_attributions":["<a href=\"https://maps.google.com/maps/contrib/108836608801617858506\">jazzael lore</a>"],"photo_reference":"AeJbb3ehlBR1bg_I51kEqhF8yy_CuU4nt-zu-5p4fca0CFhWkbvIdiX3oou7k0vWqiRhH_JhzDxpURigIvDRyIGSbnkwrfoQQx0GmOlQ6FuxRSAkRHnED37VTQ9qXXNekLOXoOKZF5sy2LmG87tUI_YLEXC4-0dQjdGhbBgVTT3LpqS5zOzE","width":4032}],"place_id":"ChIJfZ7ZYZe8rhIRKQ-7gs9OmJY","plus_code":{"compound_code":"JF43+66 Toulouse","global_code":"8FM3JF43+66"},"price_level":2,"rating":4.6,"reference":"ChIJfZ7ZYZe8rhIRKQ-7gs9OmJY","types":["restaurant","food","point_of_interest","establishment"],"user_ratings_total":438},{"business_status":"OPERATIONAL","formatted_address":"40 Rue Jean Jaurès, 31150 Fenouillet","geometry":{"location":{"lat":43.6775729,"lng":1.3934158},"viewport":{"northeast":{"lat":43.67886977989272,"lng":1.394714229892722},"southwest":{"lat":43.67617012010728,"lng":1.392014570107278}}},"icon":"https://maps.gstatic.com/mapfiles/place_api/icons/v1/png_71/restaurant-71.png","icon_background_color":"#FF9E67","icon_mask_base_uri":"https://maps.gstatic.com/mapfiles/place_api/icons/v2/restaurant_pinlet","name":"Restaurant - Le Virgil","opening_hours":{"open_now":false},"photos":[{"height":3584,"html_attributions":["<a href=\"https://maps.google.com/maps/contrib/105633374972804623640\">A Google User</a>"],"photo_reference":"AeJbb3cphH4XQy-FKesS3OgsNJo7bMR8uNv_jDaCb3n8p8weWia1PXXhW4tCNgZ7AdQi2yqEkjX3bmDARs3wUcmcvDibB5ydqieVvTgXNMnzFsIWSWw5d4_Ng86tkda01pBPdwFC9K1NfVaNPGlx3MxRItXqmGqrwMTE4kPKJMzFlCoNp46f","width":6977}],"place_id":"ChIJgdrX0bqlrhIRtt6FCVtlnKo","plus_code":{"compound_code":"M9HV+29 Fenouillet","global_code":"8FM3M9HV+29"},"price_level":2,"rating":4.6,"reference":"ChIJgdrX0bqlrhIRtt6FCVtlnKo","types":["restaurant","food","point_of_interest","establishment"],"user_ratings_total":405},{"business_status":"OPERATIONAL","formatted_address":"9 Rue des Blanchers, 31000 Toulouse","geometry":{"location":{"lat":43.6021073,"lng":1.4382762},"viewport":{"northeast":{"lat":43.60351897989273,"lng":1.439673129892722},"southwest":{"lat":43.60081932010728,"lng":1.436973470107278}}},"icon":"https://maps.gstatic.com/mapfiles/place_api/icons/v1/png_71/restaurant-71.png","icon_background_color":"#FF9E67","icon_mask_base_uri":"https://maps.gstatic.com/mapfiles/place_api/icons/v2/restaurant_pinlet","name":"Du Plaisir à la Toque","opening_hours":{"open_now":false},"photos":[{"height":2448,"html_attributions":["<a href=\"https://maps.google.com/maps/contrib/107034348475283982581\">Du Plaisir à la Toque</a>"],"photo_reference":"AeJbb3fdjrT-ciCSy9-otLRw8yBss8Egq2258GER2-tKJxp8Z_V0MBvvT_004i58_1-eFkX41p_QJ6HPIZUbE-nD_WNVgrWY03GN_ByGvUtUEGaC6NUKgH3X_ETwt3XdyrJE7VwQyd1UN_q31eiMMdPpctxJm-e7WMMXNrickWXKd6oI4-Rs","width":3264}],"place_id":"ChIJcynWfWS7rhIRoRrE59Ynouk","plus_code":{"compound_code":"JC2Q+R8 Toulouse","global_code":"8FM3JC2Q+R8"},"price_level":2,"rating":4.6,"reference":"ChIJcynWfWS7rhIRoRrE59Ynouk","types":["restaurant","food","point_of_interest","establishment"],"user_ratings_total":403},{"business_status":"OPERATIONAL","formatted_address":"21 Rue Perchepinte, 31000 Toulouse","geometry":{"location":{"lat":43.59749069999999,"lng":1.4482347},"viewport":{"northeast":{"lat":43.59885872989271,"lng":1.449537079892722},"southwest":{"lat":43.59615907010727,"lng":1.446837420107278}}},"icon":"https://maps.gstatic.com/mapfiles/place_api/icons/v1/png_71/restaurant-71.png","icon_background_color":"#FF9E67","icon_mask_base_uri":"https://maps.gstatic.com/mapfiles/place_api/icons/v2/restaurant_pinlet","name":"L'Emulsion","opening_hours":{"open_now":false},"photos":[{"height":1366,"html_attributions":["<a href=\"https://maps.google.com/maps/contrib/118333401457873535543\">Restaurant l&#39;Emulsion</a>"],"photo_reference":"AeJbb3exj2W9QkH-irw7egGfspov392f1X4BDOBTawrKAPAKUNuASJyY8ExQfpeotdU-JvDLLJY_XW6Agsg9JjqDsZNoERRfYKWqhhyeIfjlY32xSoIx2BiIccfZqUL65O82xBS2khqxVMqO9E80K-PovICEziSJteoDrCpyO51xdx-wAEAU","width":2048}],"place_id":"ChIJ31sWfoO8rhIRoEI15xVqakc","plus_code":{"compound_code":"HCXX+26 Toulouse","global_code":"8FM3HCXX+26"},"price_level":2,"rating":4.6,"reference":"ChIJ31sWfoO8rhIRoEI15xVqakc","types":["restaurant","food","point_of_interest","establishment"],"user_ratings_total":399},{"business_status":"OPERATIONAL","formatted_address":"28 Av. de Toulouse, 31270 Cugnaux","geometry":{"location":{"lat":43.5386177,"lng":1.3456564},"viewport":{"northeast":{"lat":43.53995732989272,"lng":1.347008429892722},"southwest":{"lat":43.53725767010727,"lng":1.344308770107278}}},"icon":"https://maps.gstatic.com/mapfiles/place_api/icons/v1/png_71/restaurant-71.png","icon_background_color":"#FF9E67","icon_mask_base_uri":"https://maps.gstatic.com/mapfiles/place_api/icons/v2/restaurant_pinlet","name":"Restaurant Le Victoria","opening_hours":{"open_now":false},"photos":[{"height":1440,"html_attributions":["<a href=\"https://maps.google.com/maps/contrib/103435407203487336508\">Pierre SEMPE</a>"],"photo_reference":"AeJbb3fC5dzNY60DyrPHj0aKDyWyzksPpk9EDNjFT8rYBNS2x0hDX7mhJMctXC-_Hz3FzfD57O80WvlzYJdIEBg0M8rQuqgtXvqaSPmXWXPzeKvmWdE57sC7MjBxDwGiUL5UG3tYj1gxXSz9kujnNH0xkh_OP28cVBlN_nApt3CgaLXsVMQe","width":2560}],"place_id":"ChIJX4AXyji3rhIRcoxlpOGOSxc","plus_code":{"compound_code":"G8QW+C7 Cugnaux","global_code":"8FM3G8QW+C7"},"price_level":2,"rating":4.6,"reference":"ChIJX4AXyji3rhIRcoxlpOGOSxc","types":["restaurant","food","point_of_interest","establishment"],"user_ratings_total":337},{"business_status":"OPERATIONAL","formatted_address":"3 Rue Delacroix, 31000 Toulouse","geometry":{"location":{"lat":43.6014217,"lng":1.4527035},"viewport":{"northeast":{"lat":43.60276477989271,"lng":1.454063379892722},"southwest":{"lat":43.60006512010727,"lng":1.451363720107278}}},"icon":"https://maps.gstatic.com/mapfiles/place_api/icons/v1/png_71/restaurant-71.png","icon_background_color":"#FF9E67","icon_mask_base_uri":"https://maps.gstatic.com/mapfiles/place_api/icons/v2/restaurant_pinlet","name":"Restaurant Chez Yannick","opening_hours":{"open_now":false},"photos":[{"height":2988,"html_attributions":["<a href=\"https://maps.google.com/maps/contrib/116904720927583723441\">LEONARD HERBERT</a>"],"photo_reference":"AeJbb3dxY-75ClIpkKYprkrdfHlMUuBVI9sc6DPXcPrzjXy_9wevkpZTJVaCjc0sPNL6gAsWf1lHYRAILk7vPUuz8hfLZl_nTPwccyhITmw-JZLoolf4-FHlZ0Czc_RSjnUGX-s2dDRBGarSx6T01yaZNmgkEyGeZoAAoL1JFVa5NEzXOk9R","width":5312}],"place_id":"ChIJIYjPhJq8rhIRw7Lh-Y1H0YI","plus_code":{"compound_code":"JF23+H3 Toulouse","global_code":"8FM3JF23+H3"},"price_level":2,"rating":4.6,"reference":"ChIJIYjPhJq8rhIRw7Lh-Y1H0YI","types":["restaurant","point_of_interest","food","establishment"],"user_ratings_total":327},{"business_status":"OPERATIONAL","formatted_address":"16 Rue Pharaon, 31000 Toulouse","geometry":{"location":{"lat":43.5955923,"lng":1.4442039},"viewport":{"northeast":{"lat":43.59694292989272,"lng":1.445547179892722},"southwest":{"lat":43.59424327010728,"lng":1.442847520107278}}},"icon":"https://maps.gstatic.com/mapfiles/place_api/icons/v1/png_71/restaurant-71.png","icon_background_color":"#FF9E67","icon_mask_base_uri":"https://maps.gstatic.com/mapfiles/place_api/icons/v2/restaurant_pinlet","name":"Bago's Restaurant","opening_hours":{"open_now":false},"photos":[{"height":1000,"html_attributions":["<a href=\"https://maps.google.com/maps/contrib/104464627498019920415\">yuni jung</a>"],"photo_reference":"AeJbb3cJNcKesKd12uUhHwWxmcLlC0QVQ1tqmJohmp7P7y1SS72FTkZccf9d4uuunMfWljcqPhcVsYDWftbDy1zFI67keyjKe-3MSpTDvgN8XbLtM-b9SRCOEXH8XPyCPczs30aSNGx9pySUPxYoa5tm8NO_vejyU1zt185dcgKYGjBRJBpG","width":750}],"place_id":"ChIJDSn0EIK8rhIRbqT2nn4tCO8","plus_code":{"compound_code":"HCWV+6M Toulouse","global_code":"8FM3HCWV+6M"},"price_level":2,"rating":4.6,"reference":"ChIJDSn0EIK8rhIRbqT2nn4tCO8","types":["restaurant","point_of_interest","food","establishment"],"user_ratings_total":271},{"business_status":"OPERATIONAL","formatted_address":"4 Le Plan du Port, 31700 Blagnac","geometry":{"location":{"lat":43.6249692,"lng":1.3995841},"viewport":{"northeast":{"lat":43.62622837989272,"lng":1.400925679892722},"southwest":{"lat":43.62352872010727,"lng":1.398226020107278}}},"icon":"https://maps.gstatic.com/mapfiles/place_api/icons/v1/png_71/restaurant-71.png","icon_background_color":"#FF9E67","icon_mask_base_uri":"https://maps.gstatic.com/mapfiles/place_api/icons/v2/restaurant_pinlet","name":"Origin'Elles Restaurant et Epicerie fine","opening_hours":{"open_now":true},"photos":[{"height":675,"html_attributions":["<a href=\"https://maps.google.com/maps/contrib/109978171769026001065\">Origin&#39;Elles</a>"],"photo_reference":"AeJbb3fnjL1tudubUbAyg2VyN6Cg8Z-mRtaCfim4qKDuY2JYOoVgGKybYoP76G1SdsO7Fo_eWNUIgxZ75AaWVuQ0Rkqu3fmXRKmTQO6_fpM9dAkNAw8kd-dsux-RThgcyeR5sev3brXB7dCHqKdJ3MqAOyhEPujAnRTBtLWwrox-PTzb9_TB","width":1200}],"place_id":"ChIJ4xyU89O6rhIRFP7gbzgMn74","plus_code":{"compound_code":"J9FX+XR Blagnac","global_code":"8FM3J9FX+XR"},"price_level":1,"rating":4.6,"reference":"ChIJ4xyU89O6rhIRFP7gbzgMn74","types":["store","bar","restaurant","point_of_interest","food","establishment"],"user_ratings_total":264},{"business_status":"OPERATIONAL","formatted_address":"10 Bd du Professeur Léopold Escande, 31000 Toulouse","geometry":{"location":{"lat":43.603034,"lng":1.4564059},"viewport":{"northeast":{"lat":43.60438562989273,"lng":1.457766029892722},"southwest":{"lat":43.60168597010728,"lng":1.455066370107278}}},"icon":"https://maps.gstatic.com/mapfiles/place_api/icons/v1/png_71/restaurant-71.png","icon_background_color":"#FF9E67","icon_mask_base_uri":"https://maps.gstatic.com/mapfiles/place_api/icons/v2/restaurant_pinlet","name":"Au Bon Manger","opening_hours":{"open_now":false},"photos":[{"height":338,"html_attributions":["<a href=\"https://maps.google.com/maps/contrib/106788360156454287819\">Restaurant Au Bon Manger</a>"],"photo_reference":"AeJbb3dKITHvD25bMOd0HkR7TIFtJlRGhpzbb79AqIgG1v3FJFrSle0gyMJ6ikJHSwfWMDOBr4gmwLHySWDuxE5mqtJLilxhcpDaOz916MkeLQ-vJ2_V9uhtPvKFCORTXYodfNyW4qE3RqRVO5pH8Ph3Q6Toudlmgx-9prF5Z9cTP4Axg02v","width":450}],"place_id":"ChIJr_aUPZG8rhIRjBfmFxASp4I","plus_code":{"compound_code":"JF34+6G Toulouse","global_code":"8FM3JF34+6G"},"price_level":2,"rating":4.6,"reference":"ChIJr_aUPZG8rhIRjBfmFxASp4I","types":["restaurant","food","point_of_interest","establishment"],"user_ratings_total":199},{"business_status":"OPERATIONAL","formatted_address":"50 Rue des Couteliers, 31000 Toulouse","geometry":{"location":{"lat":43.5995363,"lng":1.441486},"viewport":{"northeast":{"lat":43.60085937989272,"lng":1.442818279892722},"southwest":{"lat":43.59815972010728,"lng":1.440118620107278}}},"icon":"https://maps.gstatic.com/mapfiles/place_api/icons/v1/png_71/restaurant-71.png","icon_background_color":"#FF9E67","icon_mask_base_uri":"https://maps.gstatic.com/mapfiles/place_api/icons/v2/restaurant_pinlet","name":"Restaurant Balthazar","opening_hours":{"open_now":false},"photos":[{"height":1365,"html_attributions":["<a href=\"https://maps.google.com/maps/contrib/106578286350540081740\">Balthazar Restaurant</a>"],"photo_reference":"AeJbb3edFcskfZr6OfnTM3QGYvz6eY2tMauZyFoevkR9NiCjvQ0L4QcagOWd_P-8Hz78_EKrnNkVDRKhxxBNzE6p5wFHtFK3g6j0Aruz_3EhPboPQJ147mPZuSpOOj8EUIPINmeQNTZhxoKRudFb819lADDu7LYFK0nqwlFu0EC59HnFriuk","width":2048}],"place_id":"ChIJiROILH27rhIRTfArN830J1U","plus_code":{"compound_code":"HCXR+RH Toulouse","global_code":"8FM3HCXR+RH"},"price_level":2,"rating":4.6,"reference":"ChIJiROILH27rhIRTfArN830J1U","types":["bar","restaurant","point_of_interest","food","establishment"],"user_ratings_total":189},{"business_status":"OPERATIONAL","formatted_address":"111 Av. de Lespinet, 31400 Toulouse","geometry":{"location":{"lat":43.5787367,"lng":1.4683415},"viewport":{"northeast":{"lat":43.58006187989272,"lng":1.469522179892722},"southwest":{"lat":43.57736222010728,"lng":1.466822520107278}}},"icon":"https://maps.gstatic.com/mapfiles/place_api/icons/v1/png_71/restaurant-71.png","icon_background_color":"#FF9E67","icon_mask_base_uri":"https://maps.gstatic.com/mapfiles/place_api/icons/v2/restaurant_pinlet","name":"Le Bus 111","opening_hours":{"open_now":false},"photos":[{"height":3503,"html_attributions":["<a href=\"https://maps.google.com/maps/contrib/107704393479917970377\">A Google User</a>"],"photo_reference":"AeJbb3eaFisAds9Dukqk7dlZ_vKC9rLVS-X5wtD3EF9ch02gTfqamO_S220BmjOcmdsZQteUJn1tcqdb1yNQBmgt1kH6CzfcSKS9sXNyJqy28n5xLNjgYx4VZTVoOnihs5BxFDTIsE5f0Jiax1uw4bWOAX2Ne3BGU2N_ZEiN_6fYE6UczGUJ","width":2849}],"place_id":"ChIJE3eRTUO8rhIRO4CYUJcpQug","plus_code":{"compound_code":"HFH9+F8 Toulouse","global_code":"8FM3HFH9+F8"},"price_level":2,"rating":4.5,"reference":"ChIJE3eRTUO8rhIRO4CYUJcpQug","types":["restaurant","point_of_interest","food","establishment"],"user_ratings_total":1060},{"business_status":"OPERATIONAL","formatted_address":"4, 8 Rue Arnaud Bernard 6, 31000 Toulouse","geometry":{"location":{"lat":43.6096419,"lng":1.4392784},"viewport":{"northeast":{"lat":43.61097572989272,"lng":1.440566629892722},"southwest":{"lat":43.60827607010728,"lng":1.437866970107277}}},"icon":"https://maps.gstatic.com/mapfiles/place_api/icons/v1/png_71/restaurant-71.png","icon_background_color":"#FF9E67","icon_mask_base_uri":"https://maps.gstatic.com/mapfiles/place_api/icons/v2/restaurant_pinlet","name":"Aux Pieds sous la Table","opening_hours":{"open_now":false},"photos":[{"height":1728,"html_attributions":["<a href=\"https://maps.google.com/maps/contrib/117060874358388751037\">Sarl Ppcqa Fabien</a>"],"photo_reference":"AeJbb3fVPDrF-HU5fkofhTH6XgJxL10ZmFzzRR4GGATRGvIi8fpL74WxZ1LEDs-2gJhlZtgKHNG6McUFQerwGfZ0oCdrTURJBneuojIHcuvGaax0bcR59itMoM3NyiJQgxU9tlQI0Ttm03MKfZeGPUw6G3v3SGIlDONrdphtbYjz1euVPf7f","width":2592}],"place_id":"ChIJyxx4HF67rhIR14SO1PAhf8o","plus_code":{"compound_code":"JC5Q+VP Toulouse","global_code":"8FM3JC5Q+VP"},"price_level":2,"rating":4.5,"reference":"ChIJyxx4HF67rhIR14SO1PAhf8o","types":["restaurant","food","point_of_interest","establishment"],"user_ratings_total":996},{"business_status":"OPERATIONAL","formatted_address":"10 Rue des Blanchers, 31000 Toulouse","geometry":{"location":{"lat":43.6023801,"lng":1.4381458},"viewport":{"northeast":{"lat":43.60369577989272,"lng":1.439525879892722},"southwest":{"lat":43.60099612010728,"lng":1.436826220107278}}},"icon":"https://maps.gstatic.com/mapfiles/place_api/icons/v1/png_71/restaurant-71.png","icon_background_color":"#FF9E67","icon_mask_base_uri":"https://maps.gstatic.com/mapfiles/place_api/icons/v2/restaurant_pinlet","name":"Le Dahu","opening_hours":{"open_now":false},"photos":[{"height":2592,"html_attributions":["<a href=\"https://maps.google.com/maps/contrib/107546842508770128635\">gklk25</a>"],"photo_reference":"AeJbb3emTutB9a1JF2DbKE5b82jfIavXmasMaj4n8j6BsiB6GxbTWpnkPNxfFRC9mVv8dIvVA8JVuCU9_WyQsjKVS-IiXtn7VPV8Gr59OD3GtMhCtCKgSjUcVFQAy3AZ0bxgrMzYfm6jvjE73jgbA5OJUlwkA1J8a2bRtYjqj0vQAvMZFzfC","width":4608}],"place_id":"ChIJb9pZfGS7rhIRErmNZmz68NU","plus_code":{"compound_code":"JC2Q+X7 Toulouse","global_code":"8FM3JC2Q+X7"},"price_level":2,"rating":4.5,"reference":"ChIJb9pZfGS7rhIRErmNZmz68NU","types":["restaurant","food","point_of_interest","establishment"],"user_ratings_total":551},{"business_status":"OPERATIONAL","formatted_address":"6 Rue de l'Étoile, 31000 Toulouse","geometry":{"location":{"lat":43.6015477,"lng":1.4528548},"viewport":{"northeast":{"lat":43.60289907989272,"lng":1.454188129892722},"southwest":{"lat":43.60019942010727,"lng":1.451488470107278}}},"icon":"https://maps.gstatic.com/mapfiles/place_api/icons/v1/png_71/restaurant-71.png","icon_background_color":"#FF9E67","icon_mask_base_uri":"https://maps.gstatic.com/mapfiles/place_api/icons/v2/restaurant_pinlet","name":"Le Bistrot De L'etoile","opening_hours":{"open_now":false},"photos":[{"height":2359,"html_attributions":["<a href=\"https://maps.google.com/maps/contrib/100328453635260052673\">Jerome Pasquet</a>"],"photo_reference":"AeJbb3egAkhAVguA1z2aNqbC6D9u-k86hEmJ3OS6QcWn8wF_nXStxDxQr_cQctC5GL3SO00k6NLiqsoUfOH8qrKoi3B2HZBXCruvpcZ9xBudGOlRN4UQSkfBMeHqleWgtOo7jpVB_nlmPuW5VslNnSCgYYjPKa9gKo7pMiMEqcy4nWNwVzA","width":4193}],"place_id":"ChIJOewwUetv5kcRPiZN2ukTJlw","plus_code":{"compound_code":"JF23+J5 Toulouse","global_code":"8FM3JF23+J5"},"price_level":2,"rating":4.5,"reference":"ChIJOewwUetv5kcRPiZN2ukTJlw","types":["restaurant","food","point_of_interest","establishment"],"user_ratings_total":451},{"business_status":"OPERATIONAL","formatted_address":"46 Rue des Couteliers, 31000 Toulouse","geometry":{"location":{"lat":43.5993771,"lng":1.4415728},"viewport":{"northeast":{"lat":43.60073412989271,"lng":1.442935329892722},"southwest":{"lat":43.59803447010727,"lng":1.440235670107278}}},"icon":"https://maps.gstatic.com/mapfiles/place_api/icons/v1/png_71/restaurant-71.png","icon_background_color":"#FF9E67","icon_mask_base_uri":"https://maps.gstatic.com/mapfiles/place_api/icons/v2/restaurant_pinlet","name":"Restaurant Le Cénacle","opening_hours":{"open_now":false},"photos":[{"height":4728,"html_attributions":["<a href=\"https://maps.google.com/maps/contrib/103754620083392214539\">Protocole Photo Toulouse</a>"],"photo_reference":"AeJbb3dF7af_OHKxu6-vKjEcTJRJKLdJaxRymOz230zwh-MH5ACoo9GfWJDGTIlVxASKjnfKg2c0pNTHfi2AMXJStLAfjGfJQLNwl_0Td4dfrxjs3I11DUtL_OZ5eXJJgAsPCnN_8KgIv-bF8U0DafcyxK2m6JdRZ41UIvcR1idkHXrlCAkL","width":7104}],"place_id":"ChIJLeMXMn27rhIRZn0_esCL1KU","plus_code":{"compound_code":"HCXR+QM Toulouse","global_code":"8FM3HCXR+QM"},"rating":4.5,"reference":"ChIJLeMXMn27rhIRZn0_esCL1KU","types":["restaurant","point_of_interest","food","establishment"],"user_ratings_total":363},{"business_status":"OPERATIONAL","formatted_address":"42 Rue Pharaon, 31000 Toulouse","geometry":{"location":{"lat":43.5966667,"lng":1.4444444},"viewport":{"northeast":{"lat":43.59803137989272,"lng":1.445733079892722},"southwest":{"lat":43.59533172010727,"lng":1.443033420107278}}},"icon":"https://maps.gstatic.com/mapfiles/place_api/icons/v1/png_71/restaurant-71.png","icon_background_color":"#FF9E67","icon_mask_base_uri":"https://maps.gstatic.com/mapfiles/place_api/icons/v2/restaurant_pinlet","name":"La Braisière","opening_hours":{"open_now":false},"photos":[{"height":2795,"html_attributions":["<a href=\"https://maps.google.com/maps/contrib/101288831399981343088\">A Google User</a>"],"photo_reference":"AeJbb3dOJg3l5pFVuw0OvR5Aa9d_R0PN6u8flDufkFTk0kNar0MG-2dLFaMoTTDmAfBevg_WqfrOD_c6cy3M2yYz2hvn6ZjZ7-M2SilFgFjIPr4T8_9U-EF6Oq8p49zbvNpcNYMOc2v8df5qINu04-V5tMyhN3-4CP3xK6BX2W_J-gORyRh0","width":4192}],"place_id":"ChIJ7aICZoK8rhIRfwdtqra0QMw","plus_code":{"compound_code":"HCWV+MQ Toulouse","global_code":"8FM3HCWV+MQ"},"price_level":2,"rating":4.4,"reference":"ChIJ7aICZoK8rhIRfwdtqra0QMw","types":["restaurant","food","point_of_interest","establishment"],"user_ratings_total":2274},{"business_status":"OPERATIONAL","formatted_address":"4 Rue du May, 31000 Toulouse","geometry":{"location":{"lat":43.60201199999999,"lng":1.442768},"viewport":{"northeast":{"lat":43.60337307989272,"lng":1.444084879892722},"southwest":{"lat":43.60067342010727,"lng":1.441385220107278}}},"icon":"https://maps.gstatic.com/mapfiles/place_api/icons/v1/png_71/restaurant-71.png","icon_background_color":"#FF9E67","icon_mask_base_uri":"https://maps.gstatic.com/mapfiles/place_api/icons/v2/restaurant_pinlet","name":"Restaurant Le May","opening_hours":{"open_now":false},"photos":[{"height":1080,"html_attributions":["<a href=\"https://maps.google.com/maps/contrib/105308101695816558648\">Frédéric LE GUEN</a>"],"photo_reference":"AeJbb3cGhSkMlPnf7L6lRpUFpWcDiW4k4EbngPxGfDDga6tv-Bpxztj8ECyl_4u41UZbXLHrqFSrwjm7jRfwkCbPx7ZnvIG1tDy-NbGwx2kwRSN3oLEN1Cvb1wu6yfAgoI73UqZxqBQCglKfOaLgeOgiuB0FjsCTrJMt9fD087RY13gwwcfn","width":1920}],"place_id":"ChIJ_6uuiWK7rhIRoDObP7OEeU8","plus_code":{"compound_code":"JC2V+R4 Toulouse","global_code":"8FM3JC2V+R4"},"price_level":1,"rating":4.4,"reference":"ChIJ_6uuiWK7rhIRoDObP7OEeU8","types":["restaurant","food","point_of_interest","establishment"],"user_ratings_total":1655},{"business_status":"OPERATIONAL","formatted_address":"17 Pl. Victor Hugo, 31000 Toulouse","geometry":{"location":{"lat":43.6059201,"lng":1.4463119},"viewport":{"northeast":{"lat":43.60727667989272,"lng":1.447744979892722},"southwest":{"lat":43.60457702010728,"lng":1.445045320107278}}},"icon":"https://maps.gstatic.com/mapfiles/place_api/icons/v1/png_71/restaurant-71.png","icon_background_color":"#FF9E67","icon_mask_base_uri":"https://maps.gstatic.com/mapfiles/place_api/icons/v2/restaurant_pinlet","name":"La Gourmandine - Côté Marché - Toulouse","opening_hours":{"open_now":false},"photos":[{"height":3280,"html_attributions":["<a href=\"https://maps.google.com/maps/contrib/110840792202562084509\">A Google User</a>"],"photo_reference":"AeJbb3cecMa8LhIrX8YF9VFFAG0OLIk79G6_ycXHjlYWF9N1IbAa6aAzfTIhpolvxP1A4r_j-2qFkYEs4zl9wKz2yehFCTDCv122s54MmIl8tLI1UNTJuEt0u4JaYykuAxGo__DyjjTBAjwmVhA2Iv5IwOG5v0qx5VeMaqSIgexRsFjrbspj","width":4928}],"place_id":"ChIJE8Pk8Z68rhIRIwQ3R_hOxQM","plus_code":{"compound_code":"JC4W+9G Toulouse","global_code":"8FM3JC4W+9G"},"price_level":2,"rating":4.4,"reference":"ChIJE8Pk8Z68rhIRIwQ3R_hOxQM","types":["bar","restaurant","point_of_interest","food","establishment"],"user_ratings_total":1136},{"business_status":"OPERATIONAL","formatted_address":"9 Rue des Jacobins, 31000 Toulouse","geometry":{"location":{"lat":43.604182,"lng":1.4416209},"viewport":{"northeast":{"lat":43.60552787989272,"lng":1.442955379892722},"southwest":{"lat":43.60282822010728,"lng":1.440255720107278}}},"icon":"https://maps.gstatic.com/mapfiles/place_api/icons/v1/png_71/restaurant-71.png","icon_background_color":"#FF9E67","icon_mask_base_uri":"https://maps.gstatic.com/mapfiles/place_api/icons/v2/restaurant_pinlet","name":"Au Gascon","opening_hours":{"open_now":false},"photos":[{"height":4000,"html_attributions":["<a href=\"https://maps.google.com/maps/contrib/116167422289541576658\">Soon Kiet Kong</a>"],"photo_reference":"AeJbb3c1Gm4kJKn0-ylRu0qLWSIrHi6q1cgreRxAWdyY5mbujRCDIcxceIz5pf3z1FxqLB5D-FR3joaXHByrII-C-YJGA8TCEPi9_iZeN2k5o9Chxu1t2cvZ6Qn9Au3tsi9E-SkKxaIoL3ze-OCMvRJSNbzZYxM1kV3VFW4Qujed0x4aUsae","width":2250}],"place_id":"ChIJe781L2K7rhIRT6-B8qg9_hs","plus_code":{"compound_code":"JC3R+MJ Toulouse","global_code":"8FM3JC3R+MJ"},"price_level":1,"rating":4.4,"reference":"ChIJe781L2K7rhIRT6-B8qg9_hs","types":["restaurant","food","point_of_interest","establishment"],"user_ratings_total":1119},{"business_status":"OPERATIONAL","formatted_address":"4 Av. Honoré Serres, 31000 Toulouse","geometry":{"location":{"lat":43.6119192,"lng":1.4387149},"viewport":{"northeast":{"lat":43.61328547989272,"lng":1.440043479892722},"southwest":{"lat":43.61058582010728,"lng":1.437343820107278}}},"icon":"https://maps.gstatic.com/mapfiles/place_api/icons/v1/png_71/restaurant-71.png","icon_background_color":"#FF9E67","icon_mask_base_uri":"https://maps.gstatic.com/mapfiles/place_api/icons/v2/restaurant_pinlet","name":"Les Fortes Têtes","opening_hours":{"open_now":false},"photos":[{"height":712,"html_attributions":["<a href=\"https://maps.google.com/maps/contrib/110671376275037535329\">LE MARSELAN</a>"],"photo_reference":"AeJbb3fSKEytEqj3nTNs1opFYnfw0cqNbA5yBRKMVWwTrMD-E9YsiJV43Nye2U2EzsXJWUQQ0x_mhg98Uc0xdd8OTxGRQS7hyCXufU1N45EDjlf34Q0qFQfhLvipsxAn-I38sIntH1RbbmmYek2LqvXRGYaQHCB6k65vO6t55cbtp1ExLeaP","width":950}],"place_id":"ChIJT39uKly7rhIRO9FB00gBFcU","plus_code":{"compound_code":"JC6Q+QG Toulouse","global_code":"8FM3JC6Q+QG"},"price_level":2,"rating":4.4,"reference":"ChIJT39uKly7rhIRO9FB00gBFcU","types":["restaurant","point_of_interest","food","establishment"],"user_ratings_total":996},{"business_status":"OPERATIONAL","formatted_address":"13 Pl. Saint-Georges, 31000 Toulouse","geometry":{"location":{"lat":43.6022371,"lng":1.4471671},"viewport":{"northeast":{"lat":43.60351042989272,"lng":1.448604179892722},"southwest":{"lat":43.60081077010727,"lng":1.445904520107278}}},"icon":"https://maps.gstatic.com/mapfiles/place_api/icons/v1/png_71/restaurant-71.png","icon_background_color":"#FF9E67","icon_mask_base_uri":"https://maps.gstatic.com/mapfiles/place_api/icons/v2/restaurant_pinlet","name":"Restaurant Emile","opening_hours":{"open_now":false},"photos":[{"height":3120,"html_attributions":["<a href=\"https://maps.google.com/maps/contrib/107592646369243301256\">alain dano</a>"],"photo_reference":"AeJbb3eMKBiPYbcavT35IiLkhhC3ge35xoCwiPE6iV9NwE_2nOc-u65doZTps_nHMzoY9wCpAIfyL0J8XC03Wf3ilVRLRUmHr_xBv6_q_9lJ5ZhmJn5p_p4QJ-fRLzOUhXgxK2IhAaaURdo5GQfR77R4-y4ZLE8wmebHPSBXAAPsO5jP5vDY","width":4160}],"place_id":"ChIJ7QJlYZy8rhIRODmSbGY9fvM","plus_code":{"compound_code":"JC2W+VV Toulouse","global_code":"8FM3JC2W+VV"},"price_level":3,"rating":4.4,"reference":"ChIJ7QJlYZy8rhIRODmSbGY9fvM","types":["restaurant","point_of_interest","food","establishment"],"user_ratings_total":929},{"business_status":"OPERATIONAL","formatted_address":"181 Av. des États Unis, 31000 Toulouse","geometry":{"location":{"lat":43.6387428,"lng":1.4294753},"viewport":{"northeast":{"lat":43.64010552989273,"lng":1.430842729892722},"southwest":{"lat":43.63740587010729,"lng":1.428143070107278}}},"icon":"https://maps.gstatic.com/mapfiles/place_api/icons/v1/png_71/restaurant-71.png","icon_background_color":"#FF9E67","icon_mask_base_uri":"https://maps.gstatic.com/mapfiles/place_api/icons/v2/restaurant_pinlet","name":"Café Francis","opening_hours":{"open_now":false},"photos":[{"height":1080,"html_attributions":["<a href=\"https://maps.google.com/maps/contrib/101076619582735051088\">Wilfried Costenaro</a>"],"photo_reference":"AeJbb3ciq40FHQTwdJYrnfPBVqMCGgEtwN1DeKpM94-FQ855fovumsimv0qJCPpM6gT6P7EumrwDsm1dP_E4qEtG4W8fAGzMbQvdQoWBL_eszd7D1VCPqdCFsGJ9TocK5B6EQIKpdNkIjlN22PqFwfljU8UM47rBDCeHQIviaLchoiM8EjVv","width":1920}],"place_id":"ChIJ8VgCIrqkrhIRUD6dT4vnjZA","plus_code":{"compound_code":"JCQH+FQ Toulouse","global_code":"8FM3JCQH+FQ"},"price_level":2,"rating":4.4,"reference":"ChIJ8VgCIrqkrhIRUD6dT4vnjZA","types":["restaurant","food","point_of_interest","establishment"],"user_ratings_total":574},{"business_status":"OPERATIONAL","formatted_address":"49 Gd Rue Nazareth, 31000 Toulouse","geometry":{"location":{"lat":43.5969386,"lng":1.4474303},"viewport":{"northeast":{"lat":43.59827817989272,"lng":1.448782179892722},"southwest":{"lat":43.59557852010727,"lng":1.446082520107278}}},"icon":"https://maps.gstatic.com/mapfiles/place_api/icons/v1/png_71/restaurant-71.png","icon_background_color":"#FF9E67","icon_mask_base_uri":"https://maps.gstatic.com/mapfiles/place_api/icons/v2/restaurant_pinlet","name":"Chez Navarre","opening_hours":{"open_now":false},"photos":[{"height":1367,"html_attributions":["<a href=\"https://maps.google.com/maps/contrib/116436966022504048397\">Evgeny Firsov</a>"],"photo_reference":"AeJbb3cJelrvg3ODKVX2aqWGv5XGyV7vCNTFzt3L7Ht99ziaNkAPqSCqbb00RxVhqSxtzhKdr9wMUxc9vqxts6wfr7FjPaYlAINmvspEvMyPLEO118-HsIVrujQ-DbR_nzY_t4bzoLNR10oe3sbqaY-a-kCDFe01omzbGdTHssJUKc0IrCl6","width":2048}],"place_id":"ChIJQ5PpnoO8rhIR-P8Id4EZPn8","plus_code":{"compound_code":"HCWW+QX Toulouse","global_code":"8FM3HCWW+QX"},"price_level":2,"rating":4.4,"reference":"ChIJQ5PpnoO8rhIR-P8Id4EZPn8","types":["restaurant","food","point_of_interest","establishment"],"user_ratings_total":498},{"business_status":"OPERATIONAL","formatted_address":"Marché Victor Hugo, 1er étage,, 31000 Toulouse","geometry":{"location":{"lat":43.606829,"lng":1.4464198},"viewport":{"northeast":{"lat":43.60790172989272,"lng":1.447756729892722},"southwest":{"lat":43.60520207010727,"lng":1.445057070107278}}},"icon":"https://maps.gstatic.com/mapfiles/place_api/icons/v1/png_71/restaurant-71.png","icon_background_color":"#FF9E67","icon_mask_base_uri":"https://maps.gstatic.com/mapfiles/place_api/icons/v2/restaurant_pinlet","name":"Au Bon Graillou","opening_hours":{"open_now":false},"photos":[{"height":1960,"html_attributions":["<a href=\"https://maps.google.com/maps/contrib/104758355462766915309\">A Google User</a>"],"photo_reference":"AeJbb3eaQJM3j6xoPEqY1I7E_okh-MOZqak36K-TzexLOZRDognaLLj1g1XfyZQoJLl-M4Tfu7M4zlpDFBKB4lh-3LWHVVTQuyp9aupCmrsfAMjSxUhjOfCw10wsv0oXAuJ35rBM8VkS-YmRbEI31Iu5pddAp0YYJF9OsSEk0c70MbPscu40","width":4032}],"place_id":"ChIJM5ShAp-8rhIRQVhRm7Qt98c","plus_code":{"compound_code":"JC4W+PH Toulouse","global_code":"8FM3JC4W+PH"},"price_level":2,"rating":4.4,"reference":"ChIJM5ShAp-8rhIRQVhRm7Qt98c","types":["restaurant","food","point_of_interest","establishment"],"user_ratings_total":495},{"business_status":"OPERATIONAL","formatted_address":"16 Rue des Blanchers, 31000 Toulouse","geometry":{"location":{"lat":43.6024,"lng":1.4380389},"viewport":{"northeast":{"lat":43.60372767989272,"lng":1.439423829892722},"southwest":{"lat":43.60102802010728,"lng":1.436724170107278}}},"icon":"https://maps.gstatic.com/mapfiles/place_api/icons/v1/png_71/restaurant-71.png","icon_background_color":"#FF9E67","icon_mask_base_uri":"https://maps.gstatic.com/mapfiles/place_api/icons/v2/restaurant_pinlet","name":"Le Petit Marais","opening_hours":{"open_now":false},"photos":[{"height":2692,"html_attributions":["<a href=\"https://maps.google.com/maps/contrib/102954937336065320380\">JM Naeyaert</a>"],"photo_reference":"AeJbb3erSq7NNa4Wr7CnUd_M_dS_dhvN7C14YPzMkL_UX6OlNpJuG7erm9K2hvv95c2A3ZNSFzxQhNYuDCGV_JhK7qxN67OyoC6LsgTfapZu_UcvUIqWni3Uptx2YFl-5x1QTAfNkUIJIlKxoWgQr_mEaIerK9mpCswhOJtTveCFauHhOMaH","width":3589}],"place_id":"ChIJfTB9Y2S7rhIRxF68Q-QfXj8","plus_code":{"compound_code":"JC2Q+X6 Toulouse","global_code":"8FM3JC2Q+X6"},"price_level":2,"rating":4.4,"reference":"ChIJfTB9Y2S7rhIRxF68Q-QfXj8","types":["bar","restaurant","food","point_of_interest","establishment"],"user_ratings_total":378},{"business_status":"OPERATIONAL","formatted_address":"30 Rue Bernard Mule, 31400 Toulouse","geometry":{"location":{"lat":43.5975815,"lng":1.4578352},"viewport":{"northeast":{"lat":43.59890852989272,"lng":1.459143329892722},"southwest":{"lat":43.59620887010728,"lng":1.456443670107278}}},"icon":"https://maps.gstatic.com/mapfiles/place_api/icons/v1/png_71/restaurant-71.png","icon_background_color":"#FF9E67","icon_mask_base_uri":"https://maps.gstatic.com/mapfiles/place_api/icons/v2/restaurant_pinlet","name":"Le Chai Saint Sauveur","opening_hours":{"open_now":true},"photos":[{"height":3024,"html_attributions":["<a href=\"https://maps.google.com/maps/contrib/108485568547272819311\">Benoît Couture</a>"],"photo_reference":"AeJbb3cYHfEp2eaScWAuD9vlbOUC7a1h2JA0oNerKbFjcl9BbsFVlVF25dd2-18O6669SVVwphyl-3ArYtFHUiiVduEV_4b6FCmYjmI4OoubDudsrM2HzmNFlLfGDDztFqjTzfs2f0m12Y7YJ0g67hDl5gd8mHGLBV4xH7b8QgbTOP9c23Ld","width":4032}],"place_id":"ChIJvS2seY68rhIRiB5Vw9EMMhw","plus_code":{"compound_code":"HFX5+24 Toulouse","global_code":"8FM3HFX5+24"},"price_level":2,"rating":4.4,"reference":"ChIJvS2seY68rhIRiB5Vw9EMMhw","types":["bar","restaurant","point_of_interest","food","establishment"],"user_ratings_total":212},{"business_status":"OPERATIONAL","formatted_address":"8 Av. Maurice Hauriou, 31000 Toulouse","geometry":{"location":{"lat":43.5929984,"lng":1.4432086},"viewport":{"northeast":{"lat":43.59438747989272,"lng":1.444609279892722},"southwest":{"lat":43.59168782010728,"lng":1.441909620107278}}},"icon":"https://maps.gstatic.com/mapfiles/place_api/icons/v1/png_71/restaurant-71.png","icon_background_color":"#FF9E67","icon_mask_base_uri":"https://maps.gstatic.com/mapfiles/place_api/icons/v2/restaurant_pinlet","name":"Côté Garonne","opening_hours":{"open_now":false},"photos":[{"height":2988,"html_attributions":["<a href=\"https://maps.google.com/maps/contrib/110203787125102443097\">Van Santfort Eric</a>"],"photo_reference":"AeJbb3fekU4MXF7PAlc9uvlTHtWe4RXUrQdujbibjlyG4jLmGKVaNlmYusRsGenniz-OU87DyNiTHbEOkZ21aWAkGYfgdhg8_kclrgomTw3tG9LcYIcygiqr5GFeu-XyvkLTjeWcV1raFY6Dqv42ckxzeQT6SIYDzX_J7ylCDSs_CQ3OXj0f","width":5312}],"place_id":"ChIJ7yqWKH67rhIRBbDhvz_oT2w","plus_code":{"compound_code":"HCVV+57 Toulouse","global_code":"8FM3HCVV+57"},"price_level":2,"rating":4.3,"reference":"ChIJ7yqWKH67rhIRBbDhvz_oT2w","types":["restaurant","point_of_interest","food","establishment"],"user_ratings_total":847},{"business_status":"OPERATIONAL","formatted_address":"59 Rue Pargaminières, 31000 Toulouse","geometry":{"location":{"lat":43.60437779999999,"lng":1.4392083},"viewport":{"northeast":{"lat":43.60576982989272,"lng":1.440550079892722},"southwest":{"lat":43.60307017010728,"lng":1.437850420107278}}},"icon":"https://maps.gstatic.com/mapfiles/place_api/icons/v1/png_71/restaurant-71.png","icon_background_color":"#FF9E67","icon_mask_base_uri":"https://maps.gstatic.com/mapfiles/place_api/icons/v2/restaurant_pinlet","name":"Le Patio de la Table Ronde","opening_hours":{"open_now":false},"photos":[{"height":3456,"html_attributions":["<a href=\"https://maps.google.com/maps/contrib/103913107423757333651\">César A. Caballero</a>"],"photo_reference":"AeJbb3e58RvKhkuWvNRoCi8IdkgiV_N9HRo3JYItJzZKUBKRdjfTxZ7EpUBl2UBgnNATD77_yTOhA6YlB4RP61ZccXURQK_D8tQwIazzOyuNZdTeoUXclh6IlhgdmNFAkqmo0HFAFKcgBEoOfjyIe0qRYrcFqmyL-9HLsh-t3xeSm53_Eura","width":4608}],"place_id":"ChIJu6nK4mO7rhIRmmzM6XcH9DA","plus_code":{"compound_code":"JC3Q+QM Toulouse","global_code":"8FM3JC3Q+QM"},"price_level":2,"rating":4.3,"reference":"ChIJu6nK4mO7rhIRmmzM6XcH9DA","types":["restaurant","food","point_of_interest","establishment"],"user_ratings_total":840},{"business_status":"OPERATIONAL","formatted_address":"3 All. du Rouergue, 31770 Colomiers","geometry":{"location":{"lat":43.6095032,"lng":1.3303023},"viewport":{"northeast":{"lat":43.61082177989272,"lng":1.331718079892722},"southwest":{"lat":43.60812212010728,"lng":1.329018420107278}}},"icon":"https://maps.gstatic.com/mapfiles/place_api/icons/v1/png_71/restaurant-71.png","icon_background_color":"#FF9E67","icon_mask_base_uri":"https://maps.gstatic.com/mapfiles/place_api/icons/v2/restaurant_pinlet","name":"Cosy Restaurant & Traiteur","opening_hours":{"open_now":false},"photos":[{"height":3456,"html_attributions":["<a href=\"https://maps.google.com/maps/contrib/102977928903904129930\">Yann BERGER</a>"],"photo_reference":"AeJbb3ctHfznOnCU8raf2-ni_mRUKXSTXkUR9fOQCInVfUzhDd0fD5EErpVCGWsTF7E4Cnw-up_Y-19Q00Dz_LBWlOXNjkhpnm64R84IIWe-iEI2R8j-RsKV_U_UQdd1TGModQWjbYlteE_YH2FMRGuyOGL9YSZch1YssNbZ06GErsLbANrm","width":4608}],"place_id":"ChIJLXoXYEqwrhIR8psyk11CQ_g","plus_code":{"compound_code":"J85J+R4 Colomiers","global_code":"8FM3J85J+R4"},"price_level":2,"rating":4.3,"reference":"ChIJLXoXYEqwrhIR8psyk11CQ_g","types":["restaurant","food","point_of_interest","establishment"],"user_ratings_total":528},{"business_status":"OPERATIONAL","formatted_address":"11 Rue Edouard Pailleron, 31200 Toulouse","geometry":{"location":{"lat":43.6322215,"lng":1.4517631},"viewport":{"northeast":{"lat":43.63338632989272,"lng":1.4543647},"southwest":{"lat":43.63068667010728,"lng":1.4508959}}},"icon":"https://maps.gstatic.com/mapfiles/place_api/icons/v1/png_71/restaurant-71.png","icon_background_color":"#FF9E67","icon_mask_base_uri":"https://maps.gstatic.com/mapfiles/place_api/icons/v2/restaurant_pinlet","name":"La Noria restaurant et salon de thé","opening_hours":{"open_now":false},"photos":[{"height":2832,"html_attributions":["<a href=\"https://maps.google.com/maps/contrib/101645238043548021971\">La Noria</a>"],"photo_reference":"AeJbb3fqHqC2EHbGooHY1tYyYu3H2xQvl4IsisC-hhNHoX9OJ-a2O2wpvDd7GQSxQl62rNrVmOPtSlWkUU4TCFoYpLcZOmeu4IolDxuvrE9IFwxiknwKgtaxYxA3J67_qeBqa0EM63-vNB2mDjJ7TfKbtg4j212wchi_edA96sGCXacrefDf","width":4256}],"place_id":"ChIJyaTCjE2jrhIRXZt09c34ikE","plus_code":{"compound_code":"JFJ2+VP Toulouse","global_code":"8FM3JFJ2+VP"},"price_level":2,"rating":4.3,"reference":"ChIJyaTCjE2jrhIRXZt09c34ikE","types":["cafe","restaurant","food","point_of_interest","establishment"],"user_ratings_total":317},{"business_status":"OPERATIONAL","formatted_address":"108 Rue des Amidonniers, 31000 Toulouse","geometry":{"location":{"lat":43.60854990000001,"lng":1.4167822},"viewport":{"northeast":{"lat":43.60983907989272,"lng":1.418039279892722},"southwest":{"lat":43.60713942010728,"lng":1.415339620107278}}},"icon":"https://maps.gstatic.com/mapfiles/place_api/icons/v1/png_71/restaurant-71.png","icon_background_color":"#FF9E67","icon_mask_base_uri":"https://maps.gstatic.com/mapfiles/place_api/icons/v2/restaurant_pinlet","name":"Restaurant Le Toec (Ponts-Jumeaux-Amidonniers)","opening_hours":{"open_now":false},"photos":[{"height":2610,"html_attributions":["<a href=\"https://maps.google.com/maps/contrib/118417642253983741232\">Vincent BUREAU</a>"],"photo_reference":"AeJbb3eIaGtZhk3iLDTZ5wnoQZz_-go_nz4mJWMCfq58Nzk7ZnolroYGP5eekF8ByHyPQmsLZ-_pZcNhD1jLucdEXX4c_J9TZXppB9BIXUNMkLYQz5ef_pP6d7d_sfVyLdB5Jwdsb7t9IRD83qf-i6VXUINVo-wNHG0ImQcgHsTWVSRmYx7u","width":4640}],"place_id":"ChIJ4e1Jxhe7rhIRqd0AOmrTWT0","plus_code":{"compound_code":"JC58+CP Toulouse","global_code":"8FM3JC58+CP"},"price_level":2,"rating":4.3,"reference":"ChIJ4e1Jxhe7rhIRqd0AOmrTWT0","types":["restaurant","food","point_of_interest","establishment"],"user_ratings_total":279},{"business_status":"OPERATIONAL","formatted_address":"5 Rue des Prêtres, 31000 Toulouse","geometry":{"location":{"lat":43.5971264,"lng":1.4439476},"viewport":{"northeast":{"lat":43.59850447989272,"lng":1.445346929892722},"southwest":{"lat":43.59580482010728,"lng":1.442647270107278}}},"icon":"https://maps.gstatic.com/mapfiles/place_api/icons/v1/png_71/restaurant-71.png","icon_background_color":"#FF9E67","icon_mask_base_uri":"https://maps.gstatic.com/mapfiles/place_api/icons/v2/restaurant_pinlet","name":"Les Enfants Terribles","opening_hours":{"open_now":false},"photos":[{"height":640,"html_attributions":["<a href=\"https://maps.google.com/maps/contrib/115169006643823595168\">LES ENFANTS TERRIBLES</a>"],"photo_reference":"AeJbb3dkr8xKsBgiet3d2VHJn-Dhnj1ya6ou02WHT27jNleVNSNoP7dZJQ7fGxAcV9i4ofcsHIYP99HMGJe-pojTZzMktQe7Yy7VloyTsS-6FOIAiiORyUrBG3B4z1axXgQ0CArH3tZWrcxMOKY6Uw8OzyIOjlLsu2IhbCUvBpItbm1mx6Nd","width":960}],"place_id":"ChIJdYn9fIK8rhIRZAMYED8SDeM","plus_code":{"compound_code":"HCWV+VH Toulouse","global_code":"8FM3HCWV+VH"},"price_level":2,"rating":4.3,"reference":"ChIJdYn9fIK8rhIRZAMYED8SDeM","types":["restaurant","food","point_of_interest","establishment"],"user_ratings_total":256},{"business_status":"OPERATIONAL","formatted_address":"7 Bis Rue de la Colombette, 31000 Toulouse","geometry":{"location":{"lat":43.6043605,"lng":1.4513375},"viewport":{"northeast":{"lat":43.60575067989273,"lng":1.452659579892722},"southwest":{"lat":43.60305102010728,"lng":1.449959920107278}}},"icon":"https://maps.gstatic.com/mapfiles/place_api/icons/v1/png_71/restaurant-71.png","icon_background_color":"#FF9E67","icon_mask_base_uri":"https://maps.gstatic.com/mapfiles/place_api/icons/v2/restaurant_pinlet","name":"L'Aubrac","opening_hours":{"open_now":false},"photos":[{"height":2921,"html_attributions":["<a href=\"https://maps.google.com/maps/contrib/108765737028742561943\">S. Kesteum</a>"],"photo_reference":"AeJbb3ceWxhCgKhJiMhAt76kJ_tHm49tP2QphCFrze0iZRhHwp-XG_L7LFZWMBTudvqzDnFf0-p245W_XJVZXSdVfclRGfAhxs2yGICd_dHyo8RCRlkz5ad6Dj1Yi0HkPcKUJm0E_4J3-7ERzGs1njNHWD5xu62PGMVO6n-6PbEc2AGBE_8O","width":3895}],"place_id":"ChIJxdkPiJm8rhIRCBxdbeTa7aY","plus_code":{"compound_code":"JF32+PG Toulouse","global_code":"8FM3JF32+PG"},"price_level":2,"rating":4.2,"reference":"ChIJxdkPiJm8rhIRCBxdbeTa7aY","types":["bar","restaurant","point_of_interest","food","establishment"],"user_ratings_total":601},{"business_status":"OPERATIONAL","formatted_address":"2 Av. Didier Daurat, 31700 Blagnac","geometry":{"location":{"lat":43.6263283,"lng":1.3824293},"viewport":{"northeast":{"lat":43.62750797989273,"lng":1.383905829892722},"southwest":{"lat":43.62480832010728,"lng":1.381206170107278}}},"icon":"https://maps.gstatic.com/mapfiles/place_api/icons/v1/png_71/restaurant-71.png","icon_background_color":"#FF9E67","icon_mask_base_uri":"https://maps.gstatic.com/mapfiles/place_api/icons/v2/restaurant_pinlet","name":"Le Corridor - Brasserie Maison","opening_hours":{"open_now":false},"photos":[{"height":714,"html_attributions":["<a href=\"https://maps.google.com/maps/contrib/105571265051756816233\">A Google User</a>"],"photo_reference":"AeJbb3cBFXYXY2NDNwUm5q_CdHBu2PdZcH5A8khEfHvZwAK70dB8HOoLsmjRCkgF21XAcDeEISFsSsLSZ0fw42JcOBLk8nlgk4HVebia8TyNhrRNfAi-_hOxjy9qY2g0Q7mwxjGIjMY_lMAzMCNDxTSW7eRed-pe1ZXeZZZAkdYgL83yTYyW","width":1024}],"place_id":"ChIJT7mASbS6rhIRwyaFh8pthkg","plus_code":{"compound_code":"J9GJ+GX Blagnac","global_code":"8FM3J9GJ+GX"},"rating":4.2,"reference":"ChIJT7mASbS6rhIRwyaFh8pthkg","types":["restaurant","food","point_of_interest","establishment"],"user_ratings_total":60},{"business_status":"OPERATIONAL","formatted_address":"20 Pl. Saint-Georges, 31000 Toulouse","geometry":{"location":{"lat":43.6017884,"lng":1.4481274},"viewport":{"northeast":{"lat":43.60320377989272,"lng":1.449185379892722},"southwest":{"lat":43.60050412010727,"lng":1.446485720107278}}},"icon":"https://maps.gstatic.com/mapfiles/place_api/icons/v1/png_71/restaurant-71.png","icon_background_color":"#FF9E67","icon_mask_base_uri":"https://maps.gstatic.com/mapfiles/place_api/icons/v2/restaurant_pinlet","name":"Monsieur Georges","opening_hours":{"open_now":false},"photos":[{"height":3840,"html_attributions":["<a href=\"https://maps.google.com/maps/contrib/112513526255218284456\">A Google User</a>"],"photo_reference":"AeJbb3erxRkz1viXcNa7FnsS7a5WWeWxZbfOzI5pnZls1ZJvgFfLcSXWssapaZzYZRpklSO8nwGdt4DjeKnU2boZMLtG-frgqgIrvolFIBMnjWXCwJ0k39Xc_wg_7zujx-vG72UM4rc3Ff4Rl5TJ7Z3D0a-wlAheMKenSXQ0U8EPSsKNOuXB","width":5120}],"place_id":"ChIJcR9JfmS7rhIREZWci6LCg4w","plus_code":{"compound_code":"JC2X+P7 Toulouse","global_code":"8FM3JC2X+P7"},"price_level":2,"rating":4.1,"reference":"ChIJcR9JfmS7rhIREZWci6LCg4w","types":["restaurant","food","point_of_interest","establishment"],"user_ratings_total":1707},{"business_status":"OPERATIONAL","formatted_address":"27-29 Bd de Strasbourg, 31000 Toulouse","geometry":{"location":{"lat":43.6076097,"lng":1.4466486},"viewport":{"northeast":{"lat":43.60896337989272,"lng":1.448005479892722},"southwest":{"lat":43.60626372010728,"lng":1.445305820107278}}},"icon":"https://maps.gstatic.com/mapfiles/place_api/icons/v1/png_71/restaurant-71.png","icon_background_color":"#FF9E67","icon_mask_base_uri":"https://maps.gstatic.com/mapfiles/place_api/icons/v2/restaurant_pinlet","name":"Smoky Bar","opening_hours":{"open_now":false},"photos":[{"height":5304,"html_attributions":["<a href=\"https://maps.google.com/maps/contrib/111289966016621295436\">A Google User</a>"],"photo_reference":"AeJbb3cKPihmeXm0VNnS03s2Jo0E0amyfQJKFtV-gdTutSUT5v-a-L-K80TvtNu0stUichnJSzQDvj4xje8-4f1DDkoUIxh-IRSOHApstQgJ2WP76anz6z0m6FKdHjww_vhQYzNjGBWfijNODMnS9XUEO2S-z214M-kBN4ib99bpgH8fu-Vv","width":7952}],"place_id":"ChIJU7-_6Bq-rhIRn70L65JV4-I","plus_code":{"compound_code":"JC5W+2M Toulouse","global_code":"8FM3JC5W+2M"},"price_level":2,"rating":4.1,"reference":"ChIJU7-_6Bq-rhIRn70L65JV4-I","types":["restaurant","food","point_of_interest","establishment"],"user_ratings_total":1107},{"business_status":"OPERATIONAL","formatted_address":"14 Pl. Saint-Georges, 31000 Toulouse","geometry":{"location":{"lat":43.6023012,"lng":1.4472171},"viewport":{"northeast":{"lat":43.60364512989273,"lng":1.448624029892722},"southwest":{"lat":43.60094547010728,"lng":1.445924370107278}}},"icon":"https://maps.gstatic.com/mapfiles/place_api/icons/v1/png_71/restaurant-71.png","icon_background_color":"#FF9E67","icon_mask_base_uri":"https://maps.gstatic.com/mapfiles/place_api/icons/v2/restaurant_pinlet","name":"Bistro Régent","opening_hours":{"open_now":false},"photos":[{"height":1744,"html_attributions":["<a href=\"https://maps.google.com/maps/contrib/116168568591864860454\">Yop Lahop</a>"],"photo_reference":"AeJbb3eeOMBurMiKa9KC7l25lMFejPxxkqXWnuZBgibP3Fvc9x2UuB4JnqZ_cShxpyRfs4VTXY6MZIBfT_8SZVRsODNVTDzG--CeEhcbwdi5Hnt87QsKEkMbLl7iRczL-Vw7pA5g2f1oZKghnWvMXnQTpLAZaPlk6H7IHOOonMLU2RqXhQjg","width":3648}],"place_id":"ChIJgyjTYJy8rhIRCeNkZ3NsD3w","plus_code":{"compound_code":"JC2W+WV Toulouse","global_code":"8FM3JC2W+WV"},"price_level":2,"rating":4.1,"reference":"ChIJgyjTYJy8rhIRCeNkZ3NsD3w","types":["restaurant","food","point_of_interest","establishment"],"user_ratings_total":798},{"business_status":"OPERATIONAL","formatted_address":"12 Bd Lascrosses, 31000 Toulouse","geometry":{"location":{"lat":43.6113541,"lng":1.4371561},"viewport":{"northeast":{"lat":43.61261962989273,"lng":1.438556079892722},"southwest":{"lat":43.60991997010728,"lng":1.435856420107278}}},"icon":"https://maps.gstatic.com/mapfiles/place_api/icons/v1/png_71/restaurant-71.png","icon_background_color":"#FF9E67","icon_mask_base_uri":"https://maps.gstatic.com/mapfiles/place_api/icons/v2/restaurant_pinlet","name":"Mon Canard Compans","opening_hours":{"open_now":false},"photos":[{"height":1960,"html_attributions":["<a href=\"https://maps.google.com/maps/contrib/101292464574636800624\">Mathieu Populus</a>"],"photo_reference":"AeJbb3dgR0_fhqx9btOH-iBoiRwwKxlgkM8gdZ4buXP_wztgKaZKdoZw0K1kmFA5E99yJa1jV98QRFtyKxMrgAVpNFUg0XVVIGaUHMb0Yrf_SaBVY6MB9BuLeVutdtzYIg_rYgSd-qC4ui_hFBpE77JihzAItvm-7cgY-CV7TwOCkALcof3f","width":4032}],"place_id":"ChIJu2BItl27rhIRMV9ON_KjsvU","plus_code":{"compound_code":"JC6P+GV Toulouse","global_code":"8FM3JC6P+GV"},"price_level":2,"rating":4.1,"reference":"ChIJu2BItl27rhIRMV9ON_KjsvU","types":["restaurant","food","point_of_interest","establishment"],"user_ratings_total":616},{"business_status":"OPERATIONAL","formatted_address":"43 Pl. Nicolas Bachelier, 31000 Toulouse","geometry":{"location":{"lat":43.6068683,"lng":1.4522476},"viewport":{"northeast":{"lat":43.60823127989272,"lng":1.453584179892722},"southwest":{"lat":43.60553162010728,"lng":1.450884520107278}}},"icon":"https://maps.gstatic.com/mapfiles/place_api/icons/v1/png_71/restaurant-71.png","icon_background_color":"#FF9E67","icon_mask_base_uri":"https://maps.gstatic.com/mapfiles/place_api/icons/v2/restaurant_pinlet","name":"Le Comptoir Gourmand","opening_hours":{"open_now":false},"photos":[{"height":3264,"html_attributions":["<a href=\"https://maps.google.com/maps/contrib/104197901264839434721\">Sabrina Mandé</a>"],"photo_reference":"AeJbb3dmKduKtDHXQwclpBlJdgWuj1VuxonojcWfN7l_PDBZxkTfbCTcI1dvg0YFNYC6L0tJmrbdPlXaEQqWWCB6PbmOjSAXchZY1bkdTNMsKN0O6v9lwvHABa-UYLi7YSu-zIEarYhnDdjrp-wbtqSqhFMqOUMiYAjEnjUaYGVY4E2SuMAY","width":1836}],"place_id":"ChIJJU1KNZi8rhIRyuuCfq3dJZs","plus_code":{"compound_code":"JF42+QV Toulouse","global_code":"8FM3JF42+QV"},"price_level":1,"rating":4.1,"reference":"ChIJJU1KNZi8rhIRyuuCfq3dJZs","types":["restaurant","food","point_of_interest","establishment"],"user_ratings_total":537},{"business_status":"OPERATIONAL","formatted_address":"271 Av. de Grande Bretagne, 31300 Toulouse","geometry":{"location":{"lat":43.6053562,"lng":1.4002454},"viewport":{"northeast":{"lat":43.60684617989272,"lng":1.401816129892722},"southwest":{"lat":43.60414652010728,"lng":1.399116470107278}}},"icon":"https://maps.gstatic.com/mapfiles/place_api/icons/v1/png_71/restaurant-71.png","icon_background_color":"#FF9E67","icon_mask_base_uri":"https://maps.gstatic.com/mapfiles/place_api/icons/v2/restaurant_pinlet","name":"Restaurant Le Palladia","opening_hours":{"open_now":false},"photos":[{"height":4032,"html_attributions":["<a href=\"https://maps.google.com/maps/contrib/101486683800303546370\">A BB</a>"],"photo_reference":"AeJbb3f9UWdcle8z-LQJ9S8r44jwxU93Ge9FGRsCGd5cHAcDRiUGWDndgNen4RBvWMM7ZRU8nZbQ_gpq2TnoHCKn4Tttw_GrniqdwBxL0EqdnKBZXE75eA7Vq6IWwFoiMIuKvMeynzuxUCCYz_XJOPRgnKhzf-IxtDCsc9yIikuqTZqm-mtV","width":2268}],"place_id":"ChIJKeamU-G6rhIRsU0m_SGL9Ik","plus_code":{"compound_code":"JC42+43 Toulouse","global_code":"8FM3JC42+43"},"rating":4.1,"reference":"ChIJKeamU-G6rhIRsU0m_SGL9Ik","types":["restaurant","food","point_of_interest","establishment"],"user_ratings_total":92},{"business_status":"OPERATIONAL","formatted_address":"16 Pl. Victor Hugo, 31000 Toulouse","geometry":{"location":{"lat":43.6063852,"lng":1.4470477},"viewport":{"northeast":{"lat":43.60772807989272,"lng":1.448359779892722},"southwest":{"lat":43.60502842010728,"lng":1.445660120107278}}},"icon":"https://maps.gstatic.com/mapfiles/place_api/icons/v1/png_71/restaurant-71.png","icon_background_color":"#FF9E67","icon_mask_base_uri":"https://maps.gstatic.com/mapfiles/place_api/icons/v2/restaurant_pinlet","name":"Restaurant J'Go Toulouse","opening_hours":{"open_now":false},"photos":[{"height":649,"html_attributions":["<a href=\"https://maps.google.com/maps/contrib/112353812264992500059\">J&#39;go</a>"],"photo_reference":"AeJbb3cMMlVCN2I3fX8tz78eNr65Ze1Q1dR0i-uHfzNnwjC7Ij66rqb0kPQ4n_d8NrduCBlIUFRJKOyKapavZi0ORKa9ZM2ZCX_NP1wwNpGzaJ8gx4KLmt9M7dy5qhEMlhqXUVvPEeaZBsq-G3qB6QZ_C3MI0A3BHQ52GMz8MR_t1Jr7_RSu","width":973}],"place_id":"ChIJTw8I5568rhIRXpk9NQC9xrQ","plus_code":{"compound_code":"JC4W+HR Toulouse","global_code":"8FM3JC4W+HR"},"price_level":2,"rating":4,"reference":"ChIJTw8I5568rhIRXpk9NQC9xrQ","types":["restaurant","food","point_of_interest","establishment"],"user_ratings_total":2100},{"business_status":"OPERATIONAL","formatted_address":"262 Av. de Lardenne, 31100 Toulouse","geometry":{"location":{"lat":43.5903779,"lng":1.379082},"viewport":{"northeast":{"lat":43.59168397989272,"lng":1.380448779892722},"southwest":{"lat":43.58898432010728,"lng":1.377749120107278}}},"icon":"https://maps.gstatic.com/mapfiles/place_api/icons/v1/png_71/restaurant-71.png","icon_background_color":"#FF9E67","icon_mask_base_uri":"https://maps.gstatic.com/mapfiles/place_api/icons/v2/restaurant_pinlet","name":"La Pergola","opening_hours":{"open_now":false},"photos":[{"height":575,"html_attributions":["<a href=\"https://maps.google.com/maps/contrib/107928788444793328604\">La Pergola</a>"],"photo_reference":"AeJbb3cB1c8yyy8sv1xfd7Qq6Ejh-Gbob6JA1QpH_59303R155af5G9pOsRVhxbVFfnxxUeFD8DZ1Sqvo28wVR2yjhd2eASkLm5N4YxZ8SxHG2FeM7KgCVXdZ4p3EquQe1n-tfw12KsnD_2O8QjTPEWcKQJQPb0G378uMcNIFbgn8IisIjI7","width":862}],"place_id":"ChIJffW_cmK6rhIRz1xmHpHzpsI","plus_code":{"compound_code":"H9RH+5J Toulouse","global_code":"8FM3H9RH+5J"},"price_level":2,"rating":4,"reference":"ChIJffW_cmK6rhIRz1xmHpHzpsI","types":["restaurant","food","point_of_interest","establishment"],"user_ratings_total":1235},{"business_status":"OPERATIONAL","formatted_address":"123 Av. des États Unis, 31200 Toulouse","geometry":{"location":{"lat":43.6343211,"lng":1.4309659},"viewport":{"northeast":{"lat":43.63568317989272,"lng":1.432386979892722},"southwest":{"lat":43.63298352010727,"lng":1.429687320107278}}},"icon":"https://maps.gstatic.com/mapfiles/place_api/icons/v1/png_71/restaurant-71.png","icon_background_color":"#FF9E67","icon_mask_base_uri":"https://maps.gstatic.com/mapfiles/place_api/icons/v2/restaurant_pinlet","name":"Mood Restaurant","opening_hours":{"open_now":false},"photos":[{"height":3024,"html_attributions":["<a href=\"https://maps.google.com/maps/contrib/114684858274349639015\">Jonathan Roublic</a>"],"photo_reference":"AeJbb3eZENvB9D6a0ijqn4y9pioNgV1sbB48UVWXYD--1RmR2JZ0WnlUnGjPRi1fNxvsMoeAWsg1ubqr1lsVEYkj3p6ySmS5mpLVPUW7qOeSVCPMl-KZOISHVd-5rWYWDoENapJxhC_1XTiPVWuvaSYF2jsTLMxNEIYFnafYsa1XFG8TOmn2","width":4032}],"place_id":"ChIJWfRyda6lrhIRaSs3yQLcZcI","plus_code":{"compound_code":"JCMJ+P9 Toulouse","global_code":"8FM3JCMJ+P9"},"rating":4,"reference":"ChIJWfRyda6lrhIRaSs3yQLcZcI","types":["bar","restaurant","food","point_of_interest","establishment"],"user_ratings_total":427},{"business_status":"OPERATIONAL","formatted_address":"15 Av. de Muret, 31300 Toulouse","geometry":{"location":{"lat":43.580327,"lng":1.424086},"viewport":{"northeast":{"lat":43.58163562989272,"lng":1.425530479892722},"southwest":{"lat":43.57893597010727,"lng":1.422830820107277}}},"icon":"https://maps.gstatic.com/mapfiles/place_api/icons/v1/png_71/restaurant-71.png","icon_background_color":"#FF9E67","icon_mask_base_uri":"https://maps.gstatic.com/mapfiles/place_api/icons/v2/restaurant_pinlet","name":"L’inital","place_id":"ChIJhX0O34O7rhIRinwn-2xFiCw","plus_code":{"compound_code":"HCJF+4J Toulouse","global_code":"8FM3HCJF+4J"},"rating":4,"reference":"ChIJhX0O34O7rhIRinwn-2xFiCw","types":["restaurant","food","point_of_interest","establishment"],"user_ratings_total":2},{"business_status":"OPERATIONAL","formatted_address":"15 Pl. Saint-Georges, 31000 Toulouse","geometry":{"location":{"lat":43.602402,"lng":1.447394},"viewport":{"northeast":{"lat":43.60371592989272,"lng":1.448721929892722},"southwest":{"lat":43.60101627010727,"lng":1.446022270107278}}},"icon":"https://maps.gstatic.com/mapfiles/place_api/icons/v1/png_71/restaurant-71.png","icon_background_color":"#FF9E67","icon_mask_base_uri":"https://maps.gstatic.com/mapfiles/place_api/icons/v2/restaurant_pinlet","name":"Le Wallace","opening_hours":{"open_now":true},"photos":[{"height":1152,"html_attributions":["<a href=\"https://maps.google.com/maps/contrib/102351912609855673480\">A Google User</a>"],"photo_reference":"AeJbb3dv-BHk8jsMbKXDNu0HxYmdyL3LnL4NhCOR6V9eHAdsUowhj0dx0M0US70yL6xg2Q_0QtqnT28OyPXUqgnfi7RYBTlVK4V1fS7UzTg9HHN65fqW-pCclbFtNEffxdXaAu7oEc5RIyOG0hM-8ImLh6AS0aGuTTkYmUYpDjNfbQXw8MR9","width":2048}],"place_id":"ChIJ0yWWiZy8rhIROryS3lY6nt8","plus_code":{"compound_code":"JC2W+XX Toulouse","global_code":"8FM3JC2W+XX"},"price_level":2,"rating":3.9,"reference":"ChIJ0yWWiZy8rhIROryS3lY6nt8","types":["bar","restaurant","food","point_of_interest","establishment"],"user_ratings_total":2394},{"business_status":"OPERATIONAL","formatted_address":"15 bis Pl. du Président Thomas Wilson, 31000 Toulouse","geometry":{"location":{"lat":43.6053408,"lng":1.4472321},"viewport":{"northeast":{"lat":43.60662462989272,"lng":1.448561079892722},"southwest":{"lat":43.60392497010728,"lng":1.445861420107277}}},"icon":"https://maps.gstatic.com/mapfiles/place_api/icons/v1/png_71/restaurant-71.png","icon_background_color":"#FF9E67","icon_mask_base_uri":"https://maps.gstatic.com/mapfiles/place_api/icons/v2/restaurant_pinlet","name":"Restaurant Le Bon Vivre","opening_hours":{"open_now":false},"photos":[{"height":3024,"html_attributions":["<a href=\"https://maps.google.com/maps/contrib/103133614183171433366\">Charbel Al Zreibi</a>"],"photo_reference":"AeJbb3fhlrD_NmoWfCzeelkdVDV9Ldc7mWADhSTIzlzunGFGtzYNNrVWcfAr_0AbSwpfc6uGBzbMToDqbRYUKPaIJqE5caQHhgRkp5L6Js33DevHbdsSzPDiftVzC-Fddvum2ojPLb1_asfGEqRq6RWKzSe4wpvpKGjunjSzc8peq1BEsVLy","width":4032}],"place_id":"ChIJZ_tLvJ68rhIRwtLCeFWXgp4","plus_code":{"compound_code":"JC4W+4V Toulouse","global_code":"8FM3JC4W+4V"},"price_level":2,"rating":3.9,"reference":"ChIJZ_tLvJ68rhIRwtLCeFWXgp4","types":["restaurant","point_of_interest","food","establishment"],"user_ratings_total":1191}]