[{"business_status":"OPERATIONAL","formatted_address":"Grünberger Str. 33, 10245 Berlin, Germany","geometry":{"location":{"lat":52.51243760000001,"lng":13.4538023},"viewport":{"northeast":{"lat":52.51370427989271,"lng":13.45510282989272},"southwest":{"lat":52.51100462010727,"lng":13.45240317010728}}},"icon":"https://maps.gstatic.com/mapfiles/place_api/icons/v1/png_71/restaurant-71.png","icon_background_color":"#FF9E67","icon_mask_base_uri":"https://maps.gstatic.com/mapfiles/place_api/icons/v2/restaurant_pinlet","name":"Taverna Olive - Ihr Grieche in Friedrichshain","opening_hours":{"open_now":true},"photos":[{"height":1512,"html_attributions":["<a href=\"https://maps.google.com/maps/contrib/104175583966349905538\">A Google User</a>"],"photo_reference":"AeJbb3fql0d1QhsbT87GzCcQD500dHrpj-0A9WMfpJT5pqLtITum111em6-oWIOzLexxpoXZdIhhD1sRUDEyt4E30BPoAdRbm5HRTUO4bq8SHV79BcgbjSTEG3km5NaMSm1g7Cxm3x6p33stQ9or8cipe5YKFk_SzKOy0xqMXLvwzzcrUCLi","width":2016}],"place_id":"ChIJpUrCVVdPqEcRGL2FRfwujtY","plus_code":{"compound_code":"GF63+XG Berlin","global_code":"9F4MGF63+XG"},"rating":4.8,"reference":"ChIJpUrCVVdPqEcRGL2FRfwujtY","types":["restaurant","food","point_of_interest","establishment"],"user_ratings_total":68},{"business_status":"OPERATIONAL","formatted_address":"Friesenstraße 12, 10965 Berlin, Germany","geometry":{"location":{"lat":52.4867344,"lng":13.394103},"viewport":{"northeast":{"lat":52.48801772989272,"lng":13.39560422989272},"southwest":{"lat":52.48531807010727,"lng":13.39290457010728}}},"icon":"https://maps.gstatic.com/mapfiles/place_api/icons/v1/png_71/restaurant-71.png","icon_background_color":"#FF9E67","icon_mask_base_uri":"https://maps.gstatic.com/mapfiles/place_api/icons/v2/restaurant_pinlet","name":"Restaurant Z","opening_hours":{"open_now":false},"photos":[{"height":2160,"html_attributions":["<a href=\"https://maps.google.com/maps/contrib/110319660585324539294\">Robert Sprotte</a>"],"photo_reference":"AeJbb3dkZdVJhrlluVEmzSH1Wn_kR9M0hoyYtgcWuL7RUkM-wuF4FKFZzWX-KX66zG9DXKmRC6ikC209V22RjqL1SIVCDdlIQiQFW4-QQMWJCJlPc5O42y6vtk2PLCBV8Do9Pd011G_1mgg6CtZBpFUa6v56S--EFZynqrvMKW58UGZdZTzX","width":3840}],"place_id":"ChIJ-5l_A9lPqEcR0IKJve2NT-c","plus_code":{"compound_code":"F9PV+MJ Berlin","global_code":"9F4MF9PV+MJ"},"price_level":2,"rating":4.7,"reference":"ChIJ-5l_A9lPqEcR0IKJve2NT-c","types":["restaurant","food","point_of_interest","establishment"],"user_ratings_total":671},{"business_status":"OPERATIONAL","formatted_address":"Kohlfurter Str. 37, 10999 Berlin, Germany","geometry":{"location":{"lat":52.4970222,"lng":13.4176131},"viewport":{"northeast":{"lat":52.49836372989272,"lng":13.41895592989272},"southwest":{"lat":52.49566407010727,"lng":13.41625627010728}}},"icon":"https://maps.gstatic.com/mapfiles/place_api/icons/v1/png_71/restaurant-71.png","icon_background_color":"#FF9E67","icon_mask_base_uri":"https://maps.gstatic.com/mapfiles/place_api/icons/v2/restaurant_pinlet","name":"Kreuzberger Weltlaterne","opening_hours":{"open_now":false},"photos":[{"height":3456,"html_attributions":["<a href=\"https://maps.google.com/maps/contrib/113787106833290283301\">A Google User</a>"],"photo_reference":"AeJbb3cofdGcfdIYgL1IgDQeunx1qZySp4G0NoveuL4NeCA-J3GYqJ1eDHMfG_W7i3rQS0wrsu47FbfP1xWvmLzEYiYQNr8dqa2WKltDi-KfmtqpvksnAzzsbveFzrjRd0zkVMNgZQZ8cxlheXMvoTdUrs4ta2aMm2XzWqESycoKvuBil6_b","width":4608}],"place_id":"ChIJOUzQo8xPqEcRC1UA5yDYI0k","plus_code":{"compound_code":"FCW9+R3 Berlin","global_code":"9F4MFCW9+R3"},"price_level":2,"rating":4.7,"reference":"ChIJOUzQo8xPqEcRC1UA5yDYI0k","types":["restaurant","food","point_of_interest","establishment"],"user_ratings_total":602},{"business_status":"OPERATIONAL","formatted_address":"Mittenwalder Str. 13, 10961 Berlin, Germany","geometry":{"location":{"lat":52.492688,"lng":13.3964734},"viewport":{"northeast":{"lat":52.49400652989272,"lng":13.39799972989272},"southwest":{"lat":52.49130687010727,"lng":13.39530007010728}}},"icon":"https://maps.gstatic.com/mapfiles/place_api/icons/v1/png_71/restaurant-71.png","icon_background_color":"#FF9E67","icon_mask_base_uri":"https://maps.gstatic.com/mapfiles/place_api/icons/v2/restaurant_pinlet","name":"Nonne & Zwerg","opening_hours":{"open_now":true},"photos":[{"height":4032,"html_attributions":["<a href=\"https://maps.google.com/maps/contrib/101196252955694869926\">Florine Cerclé</a>"],"photo_reference":"AeJbb3ekKANzwycigTPEURVwDRaUMPG58DGGZzZgwLrb02LcNDjB7Debxhu1bx6BtCqZYRHGj3OR3ZDClOpAMwcayAB7Au3Ej4lWP_A3-zQGSNv1_nj0g2nnBMDPEaoN42jRlUqfBmRmLOcLedzl-9nICTrz7EaM8oerKyYjZ6ObhBmqEhEY","width":3024}],"place_id":"ChIJww2VVdZPqEcRRv6Nek7lud0","plus_code":{"compound_code":"F9VW+3H Berlin","global_code":"9F4MF9VW+3H"},"price_level":2,"rating":4.7,"reference":"ChIJww2VVdZPqEcRRv6Nek7lud0","types":["restaurant","food","point_of_interest","establishment"],"user_ratings_total":371},{"business_status":"OPERATIONAL","formatted_address":"Ringstraße 96, 12203 Berlin, Germany","geometry":{"location":{"lat":52.43785270000001,"lng":13.3062982},"viewport":{"northeast":{"lat":52.43913507989272,"lng":13.30769817989272},"southwest":{"lat":52.43643542010728,"lng":13.30499852010728}}},"icon":"https://maps.gstatic.com/mapfiles/place_api/icons/v1/png_71/restaurant-71.png","icon_background_color":"#FF9E67","icon_mask_base_uri":"https://maps.gstatic.com/mapfiles/place_api/icons/v2/restaurant_pinlet","name":"Restaurant Rhodos","opening_hours":{"open_now":true},"photos":[{"height":3024,"html_attributions":["<a href=\"https://maps.google.com/maps/contrib/110703014365976624584\">Sandra Brunn</a>"],"photo_reference":"AeJbb3eGuixt9GY90eOulVGEilCxFvFg2oA9-DP-v5UdPFzXLJYX6Z-lLM-JeaPB9kmubuhMI2aJyIefAuNjbqKKqZkOQLf9PjJpzREY4cGiCstfvdWpdjpbpBFYukFfS1L5kFwHV8tcaAT05lS4fiTJtOSYcr7b4j5VtEk8l5r5IAbpjaAn","width":4032}],"place_id":"ChIJBSD7DhhbqEcR-EqA0xAAcyI","plus_code":{"compound_code":"C8Q4+4G Berlin","global_code":"9F4MC8Q4+4G"},"rating":4.7,"reference":"ChIJBSD7DhhbqEcR-EqA0xAAcyI","types":["restaurant","food","point_of_interest","establishment"],"user_ratings_total":237},{"business_status":"OPERATIONAL","formatted_address":"Veteranenstraße 25, 10119 Berlin, Germany","geometry":{"location":{"lat":52.5330185,"lng":13.4000754},"viewport":{"northeast":{"lat":52.53431257989272,"lng":13.40148942989272},"southwest":{"lat":52.53161292010728,"lng":13.39878977010728}}},"icon":"https://maps.gstatic.com/mapfiles/place_api/icons/v1/png_71/restaurant-71.png","icon_background_color":"#FF9E67","icon_mask_base_uri":"https://maps.gstatic.com/mapfiles/place_api/icons/v2/restaurant_pinlet","name":"Rises Delicacies","opening_hours":{"open_now":true},"photos":[{"height":3024,"html_attributions":["<a href=\"https://maps.google.com/maps/contrib/118285424074073118005\">A Google User</a>"],"photo_reference":"AeJbb3eka8K_Ow2PmDruwV-e_YPo6TmjtC-_qMDgbuiD77joVHHMB88Xlin1sNNxGfqUQYVSYQ7NZlQqUqHGfcC65JvbqnZQZVTl_wQDoaUE7aNgz52aclJwEG5WcfgT-CINLspIOoQXXxcEj5b3NMX4rqZ0P1e28o22q2axAJGbjUA7bHrY","width":3024}],"place_id":"ChIJvd2e0vpRqEcRvV7M6U7Mve4","plus_code":{"compound_code":"GCM2+62 Berlin","global_code":"9F4MGCM2+62"},"price_level":2,"rating":4.7,"reference":"ChIJvd2e0vpRqEcRvV7M6U7Mve4","types":["grocery_or_supermarket","store","restaurant","food","point_of_interest","establishment"],"user_ratings_total":189},{"business_status":"OPERATIONAL","formatted_address":"Oranienstraße 179, 10999 Berlin, Germany","geometry":{"location":{"lat":52.50102769999999,"lng":13.419882},"viewport":{"northeast":{"lat":52.50239162989272,"lng":13.42125592989272},"southwest":{"lat":52.49969197010728,"lng":13.41855627010728}}},"icon":"https://maps.gstatic.com/mapfiles/place_api/icons/v1/png_71/bar-71.png","icon_background_color":"#FF9E67","icon_mask_base_uri":"https://maps.gstatic.com/mapfiles/place_api/icons/v2/bar_pinlet","name":"Meze Haus Mittelmeerfeinkost","opening_hours":{"open_now":true},"photos":[{"height":3792,"html_attributions":["<a href=\"https://maps.google.com/maps/contrib/103723053423016813730\">Tomas Gering</a>"],"photo_reference":"AeJbb3eKMRS_dsaC-HEYYIHhIrEuaeNKZCg9oPLgMQCjf0-smT58HbbFPv0LhPgd8ueiXkp8Jyln-zwpW0IDRGeqc6hllswbnTq5-dGiWfuFXc89cGeM18yh8KHClD24_w2jkHlm9qFTSUdwspNNpyjD-zepkeFa836N06g-QE-j9NnSHcnB","width":3792}],"place_id":"ChIJxzXQhjNOqEcRvgZV351ap6U","plus_code":{"compound_code":"GC29+9W Berlin","global_code":"9F4MGC29+9W"},"rating":4.7,"reference":"ChIJxzXQhjNOqEcRvgZV351ap6U","types":["bar","restaurant","food","point_of_interest","establishment"],"user_ratings_total":163},{"business_status":"OPERATIONAL","formatted_address":"Helene-Weigel-Platz 7, 12681 Berlin, Germany","geometry":{"location":{"lat":52.5280516,"lng":13.5396873},"viewport":{"northeast":{"lat":52.52945357989272,"lng":13.54095707989272},"southwest":{"lat":52.52675392010728,"lng":13.53825742010728}}},"icon":"https://maps.gstatic.com/mapfiles/place_api/icons/v1/png_71/restaurant-71.png","icon_background_color":"#FF9E67","icon_mask_base_uri":"https://maps.gstatic.com/mapfiles/place_api/icons/v2/restaurant_pinlet","name":"Restaurant Akropolis Berlin","opening_hours":{"open_now":true},"photos":[{"height":3024,"html_attributions":["<a href=\"https://maps.google.com/maps/contrib/114977502264439149397\">Anja Rubbert</a>"],"photo_reference":"AeJbb3cEGmzkvdEI1o1a0x-0Fpuk21K5UwD86P93ezR3yhfy-38fZj0QmLkJNa2cgR2gizlRE3y0Xn8yH9ZAwgPgrIEanTtsS5ZhXpK67B4JqxUBhBHjLM8GqDuGk3sNoFZQPBPC7mXyDqsDmbldzeWgUcrLva_zidPx1jDxa1torybpaakq","width":4032}],"place_id":"ChIJaW9D0P9LqEcRP2y382jszxk","plus_code":{"compound_code":"GGHQ+6V Berlin","global_code":"9F4MGGHQ+6V"},"price_level":2,"rating":4.6,"reference":"ChIJaW9D0P9LqEcRP2y382jszxk","types":["meal_takeaway","bar","restaurant","food","point_of_interest","establishment"],"user_ratings_total":1528},{"business_status":"OPERATIONAL","formatted_address":"Schnellerstraße 97, 12439 Berlin, Germany","geometry":{"location":{"lat":52.4533386,"lng":13.5242242},"viewport":{"northeast":{"lat":52.45456592989272,"lng":13.52550342989272},"southwest":{"lat":52.45186627010727,"lng":13.52280377010728}}},"icon":"https://maps.gstatic.com/mapfiles/place_api/icons/v1/png_71/restaurant-71.png","icon_background_color":"#FF9E67","icon_mask_base_uri":"https://maps.gstatic.com/mapfiles/place_api/icons/v2/restaurant_pinlet","name":"Artemis","opening_hours":{"open_now":true},"photos":[{"height":1646,"html_attributions":["<a href=\"https://maps.google.com/maps/contrib/112867932242112589085\">A Google User</a>"],"photo_reference":"AeJbb3cnrCA9EEjz8YZ9Odj9gzN0jJJieMFqrcA_1cDOrgVUPSZPVbGfKBt-FGkubcfaV7HqYv58t8G0Cpb_qMCTO4FRON28_-c730Lm3ecavvTlPzHIZm0dCLUnsQ_CLRYzvTKpnly0DRBg4UzzgcuoP4hk1stjscJoxWh7fp5EDQgb_Q4q","width":2985}],"place_id":"ChIJjSwrK71IqEcR7c4Gxo_zGMI","plus_code":{"compound_code":"FG3F+8M Berlin","global_code":"9F4MFG3F+8M"},"price_level":2,"rating":4.6,"reference":"ChIJjSwrK71IqEcR7c4Gxo_zGMI","types":["restaurant","food","point_of_interest","establishment"],"user_ratings_total":1427},{"business_status":"OPERATIONAL","formatted_address":"Utrechter Str. 22, 13347 Berlin, Germany","geometry":{"location":{"lat":52.5498822,"lng":13.3579286},"viewport":{"northeast":{"lat":52.55119842989272,"lng":13.35942282989272},"southwest":{"lat":52.54849877010727,"lng":13.35672317010728}}},"icon":"https://maps.gstatic.com/mapfiles/place_api/icons/v1/png_71/restaurant-71.png","icon_background_color":"#FF9E67","icon_mask_base_uri":"https://maps.gstatic.com/mapfiles/place_api/icons/v2/restaurant_pinlet","name":"Taverna Hellas Wedding","opening_hours":{"open_now":true},"photos":[{"height":1836,"html_attributions":["<a href=\"https://maps.google.com/maps/contrib/106319304191736867211\">A Google User</a>"],"photo_reference":"AeJbb3f9K7OwuG5jIt9Dab5vcqwMmC7qQo0MJXwRBpCIdg9-5eMKDmnYPNDX_myC1Xa-HXewK-dmwIo8jE-B94MaZZXmwmA6aC4Yg_AJtHSYllPqrYJ75F7mNZtZBn_YfO71IcGdnxWPv0GojPZg5oQHMDJSxzuYTlXC3_EQ6plqcD8ZUI2U","width":3264}],"place_id":"ChIJ2fbxONVTqEcR8fx_6csfHfE","plus_code":{"compound_code":"G9X5+X5 Berlin","global_code":"9F4MG9X5+X5"},"price_level":2,"rating":4.6,"reference":"ChIJ2fbxONVTqEcR8fx_6csfHfE","types":["restaurant","food","point_of_interest","establishment"],"user_ratings_total":887},{"business_status":"OPERATIONAL","formatted_address":"Pistoriusstraße 31, 13086 Berlin, Germany","geometry":{"location":{"lat":52.5532014,"lng":13.4485489},"viewport":{"northeast":{"lat":52.55451407989271,"lng":13.44989672989272},"southwest":{"lat":52.55181442010727,"lng":13.44719707010728}}},"icon":"https://maps.gstatic.com/mapfiles/place_api/icons/v1/png_71/restaurant-71.png","icon_background_color":"#FF9E67","icon_mask_base_uri":"https://maps.gstatic.com/mapfiles/place_api/icons/v2/restaurant_pinlet","name":"PLATON Restaurant","opening_hours":{"open_now":true},"photos":[{"height":3456,"html_attributions":["<a href=\"https://maps.google.com/maps/contrib/105056371089751214839\">Eduard Stamm</a>"],"photo_reference":"AeJbb3fK9siJNq5COTexmChUh3DcisMnQZ0BrpVscFHHmhlWsMpKF0zbS_8aOaYLCxg4R5zMCP69OdMI1rdFNBH4lpZCraEgbRCf93bZToOakJHdXGd2PQUpyq9YPIsvEH26_mysws8yoziSFZXBluBYd6wpZPTbOU_DP3rafeGLPJTnHokQ","width":4608}],"place_id":"ChIJUQzkbOlNqEcR5iZOnKN1yN0","plus_code":{"compound_code":"HC3X+79 Berlin","global_code":"9F4MHC3X+79"},"price_level":2,"rating":4.6,"reference":"ChIJUQzkbOlNqEcR5iZOnKN1yN0","types":["restaurant","food","point_of_interest","establishment"],"user_ratings_total":728},{"business_status":"OPERATIONAL","formatted_address":"Südwestkorso 15, 12161 Berlin, Germany","geometry":{"location":{"lat":52.4732835,"lng":13.3213592},"viewport":{"northeast":{"lat":52.47459432989272,"lng":13.32271417989272},"southwest":{"lat":52.47189467010728,"lng":13.32001452010728}}},"icon":"https://maps.gstatic.com/mapfiles/place_api/icons/v1/png_71/restaurant-71.png","icon_background_color":"#FF9E67","icon_mask_base_uri":"https://maps.gstatic.com/mapfiles/place_api/icons/v2/restaurant_pinlet","name":"Achilles' Taverna","opening_hours":{"open_now":true},"photos":[{"height":1836,"html_attributions":["<a href=\"https://maps.google.com/maps/contrib/100981599962074754191\">Uwe Doerwald</a>"],"photo_reference":"AeJbb3fq5oBQCWwLYNwobmU5OJTRih0g19m8MVPdMySRiymY19gvN5Oq9I1nTp2g4c_0WisOHgbNrQwT1sFR_9KTauzl1ShF1GVqzY7pvCjztmns1i35f4JXSl8YkxUukLpFIPImh8Fn-tI6lohkGEPwVY2bqux9eRj7zcZRefIddaO2C95L","width":3264}],"place_id":"ChIJ89t3h31QqEcRXpGRPUGOmrQ","plus_code":{"compound_code":"F8FC+8F Berlin","global_code":"9F4MF8FC+8F"},"price_level":2,"rating":4.6,"reference":"ChIJ89t3h31QqEcRXpGRPUGOmrQ","types":["restaurant","food","point_of_interest","establishment"],"user_ratings_total":588},{"business_status":"OPERATIONAL","formatted_address":"am S-Bhf Savignyplatz, Else-Ury-Bogen 597, 10623 Berlin, Germany","geometry":{"location":{"lat":52.505084,"lng":13.3206868},"viewport":{"northeast":{"lat":52.50644842989271,"lng":13.32309415},"southwest":{"lat":52.50374877010726,"lng":13.31988435}}},"icon":"https://maps.gstatic.com/mapfiles/place_api/icons/v1/png_71/restaurant-71.png","icon_background_color":"#FF9E67","icon_mask_base_uri":"https://maps.gstatic.com/mapfiles/place_api/icons/v2/restaurant_pinlet","name":"Kouzina Berlin","opening_hours":{"open_now":true},"photos":[{"height":925,"html_attributions":["<a href=\"https://maps.google.com/maps/contrib/100592366109117700860\">A Google User</a>"],"photo_reference":"AeJbb3doGuvYSJqhbP1ykIYvY6EtC1vMr_IpR6maoK52x2j4yWUit9stuHT_WV3AltPDd8e7vCGpzjw2IP6lWh-dnilQj9KHYDexMSD8JsXqGp6KGReN1D6DuOO85VuB_6G6nhc0wYhifNBtuoPYj0alFHnCikEmoY91-8aF2HNnDFO1ruXq","width":1242}],"place_id":"ChIJW8FbSuNQqEcR1MRdRpxnx-8","plus_code":{"compound_code":"G84C+27 Berlin","global_code":"9F4MG84C+27"},"price_level":2,"rating":4.6,"reference":"ChIJW8FbSuNQqEcR1MRdRpxnx-8","types":["restaurant","food","point_of_interest","establishment"],"user_ratings_total":374},{"business_status":"OPERATIONAL","formatted_address":"Köpenicker Str. 181, 12683 Berlin, Germany","geometry":{"location":{"lat":52.4879038,"lng":13.5607553},"viewport":{"northeast":{"lat":52.48924997989272,"lng":13.56196942989272},"southwest":{"lat":52.48655032010728,"lng":13.55926977010728}}},"icon":"https://maps.gstatic.com/mapfiles/place_api/icons/v1/png_71/restaurant-71.png","icon_background_color":"#FF9E67","icon_mask_base_uri":"https://maps.gstatic.com/mapfiles/place_api/icons/v2/restaurant_pinlet","name":"Greek Restaurant ELIA","opening_hours":{"open_now":true},"photos":[{"height":1536,"html_attributions":["<a href=\"https://maps.google.com/maps/contrib/100981287657726883081\">Kerstin Walter</a>"],"photo_reference":"AeJbb3eBAV8ujzFO2BMfY3GqteOR6zdcYwuH0xJgeimpMSVN-02TUq4YXEY4LDSY9BkwtwVot1zUK8YMSrjJTi9Udwh2QzBrinoIhJvLqHXb9JmvAsj9qguJ1c-8cATVQs2VwLycY_o5qfmjjxfT5jCCfhoict6EVcKsahGqXppgYES8Xyuf","width":2048}],"place_id":"ChIJs_pcSBxJqEcReqiam4QTmsU","plus_code":{"compound_code":"FHQ6+58 Berlin","global_code":"9F4MFHQ6+58"},"rating":4.6,"reference":"ChIJs_pcSBxJqEcReqiam4QTmsU","types":["meal_takeaway","restaurant","food","point_of_interest","establishment"],"user_ratings_total":267},{"business_status":"OPERATIONAL","formatted_address":"Otto-Suhr-Allee 104, 10585 Berlin, Germany","geometry":{"location":{"lat":52.5173712,"lng":13.307717},"viewport":{"northeast":{"lat":52.51864717989273,"lng":13.30893542989272},"southwest":{"lat":52.51594752010728,"lng":13.30623577010728}}},"icon":"https://maps.gstatic.com/mapfiles/place_api/icons/v1/png_71/restaurant-71.png","icon_background_color":"#FF9E67","icon_mask_base_uri":"https://maps.gstatic.com/mapfiles/place_api/icons/v2/restaurant_pinlet","name":"Kalimera Griechische tavernaki Berlin","opening_hours":{"open_now":true},"photos":[{"height":1960,"html_attributions":["<a href=\"https://maps.google.com/maps/contrib/102058900269766745364\">A Google User</a>"],"photo_reference":"AeJbb3ce7sMwf8RWopqDJHStiyaeMCnn8YOPmGleC1Zf2DGkBk3Z0mZF1gGdrFrm5Bj40OJ-mehTp_6Nh82s2b4LxUkIi5vzsuYBclRrAKU0MWObpCyMDOAAG7csPKPPoApb_wOGrn2Zcs-gnXXIbNW2Ok8yFPqoUpu0xi-4sreUcapc7JS4","width":4032}],"place_id":"ChIJBU0JySNRqEcRSsN5MVB9NGM","plus_code":{"compound_code":"G885+W3 Berlin","global_code":"9F4MG885+W3"},"price_level":1,"rating":4.6,"reference":"ChIJBU0JySNRqEcRSsN5MVB9NGM","types":["restaurant","food","point_of_interest","establishment"],"user_ratings_total":90},{"business_status":"OPERATIONAL","formatted_address":"Malchower Weg 45, 13053 Berlin, Germany","geometry":{"location":{"lat":52.553804,"lng":13.5029269},"viewport":{"northeast":{"lat":52.55526602989273,"lng":13.50430112989272},"southwest":{"lat":52.55256637010728,"lng":13.50160147010728}}},"icon":"https://maps.gstatic.com/mapfiles/place_api/icons/v1/png_71/restaurant-71.png","icon_background_color":"#FF9E67","icon_mask_base_uri":"https://maps.gstatic.com/mapfiles/place_api/icons/v2/restaurant_pinlet","name":"Restaurant Olympia Berlin","opening_hours":{"open_now":true},"photos":[{"height":6000,"html_attributions":["<a href=\"https://maps.google.com/maps/contrib/114047294402368831467\">A Google User</a>"],"photo_reference":"AeJbb3fesZwYWL2pvq-lsi-6EEkiFBbAPqS36IEk2743yNjdEUR0lB2jI96mSv0i9r_OQYN0gulhbWfW5QYZsMKMfc7zAhz45rskWKUpEkwAwlsLB63dY8Dj7ahL2wvLH2waaPl3RqiYWbUyw6I0A4Wk8JRCy2mT9exBpR6kxk53vlS31HtX","width":8000}],"place_id":"ChIJewOHh0dMqEcR-lxmXVQbvZY","plus_code":{"compound_code":"HG33+G4 Berlin","global_code":"9F4MHG33+G4"},"price_level":2,"rating":4.5,"reference":"ChIJewOHh0dMqEcR-lxmXVQbvZY","types":["bar","restaurant","food","point_of_interest","establishment"],"user_ratings_total":3092},{"business_status":"OPERATIONAL","formatted_address":"Schönhauser Allee 143, 10435 Berlin, Germany","geometry":{"location":{"lat":52.5415419,"lng":13.4117448},"viewport":{"northeast":{"lat":52.54291522989271,"lng":13.41321552989272},"southwest":{"lat":52.54021557010727,"lng":13.41051587010728}}},"icon":"https://maps.gstatic.com/mapfiles/place_api/icons/v1/png_71/restaurant-71.png","icon_background_color":"#FF9E67","icon_mask_base_uri":"https://maps.gstatic.com/mapfiles/place_api/icons/v2/restaurant_pinlet","name":"Asteria","opening_hours":{"open_now":false},"photos":[{"height":12000,"html_attributions":["<a href=\"https://maps.google.com/maps/contrib/117557134234339313377\">A Google User</a>"],"photo_reference":"AeJbb3crxJeRRyS0IY41lQzB-VrZKRsp1HowQcQhKx1IqizLLtoTUJaXJ7rtoJcDxVmd9MWQfZ_3yzYS0JWDVpqTiNJYATMSdpfDpFEI4-u5zCVnuTBFg8fD76T-T-ZbkGVVV4E7DmY4p-PRUGmv_0Sy9JIjZ4899AQzRGc7qF321dNHWfAo","width":9000}],"place_id":"ChIJhWheb_9RqEcReDrBqesXFmk","plus_code":{"compound_code":"GCR6+JM Berlin","global_code":"9F4MGCR6+JM"},"price_level":2,"rating":4.5,"reference":"ChIJhWheb_9RqEcReDrBqesXFmk","types":["restaurant","food","point_of_interest","establishment"],"user_ratings_total":2496},{"business_status":"OPERATIONAL","formatted_address":"Alt-Blankenburg 22, 13129 Berlin, Germany","geometry":{"location":{"lat":52.59269150000001,"lng":13.4548809},"viewport":{"northeast":{"lat":52.59413832989272,"lng":13.45619992989272},"southwest":{"lat":52.59143867010728,"lng":13.45350027010728}}},"icon":"https://maps.gstatic.com/mapfiles/place_api/icons/v1/png_71/restaurant-71.png","icon_background_color":"#FF9E67","icon_mask_base_uri":"https://maps.gstatic.com/mapfiles/place_api/icons/v2/restaurant_pinlet","name":"Restaurant Syrtaki","opening_hours":{"open_now":true},"photos":[{"height":3000,"html_attributions":["<a href=\"https://maps.google.com/maps/contrib/114047294402368831467\">A Google User</a>"],"photo_reference":"AeJbb3ceqLZtyE_5T3zVWFSQbE_pNg5eFW8MiHGhcOOMqk-3UQ1AMmvH9wJ6rrubh0jHg6neBemPGkVGA7ZbGCygVKS1xw8ITBI_-OTN93U4n4XEh-rPoMuAAAwnu899lNnTrCcQn7_KQtLN3BT3OQRQIXt-YFcNoAVOpXQob2ZRZ823y_K5","width":4000}],"place_id":"ChIJ3Z6BJGVNqEcR4Je6sEXzSr8","plus_code":{"compound_code":"HFV3+3X Berlin","global_code":"9F4MHFV3+3X"},"price_level":2,"rating":4.5,"reference":"ChIJ3Z6BJGVNqEcR4Je6sEXzSr8","types":["restaurant","food","point_of_interest","establishment"],"user_ratings_total":1902},{"business_status":"OPERATIONAL","formatted_address":"Radickestraße 57, 12489 Berlin, Germany","geometry":{"location":{"lat":52.4349077,"lng":13.5468017},"viewport":{"northeast":{"lat":52.43628252989272,"lng":13.54812582989272},"southwest":{"lat":52.43358287010727,"lng":13.54542617010728}}},"icon":"https://maps.gstatic.com/mapfiles/place_api/icons/v1/png_71/restaurant-71.png","icon_background_color":"#FF9E67","icon_mask_base_uri":"https://maps.gstatic.com/mapfiles/place_api/icons/v2/restaurant_pinlet","name":"Griechisches Restaurant Athen","opening_hours":{"open_now":true},"photos":[{"height":4032,"html_attributions":["<a href=\"https://maps.google.com/maps/contrib/113398877765866549038\">Ina Jahreis</a>"],"photo_reference":"AeJbb3dNGIQzx387llGZ9Fpf0fhy0sleMWgvu6J7zmXbTosgRl60fp41myo7r3F0t8mZ2LxOIlbK6dag6NMvQeziK1fNEiLjbs_FBTxDdTGf4JQooqofSKb-aCDTFCF_3uGfj3L8402KGo5SmSeA4aavgiNb5JGh57maAKU8jOME8uYSQV04","width":3024}],"place_id":"ChIJEeZMZStGqEcRHzXDUZBYUf8","plus_code":{"compound_code":"CGMW+XQ Berlin","global_code":"9F4MCGMW+XQ"},"price_level":2,"rating":4.5,"reference":"ChIJEeZMZStGqEcRHzXDUZBYUf8","types":["liquor_store","bakery","restaurant","food","point_of_interest","store","establishment"],"user_ratings_total":796},{"business_status":"OPERATIONAL","formatted_address":"Kastanienallee 37-38, 13158 Berlin, Germany","geometry":{"location":{"lat":52.592192,"lng":13.3831379},"viewport":{"northeast":{"lat":52.59342632989272,"lng":13.38452407989272},"southwest":{"lat":52.59072667010727,"lng":13.38182442010728}}},"icon":"https://maps.gstatic.com/mapfiles/place_api/icons/v1/png_71/restaurant-71.png","icon_background_color":"#FF9E67","icon_mask_base_uri":"https://maps.gstatic.com/mapfiles/place_api/icons/v2/restaurant_pinlet","name":"Restaurant Astakos","opening_hours":{"open_now":true},"photos":[{"height":2268,"html_attributions":["<a href=\"https://maps.google.com/maps/contrib/107137073912598440869\">Ferdinand Erben</a>"],"photo_reference":"AeJbb3dSNJ_229lUEa6x8xWNT3g2Uzf8zbdfay_8PNEiWLlCicTBy-ixgZmmbfMLfjiGo0dAeq5ZnnP1RBuyfwC0MXp-jQ7ZGaFCufym9-_KcsB7iCX47YTmzP4Dmvzrqy2pVcRQUsIh6OBxHLGk82z9SENoHIFaWBlBX3z03Cgq249X8r8L","width":4032}],"place_id":"ChIJufRnUv5SqEcREBIbZPjps4E","plus_code":{"compound_code":"H9RM+V7 Berlin","global_code":"9F4MH9RM+V7"},"price_level":2,"rating":4.5,"reference":"ChIJufRnUv5SqEcREBIbZPjps4E","types":["restaurant","food","point_of_interest","establishment"],"user_ratings_total":678},{"business_status":"OPERATIONAL","formatted_address":"Grunewaldstraße 54, 10825 Berlin, Germany","geometry":{"location":{"lat":52.488164,"lng":13.337664},"viewport":{"northeast":{"lat":52.48955902989272,"lng":13.33901882989272},"southwest":{"lat":52.48685937010728,"lng":13.33631917010728}}},"icon":"https://maps.gstatic.com/mapfiles/place_api/icons/v1/png_71/restaurant-71.png","icon_background_color":"#FF9E67","icon_mask_base_uri":"https://maps.gstatic.com/mapfiles/place_api/icons/v2/restaurant_pinlet","name":"Mr. Gyros","opening_hours":{"open_now":true},"photos":[{"height":2268,"html_attributions":["<a href=\"https://maps.google.com/maps/contrib/104232011125882384848\">Whippet Diego</a>"],"photo_reference":"AeJbb3epGW4jepJtIX9XrGVP_2wRYem9VqGb-jzgwcCEL94kfDCbV3CVyUi-NL5sApfEjHMh19s18u2Dj_r1I3-mt-8BmM-WDgyY65yamMHpeaf5f7UmpBFQixUJ0M1B5CAvqTIRNIVZT4rParxg5Q3olc0Gbas1qSdsamZKgyQTUycVCaOc","width":4032}],"place_id":"ChIJ4foAzV1QqEcRIqLQbivvOyo","plus_code":{"compound_code":"F8QQ+73 Berlin","global_code":"9F4MF8QQ+73"},"price_level":1,"rating":4.5,"reference":"ChIJ4foAzV1QqEcRIqLQbivvOyo","types":["restaurant","food","point_of_interest","establishment"],"user_ratings_total":641},{"business_status":"OPERATIONAL","formatted_address":"Grolmanstraße 35, 10623 Berlin, Germany","geometry":{"location":{"lat":52.5034769,"lng":13.3240893},"viewport":{"northeast":{"lat":52.50492307989272,"lng":13.32555107989272},"southwest":{"lat":52.50222342010728,"lng":13.32285142010728}}},"icon":"https://maps.gstatic.com/mapfiles/place_api/icons/v1/png_71/restaurant-71.png","icon_background_color":"#FF9E67","icon_mask_base_uri":"https://maps.gstatic.com/mapfiles/place_api/icons/v2/restaurant_pinlet","name":"Cassambalis","opening_hours":{"open_now":true},"photos":[{"height":2988,"html_attributions":["<a href=\"https://maps.google.com/maps/contrib/116466621269851908855\">marco sapioli</a>"],"photo_reference":"AeJbb3ftEl5chTtmtMM0A_yIIrlHEqMsnlf4BGSM0MAIi1TYNCnV4iZVNeiSPUb1QXmBkY5X9pK64bv8vTeAIk85obQyLzIu5xCXzf-_uebnjpOZGmeqNGSx-TDrFxTwgLMiEBNiJf9sWbNo4vtdkaZysj6zBanBe0FWBGBfxFKz9pdfdTpp","width":5312}],"place_id":"ChIJ_au8f_tQqEcRikAGBGRhutc","plus_code":{"compound_code":"G83F+9J Berlin","global_code":"9F4MG83F+9J"},"rating":4.5,"reference":"ChIJ_au8f_tQqEcRikAGBGRhutc","types":["restaurant","food","point_of_interest","establishment"],"user_ratings_total":504},{"business_status":"OPERATIONAL","formatted_address":"Wilhelmshavener Str. 6, 10551 Berlin, Germany","geometry":{"location":{"lat":52.52850489999999,"lng":13.3415598},"viewport":{"northeast":{"lat":52.52989932989272,"lng":13.34280112989272},"southwest":{"lat":52.52719967010728,"lng":13.34010147010728}}},"icon":"https://maps.gstatic.com/mapfiles/place_api/icons/v1/png_71/restaurant-71.png","icon_background_color":"#FF9E67","icon_mask_base_uri":"https://maps.gstatic.com/mapfiles/place_api/icons/v2/restaurant_pinlet","name":"Taverna Amphipolis","opening_hours":{"open_now":false},"photos":[{"height":1836,"html_attributions":["<a href=\"https://maps.google.com/maps/contrib/117915612510644126700\">Ewald Wetter</a>"],"photo_reference":"AeJbb3cTuPH8502PeokYt_gpxDc3-pRuej4CkyQXaVGhfUISZaCVYey8tt7WbZQjGWbMzrxuENQ1Mf-p6lQJ9OhGmr6h_U5V8c32cYAII-6RpcLP8ibs0yldxTp9F9km9FQxuZZaE6nre_OAFKDkMHubH6jrewN07nhDm8YzHKJt20He4DoI","width":3264}],"place_id":"ChIJrcSUUwtRqEcRf95jD_gUqoI","plus_code":{"compound_code":"G8HR+CJ Berlin","global_code":"9F4MG8HR+CJ"},"price_level":2,"rating":4.5,"reference":"ChIJrcSUUwtRqEcRf95jD_gUqoI","types":["restaurant","food","point_of_interest","establishment"],"user_ratings_total":463},{"business_status":"OPERATIONAL","formatted_address":"Kottbusser Damm 9, 10967 Berlin, Germany","geometry":{"location":{"lat":52.4938095,"lng":13.4212678},"viewport":{"northeast":{"lat":52.49517997989272,"lng":13.42272207989272},"southwest":{"lat":52.49248032010728,"lng":13.42002242010728}}},"icon":"https://maps.gstatic.com/mapfiles/place_api/icons/v1/png_71/restaurant-71.png","icon_background_color":"#FF9E67","icon_mask_base_uri":"https://maps.gstatic.com/mapfiles/place_api/icons/v2/restaurant_pinlet","name":"Taverna „To Koutouki“","opening_hours":{"open_now":false},"photos":[{"height":4032,"html_attributions":["<a href=\"https://maps.google.com/maps/contrib/111143631466221888044\">A Google User</a>"],"photo_reference":"AeJbb3c_7bgdZ5M5TLBaJ-7UFPvzuh1LeSSLFM0UvwSM4XvPyW6m0vERxCFdV2FCUxrmeveQpVfvK6Yp4GP8D3ffZfKj-bSMfKeBwPMgfOGxPerzwGg33mouI1oHnokPNrdN8xoUThzSnn3kETzAJIfsDU4og99OmYsNq6P2DamOsmu_WqzH","width":3024}],"place_id":"ChIJHeOOJp4jZUER3w13sncWesQ","plus_code":{"compound_code":"FCVC+GG Berlin","global_code":"9F4MFCVC+GG"},"price_level":2,"rating":4.5,"reference":"ChIJHeOOJp4jZUER3w13sncWesQ","types":["restaurant","food","point_of_interest","establishment"],"user_ratings_total":448},{"business_status":"OPERATIONAL","formatted_address":"Kantstraße 132, 10625 Berlin, Germany","geometry":{"location":{"lat":52.5060784,"lng":13.3148531},"viewport":{"northeast":{"lat":52.50746982989272,"lng":13.31620887989272},"southwest":{"lat":52.50477017010728,"lng":13.31350922010728}}},"icon":"https://maps.gstatic.com/mapfiles/place_api/icons/v1/png_71/restaurant-71.png","icon_background_color":"#FF9E67","icon_mask_base_uri":"https://maps.gstatic.com/mapfiles/place_api/icons/v2/restaurant_pinlet","name":"Stavros Grill & More","opening_hours":{"open_now":true},"photos":[{"height":4032,"html_attributions":["<a href=\"https://maps.google.com/maps/contrib/117767754075051018079\">A Google User</a>"],"photo_reference":"AeJbb3du41mnnrT5XhaV6zT2Bstom4tMJwpvw8O_6yBlX4zhAuukm1M7DJNOluNwfi2rF01eIRx2a9TgTg7pvHH2tun7FHyMWPb4MFESR1rPgfKfPYVZ_mUnsdu32YJY9l6P9mFV0dCabDXLRMeqqR7WLp2hOscCxRUWvYDSAY8sDSvzYB3J","width":3024}],"place_id":"ChIJC-GhA-FRqEcR0qsv0JbhVpA","plus_code":{"compound_code":"G847+CW Berlin","global_code":"9F4MG847+CW"},"price_level":2,"rating":4.5,"reference":"ChIJC-GhA-FRqEcR0qsv0JbhVpA","types":["restaurant","food","point_of_interest","establishment"],"user_ratings_total":386},{"business_status":"OPERATIONAL","formatted_address":"Am Comeniuspl. 1, 10243 Berlin, Germany","geometry":{"location":{"lat":52.5123399,"lng":13.4480305},"viewport":{"northeast":{"lat":52.51365032989273,"lng":13.44942292989272},"southwest":{"lat":52.51095067010728,"lng":13.44672327010728}}},"icon":"https://maps.gstatic.com/mapfiles/place_api/icons/v1/png_71/restaurant-71.png","icon_background_color":"#FF9E67","icon_mask_base_uri":"https://maps.gstatic.com/mapfiles/place_api/icons/v2/restaurant_pinlet","name":"Taverna Kreta Friedrichshain","opening_hours":{"open_now":false},"photos":[{"height":3968,"html_attributions":["<a href=\"https://maps.google.com/maps/contrib/112909833558513399380\">HWAI EN TING</a>"],"photo_reference":"AeJbb3cN7AdTVoG-h74evtmx5JoAQCR3ypg_3l7Xz3l4PYUkRpO2vOgmvKIPW1jGLdkVWHTmFjUiRwPbhY9JSgLrbxvscyl7bY2sxvgP9RoC0ADH1-CJbdpPLLxsG-dcg-ZGboiYahJtzoBlQeYwODZjFJRFobsFdScb1ydwzcIV90rORmW4","width":2976}],"place_id":"ChIJCRwzl4FPqEcRoxLpWBIYD6s","plus_code":{"compound_code":"GC6X+W6 Berlin","global_code":"9F4MGC6X+W6"},"price_level":2,"rating":4.5,"reference":"ChIJCRwzl4FPqEcRoxLpWBIYD6s","types":["restaurant","food","point_of_interest","establishment"],"user_ratings_total":374},{"business_status":"OPERATIONAL","formatted_address":"Bayerische Str. 26, 10707 Berlin, Germany","geometry":{"location":{"lat":52.4969209,"lng":13.314028},"viewport":{"northeast":{"lat":52.49819377989272,"lng":13.31529847989272},"southwest":{"lat":52.49549412010728,"lng":13.31259882010728}}},"icon":"https://maps.gstatic.com/mapfiles/place_api/icons/v1/png_71/restaurant-71.png","icon_background_color":"#FF9E67","icon_mask_base_uri":"https://maps.gstatic.com/mapfiles/place_api/icons/v2/restaurant_pinlet","name":"Georgios Restaurant","opening_hours":{"open_now":true},"photos":[{"height":960,"html_attributions":["<a href=\"https://maps.google.com/maps/contrib/107654907758775396766\">Georgios Karagiannidis</a>"],"photo_reference":"AeJbb3fZvhwxc6BhFMMQym0TLlpVBw4Tzzr8EjRSBMcwzIySdPJ97uUQG0dM1rsiu7RwOLdF4lX1UkVU_acwRbEHh5MFi6-DKpFpwZSAY7s0g8xV09HLeO_qPkZAsXkYXiAW0RDpVpKg8zVy0JOcgprarY6MLBu8huxwB8B9YPHlb4GKPi0Z","width":960}],"place_id":"ChIJGQLXqe9QqEcRu2FMQbwB4zc","plus_code":{"compound_code":"F8W7+QJ Berlin","global_code":"9F4MF8W7+QJ"},"price_level":2,"rating":4.5,"reference":"ChIJGQLXqe9QqEcRu2FMQbwB4zc","types":["restaurant","food","point_of_interest","establishment"],"user_ratings_total":368},{"business_status":"OPERATIONAL","formatted_address":"Pannierstraße 55, 12047 Berlin, Germany","geometry":{"location":{"lat":52.48726500000001,"lng":13.4309456},"viewport":{"northeast":{"lat":52.48855697989273,"lng":13.43245377989272},"southwest":{"lat":52.48585732010729,"lng":13.42975412010728}}},"icon":"https://maps.gstatic.com/mapfiles/place_api/icons/v1/png_71/restaurant-71.png","icon_background_color":"#FF9E67","icon_mask_base_uri":"https://maps.gstatic.com/mapfiles/place_api/icons/v2/restaurant_pinlet","name":"Arethussa","opening_hours":{"open_now":false},"photos":[{"height":3216,"html_attributions":["<a href=\"https://maps.google.com/maps/contrib/115416583764335831240\">A Google User</a>"],"photo_reference":"AeJbb3f2crOqGwU3tUbatbeHaSrF3m7mjAdZS-2KeaDJ2JdV8f65yVjEJoCdJt8EqbfStA4Oyk4OE7LgK12Vjom6mxMV6g-XMTB4N1N96H_d5_GmdCOBK5K7FR-OFAMd-zqD65e-Gm08RTgm2zrZXZFHMppItoSK_lC-dtm2XhoVkObOBrH-","width":4288}],"place_id":"ChIJyZYQ67BPqEcRhzE-10lcdro","plus_code":{"compound_code":"FCPJ+W9 Berlin","global_code":"9F4MFCPJ+W9"},"rating":4.5,"reference":"ChIJyZYQ67BPqEcRhzE-10lcdro","types":["restaurant","food","point_of_interest","establishment"],"user_ratings_total":366},{"business_status":"OPERATIONAL","formatted_address":"Eisenbahnstraße 2, 10997 Berlin, Germany","geometry":{"location":{"lat":52.501569,"lng":13.432056},"viewport":{"northeast":{"lat":52.50295957989272,"lng":13.43329862989272},"southwest":{"lat":52.50025992010728,"lng":13.43059897010728}}},"icon":"https://maps.gstatic.com/mapfiles/place_api/icons/v1/png_71/restaurant-71.png","icon_background_color":"#FF9E67","icon_mask_base_uri":"https://maps.gstatic.com/mapfiles/place_api/icons/v2/restaurant_pinlet","name":"Jannimu","opening_hours":{"open_now":true},"photos":[{"height":960,"html_attributions":["<a href=\"https://maps.google.com/maps/contrib/116004498950411280725\">Jannimu</a>"],"photo_reference":"AeJbb3fQHs2SGdpY9DdQtIVIWU6gV07Aj8zSjI5lFbF3NKJVYvCyT4_LdBuqbVLE-FyP63aceFdBu4mRfNtqfiHBcsxgEEyKghqH0QEpaw_LMVGVMqTS8W2_5KMZ__BZvq4R1MH-IoWzRiGYw8FERGuiJur-zmMGX21dLx-PV1UAV4-A68y2","width":960}],"place_id":"ChIJpVBc00tOqEcRmba9i51J8_M","plus_code":{"compound_code":"GC2J+JR Berlin","global_code":"9F4MGC2J+JR"},"rating":4.5,"reference":"ChIJpVBc00tOqEcRmba9i51J8_M","types":["restaurant","food","point_of_interest","establishment"],"user_ratings_total":28},{"business_status":"OPERATIONAL","formatted_address":"Karl-Marx-Allee 129, 10243 Berlin, Germany","geometry":{"location":{"lat":52.5168854,"lng":13.4488699},"viewport":{"northeast":{"lat":52.51798007989272,"lng":13.45030092989272},"southwest":{"lat":52.51528042010727,"lng":13.44760127010728}}},"icon":"https://maps.gstatic.com/mapfiles/place_api/icons/v1/png_71/restaurant-71.png","icon_background_color":"#FF9E67","icon_mask_base_uri":"https://maps.gstatic.com/mapfiles/place_api/icons/v2/restaurant_pinlet","name":"Kos House","opening_hours":{"open_now":true},"photos":[{"height":4248,"html_attributions":["<a href=\"https://maps.google.com/maps/contrib/111868769632214305452\">Gabriele Schubert</a>"],"photo_reference":"AeJbb3dxtiZ8uoBpfwBb0Is_R4-JT8-cbM9dzy2GFDpr5MPkq-6DiCExpogzdoDYJgvP9wviD3kPV4ecX4QI9Ms_fLNBrejmX2MzpJn0IyzCTpXoT8FQyPzrd7SghA3S_wYWlxwlg0_JM8QSAPXROmvXdq6jJSI73wu_qZ6oOYrPn1ARTuK9","width":5664}],"place_id":"ChIJ4_DqJGhOqEcRbP-PsJABgQo","plus_code":{"compound_code":"GC8X+QG Berlin","global_code":"9F4MGC8X+QG"},"price_level":2,"rating":4.4,"reference":"ChIJ4_DqJGhOqEcRbP-PsJABgQo","types":["restaurant","food","point_of_interest","establishment"],"user_ratings_total":1526},{"business_status":"OPERATIONAL","formatted_address":"Oberfeldstraße 30, 12683 Berlin, Germany","geometry":{"location":{"lat":52.5203061,"lng":13.5555669},"viewport":{"northeast":{"lat":52.52163962989273,"lng":13.55711962989272},"southwest":{"lat":52.51893997010728,"lng":13.55441997010728}}},"icon":"https://maps.gstatic.com/mapfiles/place_api/icons/v1/png_71/restaurant-71.png","icon_background_color":"#FF9E67","icon_mask_base_uri":"https://maps.gstatic.com/mapfiles/place_api/icons/v2/restaurant_pinlet","name":"Restaurant Herkules","opening_hours":{"open_now":true},"photos":[{"height":1440,"html_attributions":["<a href=\"https://maps.google.com/maps/contrib/105943664686636027635\">Rainer Woidtke</a>"],"photo_reference":"AeJbb3djmNeac3mdMEuTOLZ6xDuHg4k-sonT7qDOjF1VTkmVPGe5kGbn4LmjqzvCBtUo3pGNRGSZLzgAv-Eu5x1G2G7RN49eBziPdXLGZwovHUIWv0x1Vvc3MK5P6ieaV__nBQDzpKHVufPrVcw_rh70vJbvDKU9kUggHk5Hwy9JqRBfdoYt","width":2560}],"place_id":"ChIJP6VGn15JqEcR3I_pU-3cgl0","plus_code":{"compound_code":"GHC4+46 Berlin","global_code":"9F4MGHC4+46"},"price_level":2,"rating":4.4,"reference":"ChIJP6VGn15JqEcR3I_pU-3cgl0","types":["restaurant","food","point_of_interest","establishment"],"user_ratings_total":1447},{"business_status":"OPERATIONAL","formatted_address":"Winterfeldtstraße 45, 10781 Berlin, Germany","geometry":{"location":{"lat":52.4968168,"lng":13.3536287},"viewport":{"northeast":{"lat":52.49825482989272,"lng":13.35492527989272},"southwest":{"lat":52.49555517010727,"lng":13.35222562010728}}},"icon":"https://maps.gstatic.com/mapfiles/place_api/icons/v1/png_71/restaurant-71.png","icon_background_color":"#FF9E67","icon_mask_base_uri":"https://maps.gstatic.com/mapfiles/place_api/icons/v2/restaurant_pinlet","name":"Berkis","opening_hours":{"open_now":true},"photos":[{"height":1440,"html_attributions":["<a href=\"https://maps.google.com/maps/contrib/101787397098130269650\">A Google User</a>"],"photo_reference":"AeJbb3ewvHH7z8dXKxjlnMZYEtBHmiurBaH7yxaSZ7P5fdImA_dN7Q3LCKBbOC_PC9yLh8Toxxh2p9fMmvae3TAVdbOP2IhfRIPs0EP7F_u1W6dmdGSMSdcZt6CJtmTkpPTlOw00wjP93BUPkfYJke-6pEl_AonGRLqQmbjvm3RZ_cicyYhW","width":2560}],"place_id":"ChIJZXX1G09QqEcRqt35NrlyDsY","plus_code":{"compound_code":"F9W3+PF Berlin","global_code":"9F4MF9W3+PF"},"price_level":2,"rating":4.4,"reference":"ChIJZXX1G09QqEcRqt35NrlyDsY","types":["restaurant","food","point_of_interest","establishment"],"user_ratings_total":994},{"business_status":"OPERATIONAL","formatted_address":"Wandlitzstraße 10, 10318 Berlin, Germany","geometry":{"location":{"lat":52.4810793,"lng":13.5238155},"viewport":{"northeast":{"lat":52.48241077989272,"lng":13.52526802989272},"southwest":{"lat":52.47971112010728,"lng":13.52256837010728}}},"icon":"https://maps.gstatic.com/mapfiles/place_api/icons/v1/png_71/restaurant-71.png","icon_background_color":"#FF9E67","icon_mask_base_uri":"https://maps.gstatic.com/mapfiles/place_api/icons/v2/restaurant_pinlet","name":"Syrtaki","opening_hours":{"open_now":true},"photos":[{"height":4032,"html_attributions":["<a href=\"https://maps.google.com/maps/contrib/105049659201123853673\">Jan Walzer</a>"],"photo_reference":"AeJbb3fHyLHekmSo5biXitlInXI9i3VSKiawvHtU5JHHl0nHO7iBji_dHgTB-rmES77i0EMrqFMHtwMHTtq1xRytuAFrAaR_GnSyryIdBFuEO0pOSPesHiVF9DcBfnq_QIuDCC1nXA9vdDE2GMJNxoZ1zH-zMnK48_kdwt_ZxMTq9U_kg5G-","width":3024}],"place_id":"ChIJhQc2MNdIqEcRULtghLT_oEo","plus_code":{"compound_code":"FGJF+CG Berlin","global_code":"9F4MFGJF+CG"},"price_level":2,"rating":4.4,"reference":"ChIJhQc2MNdIqEcRULtghLT_oEo","types":["restaurant","food","point_of_interest","establishment"],"user_ratings_total":919},{"business_status":"OPERATIONAL","formatted_address":"Lichtenrader Damm 26, 12305 Berlin, Germany","geometry":{"location":{"lat":52.4117536,"lng":13.4024087},"viewport":{"northeast":{"lat":52.41308377989272,"lng":13.40384452989272},"southwest":{"lat":52.41038412010728,"lng":13.40114487010728}}},"icon":"https://maps.gstatic.com/mapfiles/place_api/icons/v1/png_71/restaurant-71.png","icon_background_color":"#FF9E67","icon_mask_base_uri":"https://maps.gstatic.com/mapfiles/place_api/icons/v2/restaurant_pinlet","name":"Restaurant Meteora","opening_hours":{"open_now":true},"photos":[{"height":2048,"html_attributions":["<a href=\"https://maps.google.com/maps/contrib/108535895527523267364\">Kostas Koufos</a>"],"photo_reference":"AeJbb3f9tmynxX7bPAP4lEiwnmyyLWCpMvGVKKyiC_AuMdXIh3-2yKq_LK-gjoD17zhQmzUPX3myX6nsnl0EJdwWBsFGskwyLXjP68u6tZd8aBc_EORgsD7WMWT4v85YFIDa8Hjf9Tbnf2ats1M7wn2uN6BGVv4cq8dhX-hQrd1PyjBQmtkq","width":1536}],"place_id":"ChIJeQ_Vcv1EqEcR5XdI6P-fjQI","plus_code":{"compound_code":"CC62+PX Berlin","global_code":"9F4MCC62+PX"},"price_level":2,"rating":4.4,"reference":"ChIJeQ_Vcv1EqEcR5XdI6P-fjQI","types":["restaurant","food","point_of_interest","establishment"],"user_ratings_total":843},{"business_status":"OPERATIONAL","formatted_address":"Warnitzer Str. 10, 13057 Berlin, Germany","geometry":{"location":{"lat":52.5668658,"lng":13.5191575},"viewport":{"northeast":{"lat":52.56792247989272,"lng":13.52105482989272},"southwest":{"lat":52.56522282010728,"lng":13.51835517010728}}},"icon":"https://maps.gstatic.com/mapfiles/place_api/icons/v1/png_71/restaurant-71.png","icon_background_color":"#FF9E67","icon_mask_base_uri":"https://maps.gstatic.com/mapfiles/place_api/icons/v2/restaurant_pinlet","name":"Theo's Taverna","opening_hours":{"open_now":true},"photos":[{"height":2592,"html_attributions":["<a href=\"https://maps.google.com/maps/contrib/111893075531665836605\">A Google User</a>"],"photo_reference":"AeJbb3fewnH9XUWBRtG_4NFV4MVw4nf6vAKpqKSxKI2AUa9tB7YXk3LHPVWwduwVrZd-M_HnbPNX33hmRtsYOzpA0Hq-Kf1X85uOztDtsXbiT6D-u_pvunWKS9SisfTCNEn01l9wsT0vOj4qWjzREFqMoCgJaToCXHlDf7gbhuoMg2xoxrhi","width":4608}],"place_id":"ChIJ4Ytw90RMqEcRL_apEXkhfLs","plus_code":{"compound_code":"HG89+PM Berlin","global_code":"9F4MHG89+PM"},"price_level":2,"rating":4.4,"reference":"ChIJ4Ytw90RMqEcRL_apEXkhfLs","types":["restaurant","food","point_of_interest","establishment"],"user_ratings_total":806},{"business_status":"OPERATIONAL","formatted_address":"Märkische Allee 210, A, 12679 Berlin, Germany","geometry":{"location":{"lat":52.54857089999999,"lng":13.5470567},"viewport":{"northeast":{"lat":52.54982582989272,"lng":13.54859252989272},"southwest":{"lat":52.54712617010728,"lng":13.54589287010728}}},"icon":"https://maps.gstatic.com/mapfiles/place_api/icons/v1/png_71/restaurant-71.png","icon_background_color":"#FF9E67","icon_mask_base_uri":"https://maps.gstatic.com/mapfiles/place_api/icons/v2/restaurant_pinlet","name":"Restaurant Syrtaki","opening_hours":{"open_now":true},"photos":[{"height":3168,"html_attributions":["<a href=\"https://maps.google.com/maps/contrib/110920214507398707221\">A Google User</a>"],"photo_reference":"AeJbb3ekc_6khWXig9GQ2GyFfizgmLH0R7s6ODo_zWtdGS6ySL2okftVjW5kYSQ48SAeoSu0tEqJJ6W3zxWS8Jx8MxBol0MZ1z4LyBy8F_F6HI8C_ArsZ8IeHVQcD56zHHU9OdOfs45K2VQUTtIQrEdUcFLRL7BblS0cX20sXyHwcnvolbSE","width":5632}],"place_id":"ChIJRbg504pLqEcRaCjdJW0QFlM","plus_code":{"compound_code":"GGXW+CR Berlin","global_code":"9F4MGGXW+CR"},"price_level":2,"rating":4.4,"reference":"ChIJRbg504pLqEcRaCjdJW0QFlM","types":["school","meal_takeaway","restaurant","food","point_of_interest","establishment"],"user_ratings_total":622},{"business_status":"OPERATIONAL","formatted_address":"Maaßenstraße 12, 10777 Berlin, Germany","geometry":{"location":{"lat":52.497524,"lng":13.3541602},"viewport":{"northeast":{"lat":52.49891097989272,"lng":13.35563237989272},"southwest":{"lat":52.49621132010728,"lng":13.35293272010728}}},"icon":"https://maps.gstatic.com/mapfiles/place_api/icons/v1/png_71/restaurant-71.png","icon_background_color":"#FF9E67","icon_mask_base_uri":"https://maps.gstatic.com/mapfiles/place_api/icons/v2/restaurant_pinlet","name":"Taverna Kreta Minotavros","opening_hours":{"open_now":false},"photos":[{"height":4160,"html_attributions":["<a href=\"https://maps.google.com/maps/contrib/116210303438269955763\">Enrico Soso</a>"],"photo_reference":"AeJbb3dZOZDxWfUmPgvj4NCJk6F8F0bqMPL-GnxdsE0ckRpEYucIu7naER8_IAVLXaOSrNdIwKeQbKkEorwaiiUdGKL2xmkUVd7n10JxcJOV3EnQvzsrKab67sR9M5aRAdo5xXl_ztV7c7IaAGUj8pZW2C8DJYHxbD0d_bxK9yGqu1m6T-X2","width":3120}],"place_id":"ChIJ5QoG405QqEcRG1Zmr9FotAs","plus_code":{"compound_code":"F9X3+2M Berlin","global_code":"9F4MF9X3+2M"},"rating":4.4,"reference":"ChIJ5QoG405QqEcRG1Zmr9FotAs","types":["restaurant","food","point_of_interest","establishment"],"user_ratings_total":486},{"business_status":"OPERATIONAL","formatted_address":"Dannenwalder Weg 70, 13439 Berlin, Germany","geometry":{"location":{"lat":52.5911328,"lng":13.3464113},"viewport":{"northeast":{"lat":52.59264982989273,"lng":13.34774417989272},"southwest":{"lat":52.58995017010729,"lng":13.34504452010728}}},"icon":"https://maps.gstatic.com/mapfiles/place_api/icons/v1/png_71/restaurant-71.png","icon_background_color":"#FF9E67","icon_mask_base_uri":"https://maps.gstatic.com/mapfiles/place_api/icons/v2/restaurant_pinlet","name":"Taverna Orakel Hellas","opening_hours":{"open_now":true},"photos":[{"height":4032,"html_attributions":["<a href=\"https://maps.google.com/maps/contrib/109609087140510593757\">Maud Weiß</a>"],"photo_reference":"AeJbb3djrTdSvK_mr7D8ZNOhnd9HDTnPGxt-DZ8HMTRqkhfQxrGzI_yzygPPrMDmgCYUSlmh2QLLIb2_e45V6K5aJ5kjSOL1prgz6UJ5HsYzSINpmHHG--_bb_ebeczQ5Rw36kXK0dHQSPVV37Wvm6O6HEi_XdCp905bJ4MLFklL2ySoVJWv","width":3024}],"place_id":"ChIJ5T1IahEgZUERxcQ-kI68SmQ","plus_code":{"compound_code":"H8RW+FH Berlin","global_code":"9F4MH8RW+FH"},"price_level":2,"rating":4.4,"reference":"ChIJ5T1IahEgZUERxcQ-kI68SmQ","types":["meal_delivery","meal_takeaway","restaurant","food","point_of_interest","establishment"],"user_ratings_total":457},{"business_status":"OPERATIONAL","formatted_address":"Friedrichstraße 194, 10117 Berlin, Germany","geometry":{"location":{"lat":52.5099267,"lng":13.3896997},"viewport":{"northeast":{"lat":52.51121677989272,"lng":13.39115292989272},"southwest":{"lat":52.50851712010728,"lng":13.38845327010728}}},"icon":"https://maps.gstatic.com/mapfiles/place_api/icons/v1/png_71/cafe-71.png","icon_background_color":"#FF9E67","icon_mask_base_uri":"https://maps.gstatic.com/mapfiles/place_api/icons/v2/cafe_pinlet","name":"Gregory's","opening_hours":{"open_now":true},"photos":[{"height":3000,"html_attributions":["<a href=\"https://maps.google.com/maps/contrib/103273978326826547986\">Kostas Tsitlakidis</a>"],"photo_reference":"AeJbb3cawU-kQWTJb0mgAFS9s8NX1I29LMRVJk6rb2MaYfHdwiPLqYocEoldiLkxtKRI_EAmjxQBbiQEghgmFTAuI-0NrUCjIpool1-6eRdJdFFIJfjwuOuZ4lDLQ4g-FgxzxxEoH_3WZgB_8ZbjKGlz0BYlNGnyzo7TOY48XiYmcHJW6UIE","width":4000}],"place_id":"ChIJAdonVtBRqEcRxcPPWXAnPco","plus_code":{"compound_code":"G95Q+XV Berlin","global_code":"9F4MG95Q+XV"},"price_level":2,"rating":4.4,"reference":"ChIJAdonVtBRqEcRxcPPWXAnPco","types":["cafe","restaurant","food","point_of_interest","establishment"],"user_ratings_total":358},{"business_status":"OPERATIONAL","formatted_address":"Torstraße 118, 10119 Berlin, Germany","geometry":{"location":{"lat":52.5295559,"lng":13.4023004},"viewport":{"northeast":{"lat":52.53095782989272,"lng":13.40355177989272},"southwest":{"lat":52.52825817010728,"lng":13.40085212010728}}},"icon":"https://maps.gstatic.com/mapfiles/place_api/icons/v1/png_71/restaurant-71.png","icon_background_color":"#FF9E67","icon_mask_base_uri":"https://maps.gstatic.com/mapfiles/place_api/icons/v2/restaurant_pinlet","name":"Apló Greek Kitchen & Foods","opening_hours":{"open_now":false},"photos":[{"height":2699,"html_attributions":["<a href=\"https://maps.google.com/maps/contrib/113680697965802942760\">A Google User</a>"],"photo_reference":"AeJbb3cSKCgt0BfFQTtG9yuKjJLpsn-VHM9aTQpvw0EShPMgDP319QNiPRwTvwiHIZQCdagAC7YfPSaO878EY4-UBh95KVhiWVbCGwJQZ5HDSk33afcMCoLLhBzhylD21-bjaNabb8rMTxThDANWa0QBSZ3aeTszsPtNgzPqXL6-8P3O-H_5","width":2160}],"place_id":"ChIJa0DelkhRqEcRSEHJ1c6DPMY","plus_code":{"compound_code":"GCH2+RW Berlin","global_code":"9F4MGCH2+RW"},"rating":4.4,"reference":"ChIJa0DelkhRqEcRSEHJ1c6DPMY","types":["restaurant","food","point_of_interest","establishment"],"user_ratings_total":349},{"business_status":"OPERATIONAL","formatted_address":"Gneisenaustraße 109, 10961 Berlin, Germany","geometry":{"location":{"lat":52.4929542,"lng":13.3897531},"viewport":{"northeast":{"lat":52.49416297989273,"lng":13.39098752989272},"southwest":{"lat":52.49146332010729,"lng":13.38828787010728}}},"icon":"https://maps.gstatic.com/mapfiles/place_api/icons/v1/png_71/restaurant-71.png","icon_background_color":"#FF9E67","icon_mask_base_uri":"https://maps.gstatic.com/mapfiles/place_api/icons/v2/restaurant_pinlet","name":"Taverna Dionysos","opening_hours":{"open_now":false},"photos":[{"height":2992,"html_attributions":["<a href=\"https://maps.google.com/maps/contrib/109361571784800723000\">Jason Efstathiou</a>"],"photo_reference":"AeJbb3cyipMUFf7p6XWlvGNrXTRLQFvTvuZrgYP2hYUMdicODW6mBVl1oYFecadc3j4xDNH3ub1dhAGcGZtrqMOgdg7l0QCDAXzfmV2P_MT8Cclz_Qpr0cI9I4kucWR7HnyKCosBr2QzIk11w5oPweu4qtSNIFh4fYcPg2F0CG2Kn2Fl3lp-","width":4000}],"place_id":"ChIJ3S9bUyhQqEcRB4dbcpnIjog","plus_code":{"compound_code":"F9VQ+5W Berlin","global_code":"9F4MF9VQ+5W"},"price_level":2,"rating":4.4,"reference":"ChIJ3S9bUyhQqEcRB4dbcpnIjog","types":["restaurant","food","point_of_interest","establishment"],"user_ratings_total":277},{"business_status":"OPERATIONAL","formatted_address":"Edisonstraße 34, 12459 Berlin, Germany","geometry":{"location":{"lat":52.46820229999999,"lng":13.5141381},"viewport":{"northeast":{"lat":52.46958102989272,"lng":13.51541522989272},"southwest":{"lat":52.46688137010727,"lng":13.51271557010728}}},"icon":"https://maps.gstatic.com/mapfiles/place_api/icons/v1/png_71/restaurant-71.png","icon_background_color":"#FF9E67","icon_mask_base_uri":"https://maps.gstatic.com/mapfiles/place_api/icons/v2/restaurant_pinlet","name":"Restaurant Thessaloniki","opening_hours":{"open_now":true},"photos":[{"height":789,"html_attributions":["<a href=\"https://maps.google.com/maps/contrib/112581582387555671340\">Анна Бабкович</a>"],"photo_reference":"AeJbb3eBMqLeT6KH1IE2P9wLBP0ONJaTS9NT9k42ImwAP2CXRedo_ZQjk1JhYLadgzHwzhUd121bfnMvxjMncbuOlU9VFGSyjLnXlU-j7TTFJYg4Lq2vnBC881uVojOUTPiAeOz5hxBeD4H1QJ5jrMMbqibngj_5U4YVTb7UWnvfDN8FYz7Y","width":1055}],"place_id":"ChIJY8EyTTxJqEcRYoms8-YlrKU","plus_code":{"compound_code":"FG97+7M Berlin","global_code":"9F4MFG97+7M"},"price_level":2,"rating":4.4,"reference":"ChIJY8EyTTxJqEcRYoms8-YlrKU","types":["restaurant","food","point_of_interest","establishment"],"user_ratings_total":274},{"business_status":"OPERATIONAL","formatted_address":"Nansenstraße 3, 12047 Berlin, Germany","geometry":{"location":{"lat":52.4885812,"lng":13.4299478},"viewport":{"northeast":{"lat":52.48994202989272,"lng":13.43126977989272},"southwest":{"lat":52.48724237010727,"lng":13.42857012010728}}},"icon":"https://maps.gstatic.com/mapfiles/place_api/icons/v1/png_71/restaurant-71.png","icon_background_color":"#FF9E67","icon_mask_base_uri":"https://maps.gstatic.com/mapfiles/place_api/icons/v2/restaurant_pinlet","name":"[a'lu]","opening_hours":{"open_now":false},"photos":[{"height":2165,"html_attributions":["<a href=\"https://maps.google.com/maps/contrib/104371254857183534501\">Holger Vetter</a>"],"photo_reference":"AeJbb3f_3rtBzAvwhoujMKvXU_S_BfHYDoEy8xKO7AAva5wWdoY46mSzc6PI1xLIyPMUZ4AwY30UihNHIUwA_-1j9a35PsGCPM9YrHxvAvzJKqpcBs4MK_oS_pgLcUpXHhrR3a1hH5GzfWUgLFwFAC_PVt_CcusyBk7guMkzh4BmAjg1yF45","width":3848}],"place_id":"ChIJrYkD1rBPqEcROoEpber8p0A","plus_code":{"compound_code":"FCQJ+C2 Berlin","global_code":"9F4MFCQJ+C2"},"rating":4.4,"reference":"ChIJrYkD1rBPqEcROoEpber8p0A","types":["restaurant","food","point_of_interest","establishment"],"user_ratings_total":178},{"business_status":"OPERATIONAL","formatted_address":"Kurfürstendamm 97-98, 10709 Berlin, Germany","geometry":{"location":{"lat":52.4986732,"lng":13.2981211},"viewport":{"northeast":{"lat":52.49990592989273,"lng":13.29959717989272},"southwest":{"lat":52.49720627010728,"lng":13.29689752010728}}},"icon":"https://maps.gstatic.com/mapfiles/place_api/icons/v1/png_71/restaurant-71.png","icon_background_color":"#FF9E67","icon_mask_base_uri":"https://maps.gstatic.com/mapfiles/place_api/icons/v2/restaurant_pinlet","name":"Ach Niko Ach","opening_hours":{"open_now":true},"photos":[{"height":1836,"html_attributions":["<a href=\"https://maps.google.com/maps/contrib/105422542765530015712\">J- Gm</a>"],"photo_reference":"AeJbb3cvFkiTvovMyy6b2cVQLbzJASj9dyPkYtmnoL0-PJjJu1ICoHNta70NPWs2aESqiEYBYtQ7jgTmhAeTO1BVJeL8uPvaGsBqyFZcYxGG6STn5BuyICYq4_XtMbrUyvbBq4hqiJGqS-4i7KyFqM8corgJQy0_eQyDmBGm7e9CG94MeyZb","width":1836}],"place_id":"ChIJ40M2BsNQqEcRWf9etfz3O0U","plus_code":{"compound_code":"F7XX+F6 Berlin","global_code":"9F4MF7XX+F6"},"price_level":2,"rating":4.3,"reference":"ChIJ40M2BsNQqEcRWf9etfz3O0U","types":["restaurant","food","point_of_interest","establishment"],"user_ratings_total":2131},{"business_status":"OPERATIONAL","formatted_address":"Mariendorfer Damm 131, 12107 Berlin, Germany","geometry":{"location":{"lat":52.4399893,"lng":13.3879177},"viewport":{"northeast":{"lat":52.44147227989273,"lng":13.38920057989272},"southwest":{"lat":52.43877262010728,"lng":13.38650092010728}}},"icon":"https://maps.gstatic.com/mapfiles/place_api/icons/v1/png_71/restaurant-71.png","icon_background_color":"#FF9E67","icon_mask_base_uri":"https://maps.gstatic.com/mapfiles/place_api/icons/v2/restaurant_pinlet","name":"Villa Christina","opening_hours":{"open_now":true},"photos":[{"height":3000,"html_attributions":["<a href=\"https://maps.google.com/maps/contrib/110319660585324539294\">Robert Sprotte</a>"],"photo_reference":"AeJbb3c-mRMAT8D4JlWll0YD-UNze1rgcmYOvz6qUnm3x8bFBONtxhMatZ5XxMGeL7JdKJ74kCXCkMdXWWflXsMMAnP_jFnxB5M8irKu3NYnSzu0bmpDwTcX-ZK_REqyGlM9BJy8hBIwzW51BKUC0J1pgJ1k0k5BwHT9CX2DoN68FyRl7fP5","width":5333}],"place_id":"ChIJmTv850ZFqEcRklSGHHmqRa4","plus_code":{"compound_code":"C9QQ+X5 Berlin","global_code":"9F4MC9QQ+X5"},"price_level":2,"rating":4.3,"reference":"ChIJmTv850ZFqEcRklSGHHmqRa4","types":["meal_takeaway","meal_delivery","restaurant","food","point_of_interest","establishment"],"user_ratings_total":1552},{"business_status":"OPERATIONAL","formatted_address":"Sterndamm 59, 12487 Berlin, Germany","geometry":{"location":{"lat":52.448017,"lng":13.507881},"viewport":{"northeast":{"lat":52.44933962989272,"lng":13.50895042989272},"southwest":{"lat":52.44663997010728,"lng":13.50625077010728}}},"icon":"https://maps.gstatic.com/mapfiles/place_api/icons/v1/png_71/restaurant-71.png","icon_background_color":"#FF9E67","icon_mask_base_uri":"https://maps.gstatic.com/mapfiles/place_api/icons/v2/restaurant_pinlet","name":"Taverna Odyssee","opening_hours":{"open_now":true},"photos":[{"height":2976,"html_attributions":["<a href=\"https://maps.google.com/maps/contrib/101776865413849592373\">Денис Котелевский</a>"],"photo_reference":"AeJbb3ccd7wmATLwfzXGsL7c0sP6VKY9FzLXiyIAPUZqcZ4OTnRdsFlYVOnFa-Z1LQ0K4NhVHQQStweJOXjfq8VPK439qSZfBkE2g3ym5RzDk4a5Nm8KFmoqK7qphKcvnBzWjTdNtdWUQMqnxKfLVm229EPG0ORTjaY0e110IUOPeMNI7822","width":3968}],"place_id":"ChIJAbaW8ahIqEcRtmAl3_kvjJk","plus_code":{"compound_code":"CGX5+65 Berlin","global_code":"9F4MCGX5+65"},"price_level":2,"rating":4.3,"reference":"ChIJAbaW8ahIqEcRtmAl3_kvjJk","types":["bar","meal_takeaway","restaurant","food","point_of_interest","establishment"],"user_ratings_total":815},{"business_status":"OPERATIONAL","formatted_address":"Oberhofer Pl. 9A, 12209 Berlin, Germany","geometry":{"location":{"lat":52.42471159999999,"lng":13.3289302},"viewport":{"northeast":{"lat":52.42604427989271,"lng":13.33022097989272},"southwest":{"lat":52.42334462010727,"lng":13.32752132010728}}},"icon":"https://maps.gstatic.com/mapfiles/place_api/icons/v1/png_71/restaurant-71.png","icon_background_color":"#FF9E67","icon_mask_base_uri":"https://maps.gstatic.com/mapfiles/place_api/icons/v2/restaurant_pinlet","name":"Nostos, griechisches Restaurant","opening_hours":{"open_now":true},"photos":[{"height":4032,"html_attributions":["<a href=\"https://maps.google.com/maps/contrib/116830533732911874428\">Mikki Reyes</a>"],"photo_reference":"AeJbb3cPUfsXUrIH7m8_0_fEG1f3eQkYBrkQJ0v3sl4OcHmMPKKG7sj0n893o-rHDXQZaFihsIP4YJPkSvRAe-owhfSnsGdGXkH7_a0Hh4Vn-DlvMLKpwP8RJe-92vW69Z5Nj0SCDn9u6DFQnCWspR2Esrv0qLYkQXFMIh5DLw4aiCby2vxr","width":3024}],"place_id":"ChIJg8DkKN5aqEcRvENR--tiUwI","plus_code":{"compound_code":"C8FH+VH Berlin","global_code":"9F4MC8FH+VH"},"price_level":2,"rating":4.3,"reference":"ChIJg8DkKN5aqEcRvENR--tiUwI","types":["restaurant","food","point_of_interest","establishment"],"user_ratings_total":490},{"business_status":"OPERATIONAL","formatted_address":"Modersohnstraße 58, 10245 Berlin, Germany","geometry":{"location":{"lat":52.5023139,"lng":13.4565865},"viewport":{"northeast":{"lat":52.50363507989272,"lng":13.45796917989272},"southwest":{"lat":52.50093542010728,"lng":13.45526952010728}}},"icon":"https://maps.gstatic.com/mapfiles/place_api/icons/v1/png_71/restaurant-71.png","icon_background_color":"#FF9E67","icon_mask_base_uri":"https://maps.gstatic.com/mapfiles/place_api/icons/v2/restaurant_pinlet","name":"Restaurant Areti","opening_hours":{"open_now":true},"photos":[{"height":3480,"html_attributions":["<a href=\"https://maps.google.com/maps/contrib/116702861613313848436\">Sabin Șerban</a>"],"photo_reference":"AeJbb3d2XPWCj3FSVqvPN1VQwwfHPfyZ6FImcBaNdyk-ZIN2s0svE6nUlWg7-MwK9w75Qshs66T0El-xGEsagZML4Mc-9ngTQyb2ke1pU6eMDu4dmZyE0lLZ9mzm5UE58BqVjSskFDXE67I_Qk-DqRSqRV8UpQKp0fQx1CiE1WqqIyZoEtXG","width":4640}],"place_id":"ChIJqzHnrVdOqEcRrXFYLVlhWfU","plus_code":{"compound_code":"GF24+WJ Berlin","global_code":"9F4MGF24+WJ"},"price_level":2,"rating":4.3,"reference":"ChIJqzHnrVdOqEcRrXFYLVlhWfU","types":["restaurant","food","point_of_interest","establishment"],"user_ratings_total":417},{"business_status":"OPERATIONAL","formatted_address":"Orankestraße 41, 13053 Berlin, Germany","geometry":{"location":{"lat":52.54755669999999,"lng":13.4827228},"viewport":{"northeast":{"lat":52.54886767989272,"lng":13.48408372989272},"southwest":{"lat":52.54616802010727,"lng":13.48138407010728}}},"icon":"https://maps.gstatic.com/mapfiles/place_api/icons/v1/png_71/restaurant-71.png","icon_background_color":"#FF9E67","icon_mask_base_uri":"https://maps.gstatic.com/mapfiles/place_api/icons/v2/restaurant_pinlet","name":"Orankesee-Terrassen","opening_hours":{"open_now":true},"photos":[{"height":4032,"html_attributions":["<a href=\"https://maps.google.com/maps/contrib/105044413425964372000\">Wolfgang Rost</a>"],"photo_reference":"AeJbb3d_m6-KClFhhYpgWNcQ43Fwq37y-ILBLIVVnYR_7XIQkEQlFhzGZbaWLgi7noX0-NYIpYG9QSGf8rElZfpmTEDGdUW-5eerDZxY1iI1QdGQt_vIzonO1UEMrRaX_6QD_hpKxO7QIso3yK7rihsIRcAoeYXb0QPDK4A1AJhCHo5FGTiG","width":2268}],"place_id":"ChIJK8Z21jJMqEcRz8D_aGYoeF8","plus_code":{"compound_code":"GFXM+23 Berlin","global_code":"9F4MGFXM+23"},"price_level":2,"rating":4.2,"reference":"ChIJK8Z21jJMqEcRz8D_aGYoeF8","types":["restaurant","food","point_of_interest","establishment"],"user_ratings_total":2234},{"business_status":"OPERATIONAL","formatted_address":"Danziger Str. 72, 10435 Berlin, Germany","geometry":{"location":{"lat":52.53903649999999,"lng":13.4237419},"viewport":{"northeast":{"lat":52.54043417989273,"lng":13.42513592989272},"southwest":{"lat":52.53773452010729,"lng":13.42243627010728}}},"icon":"https://maps.gstatic.com/mapfiles/place_api/icons/v1/png_71/restaurant-71.png","icon_background_color":"#FF9E67","icon_mask_base_uri":"https://maps.gstatic.com/mapfiles/place_api/icons/v2/restaurant_pinlet","name":"Taverna Apollon","opening_hours":{"open_now":false},"photos":[{"height":3024,"html_attributions":["<a href=\"https://maps.google.com/maps/contrib/112523186128413405587\">Negar Sakhipoor</a>"],"photo_reference":"AeJbb3fWK-ooxixfgGvlbxvUR_kV4Ow6CjiMASu1bf3uf61hDaaGA7zX_S6yqBFD6Uy-vlX3kcb8WcEveRjl5b3FLgCDXRFgWEF2gyBhaPUTMkHLvjzA30uDFXB2Z2EtdX9mq2dcYeUE_G6ZrK0dCETrLfylr2d-QbTVfu-LWUBO9yJksvxo","width":4032}],"place_id":"ChIJc4knzQBOqEcR8L-h7V7uo30","plus_code":{"compound_code":"GCQF+JF Berlin","global_code":"9F4MGCQF+JF"},"price_level":2,"rating":4.2,"reference":"ChIJc4knzQBOqEcR8L-h7V7uo30","types":["restaurant","food","point_of_interest","establishment"],"user_ratings_total":953},{"business_status":"OPERATIONAL","formatted_address":"Ruschestraße 64, 10365 Berlin, Germany","geometry":{"location":{"lat":52.5217413,"lng":13.4865493},"viewport":{"northeast":{"lat":52.52307187989272,"lng":13.48750972989272},"southwest":{"lat":52.52037222010728,"lng":13.48481007010728}}},"icon":"https://maps.gstatic.com/mapfiles/place_api/icons/v1/png_71/restaurant-71.png","icon_background_color":"#FF9E67","icon_mask_base_uri":"https://maps.gstatic.com/mapfiles/place_api/icons/v2/restaurant_pinlet","name":"Epirus","opening_hours":{"open_now":true},"photos":[{"height":1840,"html_attributions":["<a href=\"https://maps.google.com/maps/contrib/104737229348687281468\">Magdalena Bandarek</a>"],"photo_reference":"AeJbb3ddqi7M9w1M_IlqI-bh85UTsGrTrV7M_yPwQK2I5yGoqDHzpbUVu1bR3joKA1xKUjxox5wJnhuA1MaX_8ViAfkpUVVS3qyQd9JQ2R_fTbYTFjzsiQ8zs54b4FTNmS6sDOaTJE2QAg49gkPEsMTApPVyINR-LJCHCZ7JA7ijyd1Astk","width":3264}],"place_id":"ChIJQ60PRJBOqEcRRcWC3MTdLnI","plus_code":{"compound_code":"GFCP+MJ Berlin","global_code":"9F4MGFCP+MJ"},"price_level":2,"rating":4.2,"reference":"ChIJQ60PRJBOqEcRRcWC3MTdLnI","types":["restaurant","food","point_of_interest","establishment"],"user_ratings_total":855},{"business_status":"OPERATIONAL","formatted_address":"Gudrunstraße 5A, 10365 Berlin, Germany","geometry":{"location":{"lat":52.513028,"lng":13.5014214},"viewport":{"northeast":{"lat":52.51435142989271,"lng":13.50279772989272},"southwest":{"lat":52.51165177010727,"lng":13.50009807010728}}},"icon":"https://maps.gstatic.com/mapfiles/place_api/icons/v1/png_71/restaurant-71.png","icon_background_color":"#FF9E67","icon_mask_base_uri":"https://maps.gstatic.com/mapfiles/place_api/icons/v2/restaurant_pinlet","name":"Restaurant Athos","opening_hours":{"open_now":true},"photos":[{"height":3024,"html_attributions":["<a href=\"https://maps.google.com/maps/contrib/102422777788794333873\">Dean Holbrough</a>"],"photo_reference":"AeJbb3dWDOEeGElMWPMf-9QLWMeCzEdbR1fmue5CbX5rl9hIsikO6xHo26a6P4-3dAqtm8AVfIi4o_k_yHw8LEp4DkNE64MBwNJf4HrgLZSYwJYWY3Lf_MBr4u4heEJtVF-QsUa1aba_jAyhGAIu--p-ccdote3J1u9SssBfS96oF7FTlmPa","width":4032}],"place_id":"ChIJIQlW4L5OqEcRsEv67lD3hhM","plus_code":{"compound_code":"GG72+6H Berlin","global_code":"9F4MGG72+6H"},"price_level":2,"rating":4.2,"reference":"ChIJIQlW4L5OqEcRsEv67lD3hhM","types":["restaurant","food","point_of_interest","establishment"],"user_ratings_total":834},{"business_status":"OPERATIONAL","formatted_address":"Arndtstraße 12, 10965 Berlin, Germany","geometry":{"location":{"lat":52.488552,"lng":13.3928872},"viewport":{"northeast":{"lat":52.48983582989272,"lng":13.39422437989272},"southwest":{"lat":52.48713617010728,"lng":13.39152472010728}}},"icon":"https://maps.gstatic.com/mapfiles/place_api/icons/v1/png_71/restaurant-71.png","icon_background_color":"#FF9E67","icon_mask_base_uri":"https://maps.gstatic.com/mapfiles/place_api/icons/v2/restaurant_pinlet","name":"Taverna Restaurant Mastiha","opening_hours":{"open_now":false},"photos":[{"height":3024,"html_attributions":["<a href=\"https://maps.google.com/maps/contrib/108070865187044861276\">Margarete Bode</a>"],"photo_reference":"AeJbb3d_blDuWNPqp6ZDBKI-2o3xb62PYwWjU2PJF9eMTE3DP3N6Pm0TVlRKOoVxv4iyQ74pOpwieEUAbSL1YuczCZkra0_D3a6XEOwPNVpn7zytnzPO6kEXix_jkL_Mc7gIsetuqU-wTU1aaUHP0uxRYtm1OXuEy8cIlx73lBznudTUn7hU","width":4032}],"place_id":"ChIJ9epzQdhPqEcRq6fBOibKfHk","plus_code":{"compound_code":"F9QV+C5 Berlin","global_code":"9F4MF9QV+C5"},"price_level":2,"rating":4.2,"reference":"ChIJ9epzQdhPqEcRq6fBOibKfHk","types":["restaurant","food","point_of_interest","establishment"],"user_ratings_total":602},{"business_status":"OPERATIONAL","formatted_address":"Budapester Str. 13, 10787 Berlin, Germany","geometry":{"location":{"lat":52.5064856,"lng":13.3461229},"viewport":{"northeast":{"lat":52.50777897989272,"lng":13.34731392989272},"southwest":{"lat":52.50507932010727,"lng":13.34461427010728}}},"icon":"https://maps.gstatic.com/mapfiles/place_api/icons/v1/png_71/restaurant-71.png","icon_background_color":"#FF9E67","icon_mask_base_uri":"https://maps.gstatic.com/mapfiles/place_api/icons/v2/restaurant_pinlet","name":"Ja! Niko Ja!","opening_hours":{"open_now":true},"photos":[{"height":3024,"html_attributions":["<a href=\"https://maps.google.com/maps/contrib/102723869383423971290\">Balázs Hinel</a>"],"photo_reference":"AeJbb3faPWrq1O98uPUHPKPrdXCPm__ZumZoBQTWIVYeg8pARo9OA2pYwE2q1-NG5m_0CLV9NseL21x05f8g0jrOjtJsLffPhfhy8uq64UHbT8ZSdeZd3wjmaYG_7q4BHh3qszD5-LoDUV6WWB15NsloY8mLt3ZgKAsxm17qjahqbcwjURlM","width":4032}],"place_id":"ChIJo8ypraxRqEcRe1DSMHgmQeo","plus_code":{"compound_code":"G84W+HC Berlin","global_code":"9F4MG84W+HC"},"price_level":2,"rating":4.1,"reference":"ChIJo8ypraxRqEcRe1DSMHgmQeo","types":["restaurant","food","point_of_interest","establishment"],"user_ratings_total":1170},{"business_status":"OPERATIONAL","formatted_address":"Markstraße 20, 13409 Berlin, Germany","geometry":{"location":{"lat":52.5582153,"lng":13.3657262},"viewport":{"northeast":{"lat":52.55957442989272,"lng":13.36694357989272},"southwest":{"lat":52.55687477010728,"lng":13.36424392010728}}},"icon":"https://maps.gstatic.com/mapfiles/place_api/icons/v1/png_71/restaurant-71.png","icon_background_color":"#FF9E67","icon_mask_base_uri":"https://maps.gstatic.com/mapfiles/place_api/icons/v2/restaurant_pinlet","name":"Ariston Taverna Hellas Berlin","opening_hours":{"open_now":true},"photos":[{"height":3000,"html_attributions":["<a href=\"https://maps.google.com/maps/contrib/101633677582955440338\">Ekart Schuberth</a>"],"photo_reference":"AeJbb3fg8akggxSBEQFM1DAiH1G6NP6joV3i-ST77zuQqjcRQcO1mxb9s9ZNsfiYBYWTcOukWAMnKUDBGIV7K9f42QM0JXp3raV1eIKmRzD02lml1Ak1VLfCxEcZk3JeayhzXWzLa01-VB5qAaduTuM1wjWneIWJgfgBbZLXwELis7Z7MCou","width":5333}],"place_id":"ChIJmWaIYS1SqEcRWTRkmcAvMJY","plus_code":{"compound_code":"H958+77 Berlin","global_code":"9F4MH958+77"},"price_level":2,"rating":4.1,"reference":"ChIJmWaIYS1SqEcRWTRkmcAvMJY","types":["meal_takeaway","bar","restaurant","food","point_of_interest","establishment"],"user_ratings_total":618},{"business_status":"OPERATIONAL","formatted_address":"Marheineke Platz 15, 10961 Berlin, Germany","geometry":{"location":{"lat":52.489278,"lng":13.3944925},"viewport":{"northeast":{"lat":52.49050607989273,"lng":13.39579472989272},"southwest":{"lat":52.48780642010728,"lng":13.39309507010728}}},"icon":"https://maps.gstatic.com/mapfiles/place_api/icons/v1/png_71/restaurant-71.png","icon_background_color":"#FF9E67","icon_mask_base_uri":"https://maps.gstatic.com/mapfiles/place_api/icons/v2/restaurant_pinlet","name":"Olgas Feinkost / Agora","opening_hours":{"open_now":true},"photos":[{"height":3024,"html_attributions":["<a href=\"https://maps.google.com/maps/contrib/115709233773460572993\">Atila Schuh</a>"],"photo_reference":"AeJbb3fl1HcpcfuAZjx7xHAVQP27WwN3MxUU5m-3DuOokKNNdSbBFg4RE18WNQUa09lf9073h6YVwJa3R9Gz68m4OuUXSUyIe8nusY6h8RfY6zHRYfrny12RiYcAxPl_otGoTgheCzsAczZnk-vdCiSMGKwhLjoz6WSDWRq1Ffb6H-PiXOXT","width":4032}],"place_id":"ChIJranD0NlPqEcRli3Zuf7WXtA","plus_code":{"compound_code":"F9QV+PQ Berlin","global_code":"9F4MF9QV+PQ"},"rating":4.1,"reference":"ChIJranD0NlPqEcRli3Zuf7WXtA","types":["restaurant","food","store","point_of_interest","establishment"],"user_ratings_total":79},{"business_status":"OPERATIONAL","formatted_address":"Kurfürstendamm 165-166, 10707 Berlin, Germany","geometry":{"location":{"lat":52.49984,"lng":13.30789},"viewport":{"northeast":{"lat":52.50127372989272,"lng":13.30920592989272},"southwest":{"lat":52.49857407010728,"lng":13.30650627010728}}},"icon":"https://maps.gstatic.com/mapfiles/place_api/icons/v1/png_71/restaurant-71.png","icon_background_color":"#FF9E67","icon_mask_base_uri":"https://maps.gstatic.com/mapfiles/place_api/icons/v2/restaurant_pinlet","name":"Leonidas","opening_hours":{"open_now":true},"photos":[{"height":1080,"html_attributions":["<a href=\"https://maps.google.com/maps/contrib/100028455041117716142\">Eric B</a>"],"photo_reference":"AeJbb3dP0zMjwp9yv2YB0gVe9xl2edLOLN-Q4G7oQbT0riCBt4yui2n7qA-Y5dsJ9Bx8Ftq-36k3befwk68yeTmnn-h_Hn0EzMe4ADuu7ADmTq3W4CK4nvmoFFsPvnQIiPI3Rd_ZFeqEtEGbQ_XmlxEuoRehZdkCXCBWfJgjofqEAX9aeryQ","width":1920}],"place_id":"ChIJ1XDlgehQqEcRUKgvFj5Rb_A","plus_code":{"compound_code":"F8X5+W5 Berlin","global_code":"9F4MF8X5+W5"},"price_level":1,"rating":4,"reference":"ChIJ1XDlgehQqEcRUKgvFj5Rb_A","types":["restaurant","food","point_of_interest","establishment"],"user_ratings_total":602},{"business_status":"OPERATIONAL","formatted_address":"Güntzelstraße 19, 10717 Berlin, Germany","geometry":{"location":{"lat":52.4913342,"lng":13.3261515},"viewport":{"northeast":{"lat":52.49262472989272,"lng":13.32748332989272},"southwest":{"lat":52.48992507010728,"lng":13.32478367010728}}},"icon":"https://maps.gstatic.com/mapfiles/place_api/icons/v1/png_71/restaurant-71.png","icon_background_color":"#FF9E67","icon_mask_base_uri":"https://maps.gstatic.com/mapfiles/place_api/icons/v2/restaurant_pinlet","name":"Taverna Hellas","opening_hours":{"open_now":true},"photos":[{"height":1836,"html_attributions":["<a href=\"https://maps.google.com/maps/contrib/112177503566465227795\">Gerd</a>"],"photo_reference":"AeJbb3cWeHdSAlgVu--yj24Kjbim5P_zbza3litBIYCU9HYKTMCdiGapMW8sXf7sg1p-hrDjhF_thOSPDDOnSCHEPG6MXG8l9n8WAFcrq3-S-GaZCwSbbENpGgG-GnzDnnnFykFQ6vhKtW7JC5PzKjnH6QC3qunERtkM9ZoFsXNmg2IcF2zq","width":3264}],"place_id":"ChIJoYrVM_RQqEcRQwPF3hBlMZ8","plus_code":{"compound_code":"F8RG+GF Berlin","global_code":"9F4MF8RG+GF"},"price_level":2,"rating":4,"reference":"ChIJoYrVM_RQqEcRQwPF3hBlMZ8","types":["restaurant","food","point_of_interest","establishment"],"user_ratings_total":379},{"business_status":"OPERATIONAL","formatted_address":"Hasenheide 18, 10967 Berlin, Germany","geometry":{"location":{"lat":52.4878751,"lng":13.4198031},"viewport":{"northeast":{"lat":52.48904777989272,"lng":13.42108572989272},"southwest":{"lat":52.48634812010727,"lng":13.41838607010728}}},"icon":"https://maps.gstatic.com/mapfiles/place_api/icons/v1/png_71/restaurant-71.png","icon_background_color":"#FF9E67","icon_mask_base_uri":"https://maps.gstatic.com/mapfiles/place_api/icons/v2/restaurant_pinlet","name":"Sto Steki","opening_hours":{"open_now":false},"photos":[{"height":2976,"html_attributions":["<a href=\"https://maps.google.com/maps/contrib/116538885402308778149\">Uri Friedman</a>"],"photo_reference":"AeJbb3e___jpIWy4HkPnuPH8boY_4XpxNtxF38mIW_PsqqxpKgyLSl_OKAOjQrzaDtD3HhFs4VGAt9ekKpbjiwL7AFwPG2Lk6BIX1vLVC_C0U0s1_2kLjjJ8gRt_5iJoKJeFll-sC7Nmt7X_mz26n25mEIjny1s1pWFAl7QY1WOdx-zehFsW","width":3968}],"place_id":"ChIJecvyEchPqEcRzByczV8smk0","plus_code":{"compound_code":"FCQ9+5W Berlin","global_code":"9F4MFCQ9+5W"},"price_level":1,"rating":3.9,"reference":"ChIJecvyEchPqEcRzByczV8smk0","types":["cafe","restaurant","food","point_of_interest","establishment"],"user_ratings_total":237},{"business_status":"OPERATIONAL","formatted_address":"Friedelstraße 37, 12047 Berlin, Germany","geometry":{"location":{"lat":52.4923847,"lng":13.4276876},"viewport":{"northeast":{"lat":52.49372612989272,"lng":13.42919942989272},"southwest":{"lat":52.49102647010728,"lng":13.42649977010728}}},"icon":"https://maps.gstatic.com/mapfiles/place_api/icons/v1/png_71/restaurant-71.png","icon_background_color":"#FF9E67","icon_mask_base_uri":"https://maps.gstatic.com/mapfiles/place_api/icons/v2/restaurant_pinlet","name":"Taverna Odysseus","opening_hours":{"open_now":false},"photos":[{"height":2240,"html_attributions":["<a href=\"https://maps.google.com/maps/contrib/108423205000325973723\">Martina Häge</a>"],"photo_reference":"AeJbb3eO9AOy8I_exT7S32ve0ylqpN5n9A0nwoAIpshSNH7xhZXRvYg9z05iuS5LKS_nBihNJ1RvA5Q7cLSvTqWtkeed-XCSSXKSdel80z-GfJlQ8VWDpB1Ap81SMh54p8HkOuvyuySYHzaPxBJ3uWJEnL3kI2qqb8x7sgQxDcoMWI46WA4i","width":3968}],"place_id":"ChIJwxv9MrRPqEcRioX5SFTE7-c","plus_code":{"compound_code":"FCRH+X3 Berlin","global_code":"9F4MFCRH+X3"},"rating":3.8,"reference":"ChIJwxv9MrRPqEcRioX5SFTE7-c","types":["restaurant","food","point_of_interest","establishment"],"user_ratings_total":120}]