[{"business_status":"OPERATIONAL","formatted_address":"Auf den Häfen 12, 28757 Bremen","geometry":{"location":{"lat":53.0756038,"lng":8.821142199999999},"viewport":{"northeast":{"lat":53.07692247989272,"lng":8.822468329892722},"southwest":{"lat":53.07422282010727,"lng":8.819768670107278}}},"icon":"https://maps.gstatic.com/mapfiles/place_api/icons/v1/png_71/restaurant-71.png","icon_background_color":"#FF9E67","icon_mask_base_uri":"https://maps.gstatic.com/mapfiles/place_api/icons/v2/restaurant_pinlet","name":"Salsa Africando","opening_hours":{"open_now":false},"place_id":"ChIJNWPq3AgosUcRciHXVNGizMk","plus_code":{"compound_code":"3RGC+7F Bremen","global_code":"9F5C3RGC+7F"},"rating":5,"reference":"ChIJNWPq3AgosUcRciHXVNGizMk","types":["restaurant","food","point_of_interest","establishment"],"user_ratings_total":1},{"business_status":"OPERATIONAL","formatted_address":"Oldenburger Str. 112B, 27753 Delmenhorst","geometry":{"location":{"lat":53.0494761,"lng":8.602215},"viewport":{"northeast":{"lat":53.05079092989271,"lng":8.603496629892721},"southwest":{"lat":53.04809127010727,"lng":8.600796970107277}}},"icon":"https://maps.gstatic.com/mapfiles/place_api/icons/v1/png_71/restaurant-71.png","icon_background_color":"#FF9E67","icon_mask_base_uri":"https://maps.gstatic.com/mapfiles/place_api/icons/v2/restaurant_pinlet","name":"Bién Floram Delmenhorst","opening_hours":{"open_now":false},"photos":[{"height":2976,"html_attributions":["<a href=\"https://maps.google.com/maps/contrib/117883167119840955037\">Judy Daniel</a>"],"photo_reference":"AeJbb3dnL3i5AnV_qXZ8duiF3bVxr9dmSyXIktdpt07wgB-7i6VNIhihdmITFxqjXs-06IFE8-NbsDS6f4nqnSmlYKDa8GBUCSEdIR7ASNZqjgJU7Sg8nFiFkCGXy-fu8fw0Kop8mzdbIScwSP6LQ6m9p3XCJQoNwmxrj7jYzUF5PADQMYjs","width":3968}],"place_id":"ChIJB4D3S1HVsEcR5VNziXIspfA","plus_code":{"compound_code":"2JX2+QV Delmenhorst","global_code":"9F5C2JX2+QV"},"rating":4.8,"reference":"ChIJB4D3S1HVsEcR5VNziXIspfA","types":["meal_takeaway","restaurant","food","point_of_interest","establishment"],"user_ratings_total":25},{"business_status":"OPERATIONAL","formatted_address":"Gröpelinger Heerstraße 115, 28237 Bremen","geometry":{"location":{"lat":53.1131464,"lng":8.7652515},"viewport":{"northeast":{"lat":53.11442787989272,"lng":8.76650117989272},"southwest":{"lat":53.11172822010728,"lng":8.763801520107275}}},"icon":"https://maps.gstatic.com/mapfiles/place_api/icons/v1/png_71/restaurant-71.png","icon_background_color":"#FF9E67","icon_mask_base_uri":"https://maps.gstatic.com/mapfiles/place_api/icons/v2/restaurant_pinlet","name":"Restaurant Poseidon","opening_hours":{"open_now":true},"photos":[{"height":4032,"html_attributions":["<a href=\"https://maps.google.com/maps/contrib/106413195656802115397\">Jessica Biesty</a>"],"photo_reference":"AeJbb3d4XzseeQOZ7WYH3cmqpmvamzrlF5mdNnGBWIh5Ma96omC3kBlqTBaOuc3PM95_m2PU_atvyehRtiUWTU3DYUxyMEW-tRAELq5NJK-nFAWUW4wzhiohOsB23N10KU1VTWcPnz-HGvg47dSGyG-PTUB4TLIMuKht6fsbbojk07tPNPE","width":2268}],"place_id":"ChIJadpJbQgpsUcR4oMnhzMfEnA","plus_code":{"compound_code":"4Q78+74 Bremen","global_code":"9F5C4Q78+74"},"price_level":1,"rating":4.6,"reference":"ChIJadpJbQgpsUcR4oMnhzMfEnA","types":["restaurant","food","point_of_interest","establishment"],"user_ratings_total":734},{"business_status":"OPERATIONAL","formatted_address":"Am Hulsberg 1, 28205 Bremen","geometry":{"location":{"lat":53.0721315,"lng":8.8429818},"viewport":{"northeast":{"lat":53.07354012989273,"lng":8.844372979892722},"southwest":{"lat":53.07084047010728,"lng":8.841673320107278}}},"icon":"https://maps.gstatic.com/mapfiles/place_api/icons/v1/png_71/restaurant-71.png","icon_background_color":"#FF9E67","icon_mask_base_uri":"https://maps.gstatic.com/mapfiles/place_api/icons/v2/restaurant_pinlet","name":"Kamayan Restaurant","opening_hours":{"open_now":false},"photos":[{"height":4608,"html_attributions":["<a href=\"https://maps.google.com/maps/contrib/104733571103837480087\">Sarah Thürk</a>"],"photo_reference":"AeJbb3f8KBriHSP-qIt389fpGbLzDjL3D4IlJrnPEaU4ZRj_bBVVnm3uIw_u0m36cYFxHck04HzsYdD99R2Lvu5VOlwzgfA06GpTCykKJJtRWtVKw9kqPaTetiC9DlU3F8UPpTZyO3raGlIIf9YDjnvhnuj7OoXpG2Juzieu9qQ5QymQ3Y0x","width":3456}],"place_id":"ChIJz9HaIvAnsUcRE-6O-b8Jedo","plus_code":{"compound_code":"3RCV+R5 Bremen","global_code":"9F5C3RCV+R5"},"price_level":2,"rating":4.6,"reference":"ChIJz9HaIvAnsUcRE-6O-b8Jedo","types":["restaurant","food","point_of_interest","establishment"],"user_ratings_total":430},{"business_status":"OPERATIONAL","formatted_address":"Elisabethstraße 118, 28217 Bremen","geometry":{"location":{"lat":53.0962244,"lng":8.7840423},"viewport":{"northeast":{"lat":53.09766032989272,"lng":8.785323279892722},"southwest":{"lat":53.09496067010728,"lng":8.782623620107278}}},"icon":"https://maps.gstatic.com/mapfiles/place_api/icons/v1/png_71/restaurant-71.png","icon_background_color":"#FF9E67","icon_mask_base_uri":"https://maps.gstatic.com/mapfiles/place_api/icons/v2/restaurant_pinlet","name":"Mataa's Kitchen","opening_hours":{"open_now":false},"photos":[{"height":5741,"html_attributions":["<a href=\"https://maps.google.com/maps/contrib/107733957082858327986\">A Google User</a>"],"photo_reference":"AeJbb3fLi9rF_-MhyqutByvjEWnh5Ur2YBN_4VzHN7XaimVD-VTfWoUAkYD8zNcXYDEH-AVBYr_8E61VBAEZsVgm07U6oQLKp0sDO9YQ9NLtx-X7ICRXKUkbLrSjMcEPyOYfROas-9tu_mEMAmK_c4mUyRv6hviFATnFcHChy5TgM97PIrF5","width":3814}],"place_id":"ChIJh4AJR5spsUcRAPjPCsa9nZA","plus_code":{"compound_code":"3QWM+FJ Bremen","global_code":"9F5C3QWM+FJ"},"rating":4.6,"reference":"ChIJh4AJR5spsUcRAPjPCsa9nZA","types":["bar","restaurant","food","point_of_interest","establishment"],"user_ratings_total":220},{"business_status":"OPERATIONAL","formatted_address":"Niedersachsendamm 16, 27751 Delmenhorst","geometry":{"location":{"lat":53.0327486,"lng":8.6590758},"viewport":{"northeast":{"lat":53.03424422989272,"lng":8.660548029892722},"southwest":{"lat":53.03154457010728,"lng":8.657848370107278}}},"icon":"https://maps.gstatic.com/mapfiles/place_api/icons/v1/png_71/shopping-71.png","icon_background_color":"#4B96F3","icon_mask_base_uri":"https://maps.gstatic.com/mapfiles/place_api/icons/v2/shopping_pinlet","name":"Arkenau Garden Center GmbH","opening_hours":{"open_now":true},"photos":[{"height":4032,"html_attributions":["<a href=\"https://maps.google.com/maps/contrib/115973098693724291168\">A Google User</a>"],"photo_reference":"AeJbb3dvbx867qYEoXphQlxXGnK-0RBpBimPlC4yusUn2lFSxmYkz6Hj5nVsb1TNJNWSrnH5PlA40pblamzCHe7Mz6bvHsQbx9IE39QPY3tmuEBssPE-QwR4J1cb8Ety4d1xoPBr2XF2zwq_DPLX_rAviDEqi6lTeB6eFhNoQgfgtnrIWhiz","width":3024}],"place_id":"ChIJHYERwrLVsEcRtqXuBGOE2Xs","plus_code":{"compound_code":"2MM5+3J Delmenhorst","global_code":"9F5C2MM5+3J"},"rating":4.5,"reference":"ChIJHYERwrLVsEcRtqXuBGOE2Xs","types":["park","store","restaurant","food","point_of_interest","establishment"],"user_ratings_total":1717},{"business_status":"OPERATIONAL","formatted_address":"Hankenstraße 20, 28195 Bremen","geometry":{"location":{"lat":53.0798909,"lng":8.800007599999999},"viewport":{"northeast":{"lat":53.08124807989272,"lng":8.801378129892719},"southwest":{"lat":53.07854842010727,"lng":8.798678470107275}}},"icon":"https://maps.gstatic.com/mapfiles/place_api/icons/v1/png_71/restaurant-71.png","icon_background_color":"#FF9E67","icon_mask_base_uri":"https://maps.gstatic.com/mapfiles/place_api/icons/v2/restaurant_pinlet","name":"Nanking","opening_hours":{"open_now":true},"photos":[{"height":2268,"html_attributions":["<a href=\"https://maps.google.com/maps/contrib/100982185585535165358\">Vivien W.</a>"],"photo_reference":"AeJbb3eOE1nrMQzP_OXm2SrYPA2QguGIVSQm6BReZaBcFlpZFG0d-jswBtwXMd8GMO0rQZSH-Q6hz1W19UsIH_vW6vYeBJ-XXUQNpe_5yxiZvhKeK1ybY2vC0qjA3MPqMsOlRs-Vbegh66IWn2txzVNZLMAAHGcdT9XBjKS-FK1zsjrw-OqL","width":4032}],"place_id":"ChIJCf0iPRYosUcR94Dv2Snr1IU","plus_code":{"compound_code":"3QHX+XX Bremen","global_code":"9F5C3QHX+XX"},"price_level":2,"rating":4.5,"reference":"ChIJCf0iPRYosUcR94Dv2Snr1IU","types":["restaurant","food","point_of_interest","establishment"],"user_ratings_total":978},{"business_status":"OPERATIONAL","formatted_address":"Bremer Str. 62, 27749 Delmenhorst","geometry":{"location":{"lat":53.0530103,"lng":8.6437177},"viewport":{"northeast":{"lat":53.05429367989272,"lng":8.645099229892724},"southwest":{"lat":53.05159402010727,"lng":8.64239957010728}}},"icon":"https://maps.gstatic.com/mapfiles/place_api/icons/v1/png_71/restaurant-71.png","icon_background_color":"#FF9E67","icon_mask_base_uri":"https://maps.gstatic.com/mapfiles/place_api/icons/v2/restaurant_pinlet","name":"La Gondola","opening_hours":{"open_now":true},"photos":[{"height":2322,"html_attributions":["<a href=\"https://maps.google.com/maps/contrib/110934620404310648572\">Reinhard Geck</a>"],"photo_reference":"AeJbb3eFgqzfXoF5F9wU3E_O4e6tybRb_oTyIngw4OD1MnsI76deRm9ctG03YpcXIDnaKY35iyzrSy9UShN923axtGQ3GLYEmKoTyPCk5EN_q7OxEMfNGqOqPmw99Xu5k1mMCvNiw6ECrcoDCsW2k-jHgAcUUnJjqTOJwmS4qRsZ7oACVDfR","width":4128}],"place_id":"ChIJ_Sd73yLVsEcRYTt-2jdhxpU","plus_code":{"compound_code":"3J3V+6F Delmenhorst","global_code":"9F5C3J3V+6F"},"rating":4.5,"reference":"ChIJ_Sd73yLVsEcRYTt-2jdhxpU","types":["restaurant","food","point_of_interest","establishment"],"user_ratings_total":389},{"business_status":"OPERATIONAL","formatted_address":"Langemarckstraße 128, 28199 Bremen","geometry":{"location":{"lat":53.0713234,"lng":8.7898482},"viewport":{"northeast":{"lat":53.07265092989272,"lng":8.791138979892722},"southwest":{"lat":53.06995127010728,"lng":8.788439320107278}}},"icon":"https://maps.gstatic.com/mapfiles/place_api/icons/v1/png_71/restaurant-71.png","icon_background_color":"#FF9E67","icon_mask_base_uri":"https://maps.gstatic.com/mapfiles/place_api/icons/v2/restaurant_pinlet","name":"Mommie's Corner","opening_hours":{"open_now":false},"photos":[{"height":2592,"html_attributions":["<a href=\"https://maps.google.com/maps/contrib/116178186250642358087\">emmanuel chima</a>"],"photo_reference":"AeJbb3f4XWbNmgQ2ajPqb5CyUpfCZV3zgmMN35UgirJxy0_LO0_k97jK68IP7AVTvo-JMtyVpFaHQ-hE6R3frLSS49A0FEOkENpccFkyQtmhYcDb3xo_LxhT7-eKJi3CWKEpjvJZxQU7S6YZhLuK4VRRmbqZHCDqP3NNvPeYu2CgBu7iYcn4","width":4608}],"place_id":"ChIJJzNZVCEosUcR9U7Fbe_k84U","plus_code":{"compound_code":"3QCQ+GW Bremen","global_code":"9F5C3QCQ+GW"},"price_level":1,"rating":4.5,"reference":"ChIJJzNZVCEosUcR9U7Fbe_k84U","types":["restaurant","food","point_of_interest","establishment"],"user_ratings_total":387},{"business_status":"OPERATIONAL","formatted_address":"Hankenstraße 27, 28195 Bremen","geometry":{"location":{"lat":53.0797531,"lng":8.799521300000002},"viewport":{"northeast":{"lat":53.08107112989272,"lng":8.800927729892722},"southwest":{"lat":53.07837147010728,"lng":8.798228070107278}}},"icon":"https://maps.gstatic.com/mapfiles/place_api/icons/v1/png_71/restaurant-71.png","icon_background_color":"#FF9E67","icon_mask_base_uri":"https://maps.gstatic.com/mapfiles/place_api/icons/v2/restaurant_pinlet","name":"Christy's","opening_hours":{"open_now":false},"photos":[{"height":3024,"html_attributions":["<a href=\"https://maps.google.com/maps/contrib/110514842053794933448\">A Google User</a>"],"photo_reference":"AeJbb3cmHc5cnJXf869--rzWud9mW2UC15KLSF0ANtpK2fvpVkYqVGQZ7WQv83tQe1qk98AOOtUBqjuQlE5JiUxe0eg1M4m41O3EFWLIbmEtfvfO_Dwd8EVip8X7cuS6qfyLj3OHX7m4G6Qr8E0SHwHjnIwx7xe52rUvJBUmdRdvOwloIRUV","width":4032}],"place_id":"ChIJhxtiJxYosUcRuG9hyGeaZH0","plus_code":{"compound_code":"3QHX+WR Bremen","global_code":"9F5C3QHX+WR"},"rating":4.4,"reference":"ChIJhxtiJxYosUcRuG9hyGeaZH0","types":["restaurant","food","point_of_interest","establishment"],"user_ratings_total":100},{"business_status":"OPERATIONAL","formatted_address":"Waller Heestraße 7, 28217 Bremen","geometry":{"location":{"lat":53.0969697,"lng":8.789962599999999},"viewport":{"northeast":{"lat":53.09829872989272,"lng":8.791249079892722},"southwest":{"lat":53.09559907010728,"lng":8.788549420107277}}},"icon":"https://maps.gstatic.com/mapfiles/place_api/icons/v1/png_71/shopping-71.png","icon_background_color":"#4B96F3","icon_mask_base_uri":"https://maps.gstatic.com/mapfiles/place_api/icons/v2/shoppingcart_pinlet","name":"Rosis Mix Shop & Kiosk","opening_hours":{"open_now":true},"photos":[{"height":3000,"html_attributions":["<a href=\"https://maps.google.com/maps/contrib/106803172793603688738\">A Google User</a>"],"photo_reference":"AeJbb3fBqg9mi8GW7UKxR2gnQsc48BkrRyOFae21x55dYiszRhYT7ApB0dTqJrlhp5nD8hmn3XtzKg-tLLTReuvQldl9xzz_p49IqrUXdDnp2CeLs1fKHK5uy7lhxyaQjop7KSi5kph3kZJmzu84ZB7a_8P8SIxTduDymWRw3dUzxFvpG9x0","width":4000}],"place_id":"ChIJefiS_kgpsUcRTBHPN2snxHA","plus_code":{"compound_code":"3QWQ+QX Bremen","global_code":"9F5C3QWQ+QX"},"rating":4.1,"reference":"ChIJefiS_kgpsUcRTBHPN2snxHA","types":["grocery_or_supermarket","store","restaurant","food","point_of_interest","establishment"],"user_ratings_total":10}]