[{"business_status":"OPERATIONAL","formatted_address":"Kleine Westerholzstraße 28, 28309 Bremen","geometry":{"location":{"lat":53.0525974,"lng":8.891932500000001},"viewport":{"northeast":{"lat":53.05393987989272,"lng":8.89326092989272},"southwest":{"lat":53.05124022010727,"lng":8.890561270107277}}},"icon":"https://maps.gstatic.com/mapfiles/place_api/icons/v1/png_71/restaurant-71.png","icon_background_color":"#FF9E67","icon_mask_base_uri":"https://maps.gstatic.com/mapfiles/place_api/icons/v2/restaurant_pinlet","name":"Sava Bar","photos":[{"height":2992,"html_attributions":["<a href=\"https://maps.google.com/maps/contrib/112440783756678145075\">Eddy Bond</a>"],"photo_reference":"AeJbb3dCFQkqajtmZDl4aa97RjgluIYMUXGR-cEGqkEYpOl4jN54OeQ4uujIHTt0d5Vn0UMNZyfD3UyjN9HVnyO3x4m74XHRl8qmPW8Jiev8z3Vxl8AKt35TeoqioTq7l1yLLiIzKs4Mo-QWqfIlvRLs9EBZaO6WNF8Zit9cCoopWNVrHFpA","width":2522}],"place_id":"ChIJxaAcefXZsEcRN0svmUip2B8","plus_code":{"compound_code":"3V3R+2Q Bremen","global_code":"9F5C3V3R+2Q"},"rating":5,"reference":"ChIJxaAcefXZsEcRN0svmUip2B8","types":["restaurant","point_of_interest","food","establishment"],"user_ratings_total":1},{"business_status":"OPERATIONAL","formatted_address":"BAB MARIA, Domshof 8-12, 28195 Bremen","geometry":{"location":{"lat":53.0758063,"lng":8.8102281},"viewport":{"northeast":{"lat":53.07721887989272,"lng":8.81187202989272},"southwest":{"lat":53.07451922010728,"lng":8.809172370107277}}},"icon":"https://maps.gstatic.com/mapfiles/place_api/icons/v1/png_71/restaurant-71.png","icon_background_color":"#FF9E67","icon_mask_base_uri":"https://maps.gstatic.com/mapfiles/place_api/icons/v2/restaurant_pinlet","name":"„BAB‘ MARIA“ Ukrainische/ Українська Кухня / Ukrainian food","opening_hours":{"open_now":true},"photos":[{"height":3456,"html_attributions":["<a href=\"https://maps.google.com/maps/contrib/109237963160965700557\">A Google User</a>"],"photo_reference":"AeJbb3dy3FKvu1nhubtzb-6lXvmi06qRy1jtzNoJAsMEkOaxYaE9U6yY-GvEftklbcgPFUnYNR40DAV0Na_dcMZwAKUw0H8aUw70jMCOLUpbQQ5fenfu_Ol5NF0IlMczxcz062uwl23LB_m1AQSyt5fx912EhV3hntTDFqpDJlYI6lSVbHBm","width":4608}],"place_id":"ChIJpegnxJgpsUcRR7cW4jF_wP8","plus_code":{"compound_code":"3RG6+83 Bremen","global_code":"9F5C3RG6+83"},"rating":4.9,"reference":"ChIJpegnxJgpsUcRR7cW4jF_wP8","types":["restaurant","point_of_interest","food","establishment"],"user_ratings_total":59},{"business_status":"OPERATIONAL","formatted_address":"Kleine Westerholzstraße 28, 28309 Bremen","geometry":{"location":{"lat":53.052633,"lng":8.891905099999999},"viewport":{"northeast":{"lat":53.05398027989273,"lng":8.893254829892722},"southwest":{"lat":53.05128062010728,"lng":8.890555170107278}}},"icon":"https://maps.gstatic.com/mapfiles/place_api/icons/v1/png_71/bar-71.png","icon_background_color":"#FF9E67","icon_mask_base_uri":"https://maps.gstatic.com/mapfiles/place_api/icons/v2/bar_pinlet","name":"Ehlikeyif","opening_hours":{"open_now":true},"photos":[{"height":1457,"html_attributions":["<a href=\"https://maps.google.com/maps/contrib/105129559205335413654\">A Google User</a>"],"photo_reference":"AeJbb3dgvqfw5r6fCG6aKu11xI6I8B340BIYuxJYBBeEIeKiO-qj92rGztnmitXHGDoOvdQRVz0YMqKnGEyFAa2907QM70eN3btoYc89ZEpn397zTaiKWACYRkuD8_3ZH8yTwSN6iyRJTMu7XnCgo3OTbSQp2sToK5Db9C9v1R1Bh0XzIF1b","width":1170}],"place_id":"ChIJiW5-QTfZsEcR5I-gbXT0hvs","plus_code":{"compound_code":"3V3R+3Q Bremen","global_code":"9F5C3V3R+3Q"},"rating":4.8,"reference":"ChIJiW5-QTfZsEcR5I-gbXT0hvs","types":["bar","restaurant","point_of_interest","food","establishment"],"user_ratings_total":9},{"business_status":"OPERATIONAL","formatted_address":"Gertrudenstraße 37, 28203 Bremen","geometry":{"location":{"lat":53.07580410000001,"lng":8.8218965},"viewport":{"northeast":{"lat":53.07713797989272,"lng":8.823285679892722},"southwest":{"lat":53.07443832010728,"lng":8.820586020107278}}},"icon":"https://maps.gstatic.com/mapfiles/place_api/icons/v1/png_71/restaurant-71.png","icon_background_color":"#FF9E67","icon_mask_base_uri":"https://maps.gstatic.com/mapfiles/place_api/icons/v2/restaurant_pinlet","name":"Bandonion","opening_hours":{"open_now":false},"photos":[{"height":4160,"html_attributions":["<a href=\"https://maps.google.com/maps/contrib/114033020025940560861\">A Google User</a>"],"photo_reference":"AeJbb3cYHg3W-cvb8sI1uX1g_sZvyFlNcPYj5AlGh35m4AnNYHtp9-EiVISLZ8-h1dkWC_iWy3WvwTtgCtEkPO6iCwper2reuZX6F-0slySRjocrnxztwfqQ6tbghaoK9GlI9zeMf868425zTSoGuPU2RvLzWxx-aKLWTIAtFTCbl638ckQO","width":3120}],"place_id":"ChIJ22o8vggosUcRxXPYufXfxl4","plus_code":{"compound_code":"3RGC+8Q Bremen","global_code":"9F5C3RGC+8Q"},"price_level":2,"rating":4.5,"reference":"ChIJ22o8vggosUcRxXPYufXfxl4","types":["restaurant","point_of_interest","food","establishment"],"user_ratings_total":211},{"business_status":"OPERATIONAL","formatted_address":"Fangturm 2, 28195 Bremen","geometry":{"location":{"lat":53.079228,"lng":8.7980062},"viewport":{"northeast":{"lat":53.08054607989272,"lng":8.799417929892721},"southwest":{"lat":53.07784642010727,"lng":8.796718270107277}}},"icon":"https://maps.gstatic.com/mapfiles/place_api/icons/v1/png_71/restaurant-71.png","icon_background_color":"#FF9E67","icon_mask_base_uri":"https://maps.gstatic.com/mapfiles/place_api/icons/v2/restaurant_pinlet","name":"Sakura Sushi","opening_hours":{"open_now":true},"photos":[{"height":2160,"html_attributions":["<a href=\"https://maps.google.com/maps/contrib/111016321965231663057\">Lea jensch</a>"],"photo_reference":"AeJbb3fFCVYAeHpkJctNbCeWVzTPUjP-_cRZ4iJqo0hJF71AN2VwW9_jzbSJFxPqFk1jOpR5WOtI_bjQD4Q6sx53rPA5yE3B1QFa9YQfg7dMh4mkuBNU_MeZVlZD1rN98L6RcB7IxZ0NtPOOE2n-jrlCoyRGP7Cd1mJHGLqWRNAJJxnE-UWF","width":3840}],"place_id":"ChIJNdGgnj0osUcRnPsyWVhEA4w","plus_code":{"compound_code":"3QHX+M6 Bremen","global_code":"9F5C3QHX+M6"},"price_level":2,"rating":4.4,"reference":"ChIJNdGgnj0osUcRnPsyWVhEA4w","types":["restaurant","point_of_interest","food","establishment"],"user_ratings_total":1077},{"business_status":"OPERATIONAL","formatted_address":"Vor dem Steintor 208, 28203 Bremen","geometry":{"location":{"lat":53.0710165,"lng":8.832772900000002},"viewport":{"northeast":{"lat":53.07231627989272,"lng":8.834116879892724},"southwest":{"lat":53.06961662010727,"lng":8.83141722010728}}},"icon":"https://maps.gstatic.com/mapfiles/place_api/icons/v1/png_71/restaurant-71.png","icon_background_color":"#FF9E67","icon_mask_base_uri":"https://maps.gstatic.com/mapfiles/place_api/icons/v2/restaurant_pinlet","name":"KALINKA Russisches Bistro","opening_hours":{"open_now":true},"photos":[{"height":1960,"html_attributions":["<a href=\"https://maps.google.com/maps/contrib/108339883817088320504\">Sergey Lazarev</a>"],"photo_reference":"AeJbb3dgrM3S6mrHxr4YjhJ03zp3HPGBlam15X6Lq7hW-N1BeccKlYL_cLqJGC4A3XvBpD-4MQ2WXtg2yTbsl2T65VOqF3wsan4iqSRi9CbzrYTaDHxoLMeTw1z_p8bjLb65Vp5YDgknCmFfyOiL8CmmB_JxFRP25qHKcPkzSgQZ_E6opkNA","width":4032}],"place_id":"ChIJyQ2WgPwnsUcRZsJ_7NDP0f8","plus_code":{"compound_code":"3RCM+C4 Bremen","global_code":"9F5C3RCM+C4"},"rating":4.4,"reference":"ChIJyQ2WgPwnsUcRZsJ_7NDP0f8","types":["restaurant","point_of_interest","food","establishment"],"user_ratings_total":132},{"business_status":"OPERATIONAL","formatted_address":"Am Weser-Terminal 8, 28217 Bremen","geometry":{"location":{"lat":53.08194,"lng":8.7876371},"viewport":{"northeast":{"lat":53.08337537989271,"lng":8.789057179892723},"southwest":{"lat":53.08067572010727,"lng":8.786357520107279}}},"icon":"https://maps.gstatic.com/mapfiles/place_api/icons/v1/png_71/restaurant-71.png","icon_background_color":"#FF9E67","icon_mask_base_uri":"https://maps.gstatic.com/mapfiles/place_api/icons/v2/restaurant_pinlet","name":"CHILLI CLUB Bremen GmbH","opening_hours":{"open_now":true},"photos":[{"height":2268,"html_attributions":["<a href=\"https://maps.google.com/maps/contrib/114784557555913523099\">Eike R.</a>"],"photo_reference":"AeJbb3fVFyHy_pXRMtyWWt6lWYLcmUGyMdOyydIldmqnjotRjStHNR-qqT0ChpeerUsa9fpiadMTBQSZLNAN-Ub4uB1281HAt07yRw-IDGAQMmR48zQ0fb6frs8INVfhOCwl0Bz78l2GMhiE7Jvn32cqRc_jgoOMABRK_Dchd8rgEPE6Bqcu","width":4032}],"place_id":"ChIJ_dibDzoosUcRoEx-IVMt6uI","plus_code":{"compound_code":"3QJQ+Q3 Bremen","global_code":"9F5C3QJQ+Q3"},"price_level":3,"rating":4.2,"reference":"ChIJ_dibDzoosUcRoEx-IVMt6uI","types":["restaurant","meal_takeaway","bar","point_of_interest","food","establishment"],"user_ratings_total":1700},{"business_status":"OPERATIONAL","formatted_address":"Carl-Ronning-Straße 1, 28195 Bremen","geometry":{"location":{"lat":53.0779418,"lng":8.8069159},"viewport":{"northeast":{"lat":53.07929737989272,"lng":8.80825597989272},"southwest":{"lat":53.07659772010728,"lng":8.805556320107277}}},"icon":"https://maps.gstatic.com/mapfiles/place_api/icons/v1/png_71/restaurant-71.png","icon_background_color":"#FF9E67","icon_mask_base_uri":"https://maps.gstatic.com/mapfiles/place_api/icons/v2/restaurant_pinlet","name":"Achim’s Beck’shaus","opening_hours":{"open_now":true},"photos":[{"height":4000,"html_attributions":["<a href=\"https://maps.google.com/maps/contrib/102909523665303788189\">MrSolidsolution</a>"],"photo_reference":"AeJbb3c48nZzRQqKdP83Huux5QObcH-Iiti1A9p6H93jjsxq0-KKbKIX2zoH_R7v7YBwnXTiP9atH6JqvyspxL0LoJWep9XWNrBLCyI6f7cDO9ZnJ89finY4S3AV29-u1vlQom8NUbSyoLc78nBxPDUNf91gz9_gtm5Hfm8wxA5GuGzcN9Vh","width":6000}],"place_id":"ChIJI-JuJhEosUcRqeZeaTrTrPU","plus_code":{"compound_code":"3RH4+5Q Bremen","global_code":"9F5C3RH4+5Q"},"price_level":2,"rating":4.2,"reference":"ChIJI-JuJhEosUcRqeZeaTrTrPU","types":["restaurant","point_of_interest","food","establishment"],"user_ratings_total":1284},{"business_status":"OPERATIONAL","formatted_address":"Schlachte 30A, 28195 Bremen","geometry":{"location":{"lat":53.0776782,"lng":8.8005497},"viewport":{"northeast":{"lat":53.07912552989273,"lng":8.80201207989272},"southwest":{"lat":53.07642587010728,"lng":8.799312420107276}}},"icon":"https://maps.gstatic.com/mapfiles/place_api/icons/v1/png_71/restaurant-71.png","icon_background_color":"#FF9E67","icon_mask_base_uri":"https://maps.gstatic.com/mapfiles/place_api/icons/v2/restaurant_pinlet","name":"Kangaroo Island Bremen","opening_hours":{"open_now":false},"photos":[{"height":4000,"html_attributions":["<a href=\"https://maps.google.com/maps/contrib/103784870866661296132\">Uffe Welander</a>"],"photo_reference":"AeJbb3cE8Sdxyepa5dbZftEfffRdzJLGF1KIY2U2JgeuBN4ZkECU5hruYrRCRNcppWHeJesQbe3jqzHNpyCmzrjbgGiZ-3y_IGQAedUyMquDpY8iNo7OleYx0z1e7JKaxUWPXxqt8feNPEtw8NLhPjv5wjtEMt0yGWSRble8s97-7l-Hi29T","width":3000}],"place_id":"ChIJC1_rvxcosUcRxN1dYrRsHoI","plus_code":{"compound_code":"3RH2+36 Bremen","global_code":"9F5C3RH2+36"},"price_level":2,"rating":4.2,"reference":"ChIJC1_rvxcosUcRxN1dYrRsHoI","types":["restaurant","point_of_interest","food","establishment"],"user_ratings_total":374},{"business_status":"OPERATIONAL","formatted_address":"Liegnitzstraße 38, 28237 Bremen","geometry":{"location":{"lat":53.1123567,"lng":8.755042699999999},"viewport":{"northeast":{"lat":53.11380282989273,"lng":8.75635242989272},"southwest":{"lat":53.11110317010728,"lng":8.753652770107276}}},"icon":"https://maps.gstatic.com/mapfiles/place_api/icons/v1/png_71/restaurant-71.png","icon_background_color":"#FF9E67","icon_mask_base_uri":"https://maps.gstatic.com/mapfiles/place_api/icons/v2/restaurant_pinlet","name":"RESTAURANT CAPRICE","opening_hours":{"open_now":true},"photos":[{"height":709,"html_attributions":["<a href=\"https://maps.google.com/maps/contrib/113805122916846678524\">A Google User</a>"],"photo_reference":"AeJbb3eZefcamLuYBDd_YNaTX31ns9A8wtPJ2lHWuSh3WpyaQMmomZfvy748Xywc4Yok98-f7dWHUsLzHSZs23pTFD5R4pex3lFtC4CM6JpjhrDCW9cfx-PjS0gYsAw9p5izm1iz6POxB2AWQessF9vYRZQLY4zdYb0jgaiCdrEt3W9-iokm","width":1080}],"place_id":"ChIJZ_rUS6QpsUcRj982spZZPPM","plus_code":{"compound_code":"4Q64+W2 Bremen","global_code":"9F5C4Q64+W2"},"rating":4.1,"reference":"ChIJZ_rUS6QpsUcRj982spZZPPM","types":["restaurant","point_of_interest","food","establishment"],"user_ratings_total":56}]