[{"business_status":"OPERATIONAL","formatted_address":"Piotrkowska, 90-001 Łódź","geometry":{"location":{"lat":51.7718621,"lng":19.4559525},"viewport":{"northeast":{"lat":51.77361267989272,"lng":19.45712352989272},"southwest":{"lat":51.77091302010728,"lng":19.45442387010727}}},"icon":"https://maps.gstatic.com/mapfiles/place_api/icons/v1/png_71/restaurant-71.png","icon_background_color":"#FF9E67","icon_mask_base_uri":"https://maps.gstatic.com/mapfiles/place_api/icons/v2/restaurant_pinlet","name":"Food truck High420Wheels","opening_hours":{"open_now":true},"photos":[{"height":1200,"html_attributions":["<a href=\"https://maps.google.com/maps/contrib/103843521666914973731\">A Google User</a>"],"photo_reference":"AeJbb3cLC4wmjnLJt3CRww5s0MbsylljTX9e8gL36xckjypAz9o9SsXd9ulYuegaizOOHGMxnJJ85XH69LDSZkrsKWwjOU1aK9TUYaZuUyJbstkXsk-SFNjKX-sFCGVMuBcYX4asZurbqAV4URg2Ks5u0_6KG3-S7FkdKyfBksvOkh8caMnJ","width":1200}],"place_id":"ChIJjU6P9vnLG0cRRxcc_cesmwc","plus_code":{"compound_code":"QFC4+P9 Łódź","global_code":"9F3XQFC4+P9"},"rating":5,"reference":"ChIJjU6P9vnLG0cRRxcc_cesmwc","types":["restaurant","food","point_of_interest","establishment"],"user_ratings_total":1},{"business_status":"OPERATIONAL","formatted_address":"Stefana Rogozińskiego 6, 93-503 Łódź","geometry":{"location":{"lat":51.7328432,"lng":19.4475625},"viewport":{"northeast":{"lat":51.73428117989272,"lng":19.44891617989272},"southwest":{"lat":51.73158152010728,"lng":19.44621652010727}}},"icon":"https://maps.gstatic.com/mapfiles/place_api/icons/v1/png_71/restaurant-71.png","icon_background_color":"#FF9E67","icon_mask_base_uri":"https://maps.gstatic.com/mapfiles/place_api/icons/v2/restaurant_pinlet","name":"Punkt gastronomiczny","photos":[{"height":1931,"html_attributions":["<a href=\"https://maps.google.com/maps/contrib/100069156047028690799\">A Google User</a>"],"photo_reference":"AeJbb3e0xZbYK2SrKmELz-Va_eJ2xyovd0ehYMIb6GLjxpkza36RalyVsI5m82U6LavrdETby_S1cYHlV8Zo5EmPUvnMaRXbyZvJ4dOtI7RuDXYAFP90Vgc9OdaIUNzVIJpntPNVtBLDshBg9YxyxnCevLbsev9ic0ydajCG7ed0TByBemvV","width":2641}],"place_id":"ChIJ--euBac1GkcRdsfCdFGDLZY","plus_code":{"compound_code":"PCMX+42 Łódź","global_code":"9F3XPCMX+42"},"rating":5,"reference":"ChIJ--euBac1GkcRdsfCdFGDLZY","types":["restaurant","point_of_interest","food","establishment"],"user_ratings_total":1},{"business_status":"OPERATIONAL","formatted_address":"Łąkowa 11, 90-562 Łódź","geometry":{"location":{"lat":51.7616483,"lng":19.4398863},"viewport":{"northeast":{"lat":51.76296247989272,"lng":19.44114787989272},"southwest":{"lat":51.76026282010728,"lng":19.43844822010728}}},"icon":"https://maps.gstatic.com/mapfiles/place_api/icons/v1/png_71/bar-71.png","icon_background_color":"#FF9E67","icon_mask_base_uri":"https://maps.gstatic.com/mapfiles/place_api/icons/v2/bar_pinlet","name":"Zestaw Obowiązkowy","opening_hours":{"open_now":true},"photos":[{"height":2577,"html_attributions":["<a href=\"https://maps.google.com/maps/contrib/106818865251537726744\">A Google User</a>"],"photo_reference":"AeJbb3cSEg6nh4AJ1IwFHkRfhqL3eoajz_Tbv-Ge0yeV_T_-Q29rtP0Q0B3W7V5C22jw7zhjaUkJF_Ljcvcl3j0WBC3w-g-pkQYi9Wd_sbzjRyYhIuq-Ew9g3WlGL883DJ-9qLflhk6DZP62OvK9A9F6uqwLdz0GS5UyVa8g2fbIbHR6D6yD","width":1930}],"place_id":"ChIJI6OduCbLG0cRGh89wNPcGx4","plus_code":{"compound_code":"QC6Q+MX Łódź","global_code":"9F3XQC6Q+MX"},"rating":4.9,"reference":"ChIJI6OduCbLG0cRGh89wNPcGx4","types":["bar","restaurant","food","point_of_interest","establishment"],"user_ratings_total":246},{"business_status":"OPERATIONAL","formatted_address":"plac Słoneczny, 91-498 Łódź","geometry":{"location":{"lat":51.8206263,"lng":19.4424108},"viewport":{"northeast":{"lat":51.82196492989272,"lng":19.44393367989272},"southwest":{"lat":51.81926527010728,"lng":19.44123402010728}}},"icon":"https://maps.gstatic.com/mapfiles/place_api/icons/v1/png_71/restaurant-71.png","icon_background_color":"#FF9E67","icon_mask_base_uri":"https://maps.gstatic.com/mapfiles/place_api/icons/v2/restaurant_pinlet","name":"New York HOT DOG","opening_hours":{"open_now":true},"photos":[{"height":2160,"html_attributions":["<a href=\"https://maps.google.com/maps/contrib/116832710246993812073\">A Google User</a>"],"photo_reference":"AeJbb3cdrCZY3bNcH0I4N7VBxSfw3xPg29FEtiivgqhj1J3cXyHEf1njFbHp13UOVuTQQpCk9WjrCw31BtOyvq70RQa_B23QH6dHAQciQU9fvlvf4cB-d1BjuRxXSVJvyIfF43Lk4L6u_Vf4BYSF8U4spsLq5pEvOeM3CEzWSA10RhgUX12g","width":3840}],"place_id":"ChIJJWEBENbLG0cR_8noRyQ1Bzg","plus_code":{"compound_code":"RCCR+7X Łódź","global_code":"9F3XRCCR+7X"},"rating":4.9,"reference":"ChIJJWEBENbLG0cR_8noRyQ1Bzg","types":["restaurant","point_of_interest","food","establishment"],"user_ratings_total":8},{"business_status":"OPERATIONAL","formatted_address":"Piotrkowska 30/32, 91-001 Łódź","geometry":{"location":{"lat":51.77310960000001,"lng":19.4560261},"viewport":{"northeast":{"lat":51.77426627989272,"lng":19.45716477989272},"southwest":{"lat":51.77156662010728,"lng":19.45446512010728}}},"icon":"https://maps.gstatic.com/mapfiles/place_api/icons/v1/png_71/restaurant-71.png","icon_background_color":"#FF9E67","icon_mask_base_uri":"https://maps.gstatic.com/mapfiles/place_api/icons/v2/restaurant_pinlet","name":"Pauza (hamburgery z Placu Wolności)","opening_hours":{"open_now":true},"photos":[{"height":4624,"html_attributions":["<a href=\"https://maps.google.com/maps/contrib/112023412241603700075\">Tomasz Rajnert</a>"],"photo_reference":"AeJbb3cyD0ORRZ5E0cqlbv4qjwnkmEwg8ipb2OEMUR1v-ZGHzOsjhDIrnI9C9pyV9aOoDNEhqe42VTsVUZ4UsTSMxgv_nzJpelgEkJrDId4B0NxCxdjSOaKZHQaW7DyecVmEatzfoIoWfp6VZ9xkfOvgRCNe4ogG2uBx9UZXx8A4T96syst7","width":3468}],"place_id":"ChIJw0XDisfLG0cR8FaojO9hmTs","plus_code":{"compound_code":"QFF4+6C Łódź","global_code":"9F3XQFF4+6C"},"rating":4.9,"reference":"ChIJw0XDisfLG0cR8FaojO9hmTs","types":["restaurant","food","point_of_interest","establishment"],"user_ratings_total":7},{"business_status":"OPERATIONAL","formatted_address":"Piotrkowska 93, 90-423 Łódź","geometry":{"location":{"lat":51.7658323,"lng":19.456821},"viewport":{"northeast":{"lat":51.76705057989272,"lng":19.45833632989272},"southwest":{"lat":51.76435092010728,"lng":19.45563667010728}}},"icon":"https://maps.gstatic.com/mapfiles/place_api/icons/v1/png_71/restaurant-71.png","icon_background_color":"#FF9E67","icon_mask_base_uri":"https://maps.gstatic.com/mapfiles/place_api/icons/v2/restaurant_pinlet","name":"Centralna Gastromachina","opening_hours":{"open_now":true},"photos":[{"height":3024,"html_attributions":["<a href=\"https://maps.google.com/maps/contrib/118221696314498489097\">Karol Koziara</a>"],"photo_reference":"AeJbb3dC6fuNkbiKqKMMPrkla20Tw94ypukvArUjTtffQLxO96wvwk31pQAfpUZ3u2yYvL0VjyUuixcrLD_l5UMLnChglW1E8vAG_L1Zo3W_MdFuA8pLD3M1ZmsX0MDviIQDqyzXuW4WGywHiFSsWpNrUaPS1jGUwdB0xu4VGyUUtKvFZHec","width":4032}],"place_id":"ChIJn03_ze_LG0cRIablnLX0cbo","plus_code":{"compound_code":"QF84+8P Łódź","global_code":"9F3XQF84+8P"},"price_level":2,"rating":4.8,"reference":"ChIJn03_ze_LG0cRIablnLX0cbo","types":["bar","restaurant","point_of_interest","food","establishment"],"user_ratings_total":398},{"business_status":"OPERATIONAL","formatted_address":"Krakowska 64, 94-214 Łódź","geometry":{"location":{"lat":51.7703154,"lng":19.4012947},"viewport":{"northeast":{"lat":51.77169107989272,"lng":19.40280477989272},"southwest":{"lat":51.76899142010728,"lng":19.40010512010728}}},"icon":"https://maps.gstatic.com/mapfiles/place_api/icons/v1/png_71/restaurant-71.png","icon_background_color":"#FF9E67","icon_mask_base_uri":"https://maps.gstatic.com/mapfiles/place_api/icons/v2/restaurant_pinlet","name":"Smaki Ulicy","opening_hours":{"open_now":true},"photos":[{"height":2725,"html_attributions":["<a href=\"https://maps.google.com/maps/contrib/112898619542680934928\">A Google User</a>"],"photo_reference":"AeJbb3e81R2tUqRrFpc_ut-pNQ66BQUt4oOtZd5_Xzx0N10UkjxivXZsA_J2Qtk4wM7rQqTyuJ_JMb6XMwIFX7H7zhAjYA3AdUo0SYr3oQA5JD3p1FXwrKDqYB3spRPiDFRfxGkDzhscwzamS8Zsu9IoTpZnM54mwTQoARtUqQeegXMF2-y_","width":4096}],"place_id":"ChIJj4ah_2LLG0cR5Ye48y4EOFg","plus_code":{"compound_code":"QCC2+4G Łódź","global_code":"9F3XQCC2+4G"},"rating":4.8,"reference":"ChIJj4ah_2LLG0cR5Ye48y4EOFg","types":["meal_delivery","meal_takeaway","restaurant","food","point_of_interest","establishment"],"user_ratings_total":101},{"business_status":"OPERATIONAL","formatted_address":"Piotrkowska 93, 90-423 Łódź","geometry":{"location":{"lat":51.7657969,"lng":19.4564115},"viewport":{"northeast":{"lat":51.76697817989272,"lng":19.45779887989272},"southwest":{"lat":51.76427852010728,"lng":19.45509922010728}}},"icon":"https://maps.gstatic.com/mapfiles/place_api/icons/v1/png_71/restaurant-71.png","icon_background_color":"#FF9E67","icon_mask_base_uri":"https://maps.gstatic.com/mapfiles/place_api/icons/v2/restaurant_pinlet","name":"Gastromachina Stacja","opening_hours":{"open_now":true},"photos":[{"height":3024,"html_attributions":["<a href=\"https://maps.google.com/maps/contrib/104582441303202790803\">Piotr Szewc</a>"],"photo_reference":"AeJbb3cuLSZc9PvxWXLZ_pSzgcGxAgvDxf6fyu96_ioockdYfGRQjH629GI26oYlPhwY7F-aDXC7weHYtT93iFhDPgnLRrNCzPGOYI3qzNaMfoU15VMrczYQMD8H8cNvl6gT_oO1HhBdwZN4PxnKTDJRZiD54sAJT8LDrt35K5kjyx_o64Fp","width":4032}],"place_id":"ChIJO-GVXdXKG0cRCB9T-j_gNlY","plus_code":{"compound_code":"QF84+8H Łódź","global_code":"9F3XQF84+8H"},"price_level":2,"rating":4.7,"reference":"ChIJO-GVXdXKG0cRCB9T-j_gNlY","types":["restaurant","food","point_of_interest","establishment"],"user_ratings_total":3125},{"business_status":"OPERATIONAL","formatted_address":"Zatoczka przed rondem na Emilii, Podleśna 1, 95-100 Rosanów","geometry":{"location":{"lat":51.90901239999999,"lng":19.3681111},"viewport":{"northeast":{"lat":51.91032937989272,"lng":19.36929482989272},"southwest":{"lat":51.90762972010728,"lng":19.36659517010728}}},"icon":"https://maps.gstatic.com/mapfiles/place_api/icons/v1/png_71/restaurant-71.png","icon_background_color":"#FF9E67","icon_mask_base_uri":"https://maps.gstatic.com/mapfiles/place_api/icons/v2/restaurant_pinlet","name":"B&B","opening_hours":{"open_now":true},"photos":[{"height":2268,"html_attributions":["<a href=\"https://maps.google.com/maps/contrib/102467375832054487129\">wrzesinski_lukasz</a>"],"photo_reference":"AeJbb3crCRz532_wgpJ3F_Cje8btPWlK4eyB1yxDAe-w9ErkdTpl-mToojJHSOrLB_3Ff9TL2TRoTI4JQLl2nz_ix5L1CAx1ferUjsPUBSC6Fec2sSAwnaAhRFjYlw8FxIXcgH3Cuzrwdib49kT6DremkUayoz-taHcKm2vOu9S4Zx6EtWVk","width":4032}],"place_id":"ChIJ3ZNofta2G0cRathuWsxi66Q","plus_code":{"compound_code":"W959+J7 Rosanów","global_code":"9F3XW959+J7"},"price_level":2,"rating":4.7,"reference":"ChIJ3ZNofta2G0cRathuWsxi66Q","types":["cafe","bar","store","restaurant","point_of_interest","food","establishment"],"user_ratings_total":787},{"business_status":"OPERATIONAL","formatted_address":"Ul. Gen. Jarosława Dąbrowskiego 59/61, 93-271 Łódź","geometry":{"location":{"lat":51.7373643,"lng":19.4878299},"viewport":{"northeast":{"lat":51.73879972989273,"lng":19.48901992989272},"southwest":{"lat":51.73610007010728,"lng":19.48632027010728}}},"icon":"https://maps.gstatic.com/mapfiles/place_api/icons/v1/png_71/restaurant-71.png","icon_background_color":"#FF9E67","icon_mask_base_uri":"https://maps.gstatic.com/mapfiles/place_api/icons/v2/restaurant_pinlet","name":"Gastromachina Stacja Dąbrowskiego","opening_hours":{"open_now":true},"photos":[{"height":960,"html_attributions":["<a href=\"https://maps.google.com/maps/contrib/115633511597183048027\">A Google User</a>"],"photo_reference":"AeJbb3feC1sKKnwFnnygXgS8IKzqDDmRTNnbOuNYubdg0dDoVwVNTQDwqdvbq8oYK3bjj9wB-Aa5m-iCyWb7Ew8O2M4vYDnpHq_e3mOswnayc9v558BWMbUy9fSIrlAt-gwFsIcOzNSa3gmtHv3B-6tRA3lcHbaK5hd4wUckr3NtgCmnsjm0","width":960}],"place_id":"ChIJKSWDCl01GkcREUaC_YKa6sk","plus_code":{"compound_code":"PFPQ+W4 Łódź","global_code":"9F3XPFPQ+W4"},"price_level":2,"rating":4.7,"reference":"ChIJKSWDCl01GkcREUaC_YKa6sk","types":["restaurant","food","point_of_interest","establishment"],"user_ratings_total":235},{"business_status":"OPERATIONAL","formatted_address":"Rokicińska 130, 95-020 Andrespol","geometry":{"location":{"lat":51.72616590000001,"lng":19.6369513},"viewport":{"northeast":{"lat":51.72750312989272,"lng":19.63828132989272},"southwest":{"lat":51.72480347010728,"lng":19.63558167010728}}},"icon":"https://maps.gstatic.com/mapfiles/place_api/icons/v1/png_71/restaurant-71.png","icon_background_color":"#FF9E67","icon_mask_base_uri":"https://maps.gstatic.com/mapfiles/place_api/icons/v2/restaurant_pinlet","name":"Czarny Byk-Rajskie Burgery","opening_hours":{"open_now":true},"photos":[{"height":2048,"html_attributions":["<a href=\"https://maps.google.com/maps/contrib/107049128362046335464\">A Google User</a>"],"photo_reference":"AeJbb3fT1yU5ux3GrLrUlfStDkDBYkna1nelV2nKyug40RlXM2_wmYozYP3LdtxUMgYoaO43TdxJ4UE4eYQ20fbGrvrapu08xdHjLbdA6YHt-VAeL0TUxB3__LezDt74oKGhgvmQcA5WF051hq89oEM9zbZY1aRIqL0AwmNePm0cfqNEA14","width":2048}],"place_id":"ChIJdeBOz_wtGkcRGDhOLJLlrJ4","plus_code":{"compound_code":"PJGP+FQ Andrespol","global_code":"9F3XPJGP+FQ"},"rating":4.7,"reference":"ChIJdeBOz_wtGkcRGDhOLJLlrJ4","types":["restaurant","food","point_of_interest","establishment"],"user_ratings_total":211},{"business_status":"OPERATIONAL","formatted_address":"Ogrodowa 19A, 91-065 Łódź","geometry":{"location":{"lat":51.7794883,"lng":19.448555},"viewport":{"northeast":{"lat":51.78071932989272,"lng":19.44993477989272},"southwest":{"lat":51.77801967010728,"lng":19.44723512010728}}},"icon":"https://maps.gstatic.com/mapfiles/place_api/icons/v1/png_71/restaurant-71.png","icon_background_color":"#FF9E67","icon_mask_base_uri":"https://maps.gstatic.com/mapfiles/place_api/icons/v2/restaurant_pinlet","name":"Szpulka","opening_hours":{"open_now":true},"photos":[{"height":9248,"html_attributions":["<a href=\"https://maps.google.com/maps/contrib/107145603160193754366\">Krzysztof Piwowarczyk</a>"],"photo_reference":"AeJbb3cDZySfGjB73HO4gu6XO2NnBGYqTFNT5Byw6wzqJiXa3vi85fQ_ADE3UvcjYBJESxxgw6rVeuii2aB3pqChIn12IuUcbPu6XHa5XPz7PSp1cGUpul4cY9eaRwt5O8r2KMaIQ9RBztkdXesEvD8-MPudwy-sdEad9nW1po73qv-jYhhv","width":6936}],"place_id":"ChIJR4L7JcXKG0cRzAcP4_Goscg","plus_code":{"compound_code":"QCHX+QC Łódź","global_code":"9F3XQCHX+QC"},"price_level":2,"rating":4.6,"reference":"ChIJR4L7JcXKG0cRzAcP4_Goscg","types":["restaurant","point_of_interest","food","establishment"],"user_ratings_total":1257},{"business_status":"OPERATIONAL","formatted_address":"Andrzeja Sacharowa 30, 92-542 Łódź","geometry":{"location":{"lat":51.7597165,"lng":19.5397996},"viewport":{"northeast":{"lat":51.76101857989272,"lng":19.54111852989272},"southwest":{"lat":51.75831892010728,"lng":19.53841887010728}}},"icon":"https://maps.gstatic.com/mapfiles/place_api/icons/v1/png_71/restaurant-71.png","icon_background_color":"#FF9E67","icon_mask_base_uri":"https://maps.gstatic.com/mapfiles/place_api/icons/v2/restaurant_pinlet","name":"Cochise Burgery","opening_hours":{"open_now":true},"photos":[{"height":533,"html_attributions":["<a href=\"https://maps.google.com/maps/contrib/114621301630685645254\">Cochise Burgery Łódź</a>"],"photo_reference":"AeJbb3eVnqoKejAOL0KxfZ2GkZIltB0ZzPUSjUkEnsIi16KAHcIqiveKHQjfOY2ov7aBt7ud14MoM6szxZEGi5ti6o6XQWIjvNmppfzqhk8Ff_CsuIZd2zrCrBIbFk3KtyOJFU6HmbjSRLWTmcPkbV_KvaW8lthGEaf1eRTNquQmSxP4y-v9","width":800}],"place_id":"ChIJw2Qh6bDMG0cRQNbBeENym08","plus_code":{"compound_code":"QG5Q+VW Łódź","global_code":"9F3XQG5Q+VW"},"price_level":2,"rating":4.6,"reference":"ChIJw2Qh6bDMG0cRQNbBeENym08","types":["restaurant","meal_delivery","bar","food","point_of_interest","establishment"],"user_ratings_total":1115},{"business_status":"OPERATIONAL","formatted_address":"Wojska Polskiego 20, 95-069 Aleksandrów Łódzki","geometry":{"location":{"lat":51.81898940000001,"lng":19.3071074},"viewport":{"northeast":{"lat":51.82025092989272,"lng":19.30840267989272},"southwest":{"lat":51.81755127010727,"lng":19.30570302010728}}},"icon":"https://maps.gstatic.com/mapfiles/place_api/icons/v1/png_71/restaurant-71.png","icon_background_color":"#FF9E67","icon_mask_base_uri":"https://maps.gstatic.com/mapfiles/place_api/icons/v2/restaurant_pinlet","name":"Indian Burger","opening_hours":{"open_now":true},"photos":[{"height":3120,"html_attributions":["<a href=\"https://maps.google.com/maps/contrib/100083055228899343336\">Monika Bojarzyńska</a>"],"photo_reference":"AeJbb3d3aKGi4XzGdiJ1kD66gjn0uzPFCuGNgqoKJhGeDHHYztaqXv3Iwh7pXBu0jB5ky0p_zLOVj-d5p3uRRt5YHj0D2l479BFyu5ws7rLqZQjJrdbT8TQG0ctJNI6YwlwpZzcmbxKml05jBUTiupOhklAGZtM3xqWpNGLsx1VdBlNgw3MT","width":4160}],"place_id":"ChIJu8Ns4QC1G0cR-uOmlUooioA","plus_code":{"compound_code":"R894+JV Aleksandrow Lodzki","global_code":"9F3XR894+JV"},"price_level":2,"rating":4.6,"reference":"ChIJu8Ns4QC1G0cR-uOmlUooioA","types":["restaurant","food","point_of_interest","establishment"],"user_ratings_total":404},{"business_status":"OPERATIONAL","formatted_address":"Andrzeja Struga 5, 90-420 Łódź","geometry":{"location":{"lat":51.7655352,"lng":19.4554923},"viewport":{"northeast":{"lat":51.76682162989272,"lng":19.45685622989273},"southwest":{"lat":51.76412197010728,"lng":19.45415657010728}}},"icon":"https://maps.gstatic.com/mapfiles/place_api/icons/v1/png_71/restaurant-71.png","icon_background_color":"#FF9E67","icon_mask_base_uri":"https://maps.gstatic.com/mapfiles/place_api/icons/v2/restaurant_pinlet","name":"Roni Burger","opening_hours":{"open_now":true},"photos":[{"height":3120,"html_attributions":["<a href=\"https://maps.google.com/maps/contrib/116915822771164452911\">A Google User</a>"],"photo_reference":"AeJbb3csyybB-FFcfysCc6UeW4fN3tO_Ka7wiudTj--FBhv9omdOCpJbbV7_le0ecCTwj3qTMqH6oXsGuCOcz3jEjRIogfIbFCwrybeM-w3LTOjTorEyS7EowFKIkmJUdMdA33gmjZPnzOJaeyKGU1163DNP54vSOpnsFmTAQpokQNueio_i","width":4680}],"place_id":"ChIJL1gi9qPLG0cRyP6VK4wlx1A","plus_code":{"compound_code":"QF84+65 Łódź","global_code":"9F3XQF84+65"},"rating":4.6,"reference":"ChIJL1gi9qPLG0cRyP6VK4wlx1A","types":["restaurant","food","point_of_interest","establishment"],"user_ratings_total":317},{"business_status":"OPERATIONAL","formatted_address":"Rąbieńska 8/10, 94-227 Łódź","geometry":{"location":{"lat":51.7807482,"lng":19.3958518},"viewport":{"northeast":{"lat":51.78217177989272,"lng":19.39729417989273},"southwest":{"lat":51.77947212010728,"lng":19.39459452010728}}},"icon":"https://maps.gstatic.com/mapfiles/place_api/icons/v1/png_71/restaurant-71.png","icon_background_color":"#FF9E67","icon_mask_base_uri":"https://maps.gstatic.com/mapfiles/place_api/icons/v2/restaurant_pinlet","name":"Lubię To. Bistro & Cafe","opening_hours":{"open_now":true},"photos":[{"height":3648,"html_attributions":["<a href=\"https://maps.google.com/maps/contrib/113910093362196619820\">A Google User</a>"],"photo_reference":"AeJbb3f4vAW9IzcboRuFAJ9Eu2f798F8ZYPwwynorvzhKJAVaHLmvPkxWjyHDrCxLur6guCyOCK1PGL_AOcBoE5K5KffeLRJdxrRC6KJrx93QRJSHZy4QVm-9POSpFsLspqKNcevbMsuM-v0I1kbAwsFV_dyO9mwT0xKcu8p5MGulxAggVwP","width":2736}],"place_id":"ChIJAzNjx_O1G0cRdBkmwWBc_0E","plus_code":{"compound_code":"Q9JW+78 Łódź","global_code":"9F3XQ9JW+78"},"price_level":2,"rating":4.6,"reference":"ChIJAzNjx_O1G0cRdBkmwWBc_0E","types":["restaurant","point_of_interest","food","establishment"],"user_ratings_total":247},{"business_status":"OPERATIONAL","formatted_address":"Janusza Kusocińskiego 67, 94-054 Łódź","geometry":{"location":{"lat":51.7519,"lng":19.3980999},"viewport":{"northeast":{"lat":51.75318672989273,"lng":19.39949377989272},"southwest":{"lat":51.75048707010728,"lng":19.39679412010727}}},"icon":"https://maps.gstatic.com/mapfiles/place_api/icons/v1/png_71/restaurant-71.png","icon_background_color":"#FF9E67","icon_mask_base_uri":"https://maps.gstatic.com/mapfiles/place_api/icons/v2/restaurant_pinlet","name":"Cochise Burger Kusocińskiego","opening_hours":{"open_now":true},"photos":[{"height":2268,"html_attributions":["<a href=\"https://maps.google.com/maps/contrib/113399004395578703598\">Marcin F-ster</a>"],"photo_reference":"AeJbb3eMKX0PpaZfv8P9tk50Rex6nJhgtUeYJjSL1nYpn9LiWnvfukOP4hCPqK9M_Cd7QvpD-duHorZghznciO8Z8aak4-Jqwd_xoFkWi2RkzyqQUD0DT5CPyi_kZkMualPdbbcf5mueail_UXyuVCFN6AydzfefIGYoEG_PrlZ-ZSIa57OH","width":4032}],"place_id":"ChIJ59S6cpQ1GkcRVEeu7wzKWbY","plus_code":{"compound_code":"Q92X+Q6 Łódź","global_code":"9F3XQ92X+Q6"},"rating":4.6,"reference":"ChIJ59S6cpQ1GkcRVEeu7wzKWbY","types":["restaurant","food","point_of_interest","establishment"],"user_ratings_total":151},{"business_status":"OPERATIONAL","formatted_address":"Piotrkowska 32, 91-269 Łódź","geometry":{"location":{"lat":51.7730993,"lng":19.4559211},"viewport":{"northeast":{"lat":51.77425657989272,"lng":19.45711232989272},"southwest":{"lat":51.77155692010727,"lng":19.45441267010728}}},"icon":"https://maps.gstatic.com/mapfiles/place_api/icons/v1/png_71/restaurant-71.png","icon_background_color":"#FF9E67","icon_mask_base_uri":"https://maps.gstatic.com/mapfiles/place_api/icons/v2/restaurant_pinlet","name":"Bistro Pauza","opening_hours":{"open_now":true},"photos":[{"height":4032,"html_attributions":["<a href=\"https://maps.google.com/maps/contrib/110750158261922421421\">A Google User</a>"],"photo_reference":"AeJbb3dNuON528lbnQctHsVBO7Ea0_tCyVW4sH5IX_mL3Ww7_hOG2JyfZC0y4zn57gmozuoA556iW0tC88RyBhvtgGAVY1Ow2sfofM5PRHSpykCAGq2V_WevmeLCJfxynMAE7xkS5hipewYtJ7wSaL2AIMSLNGg8_Q2b6WefazfwMi38zdL5","width":3024}],"place_id":"ChIJgV_M39bKG0cRIiCM9JQNNvc","plus_code":{"compound_code":"QFF4+69 Łódź","global_code":"9F3XQFF4+69"},"price_level":1,"rating":4.6,"reference":"ChIJgV_M39bKG0cRIiCM9JQNNvc","types":["restaurant","point_of_interest","food","establishment"],"user_ratings_total":128},{"business_status":"OPERATIONAL","formatted_address":"Złocieniowa 33A, 91-358 Łódź","geometry":{"location":{"lat":51.81639149999999,"lng":19.4253588},"viewport":{"northeast":{"lat":51.81752792989272,"lng":19.42684452989272},"southwest":{"lat":51.81482827010727,"lng":19.42414487010728}}},"icon":"https://maps.gstatic.com/mapfiles/place_api/icons/v1/png_71/restaurant-71.png","icon_background_color":"#FF9E67","icon_mask_base_uri":"https://maps.gstatic.com/mapfiles/place_api/icons/v2/restaurant_pinlet","name":"It-Am Pizza&Burger Łódź Bałuty","opening_hours":{"open_now":true},"photos":[{"height":1365,"html_attributions":["<a href=\"https://maps.google.com/maps/contrib/111642989859990432864\">A Google User</a>"],"photo_reference":"AeJbb3fWMbRkIXeQL-ClCZ47lpt1azrb9HovMVnVaIxIPJzbjYAnW5KokN89QjwI-xwB8sdEqPJKSDLWheTd0zoqxeGimTGOugrKTVGiM1nraOZVVImm0WRmvpBdjpDoqAZChQIhQ6jE_PXJqO900jPZQmnjWTep9hFln0zYXv1RwUqOuRE8","width":2048}],"place_id":"ChIJ4Uvxima1G0cRardlIgyzbFs","plus_code":{"compound_code":"RC8G+H4 Łódź","global_code":"9F3XRC8G+H4"},"rating":4.6,"reference":"ChIJ4Uvxima1G0cRardlIgyzbFs","types":["restaurant","cafe","food","store","point_of_interest","establishment"],"user_ratings_total":81},{"business_status":"OPERATIONAL","formatted_address":"Drewnowska 58B, 90-002 Łódź","geometry":{"location":{"lat":51.78005109999999,"lng":19.4496098},"viewport":{"northeast":{"lat":51.78137622989272,"lng":19.45126532989272},"southwest":{"lat":51.77867657010727,"lng":19.44856567010728}}},"icon":"https://maps.gstatic.com/mapfiles/place_api/icons/v1/png_71/restaurant-71.png","icon_background_color":"#FF9E67","icon_mask_base_uri":"https://maps.gstatic.com/mapfiles/place_api/icons/v2/restaurant_pinlet","name":"Whiskey in the Jar","opening_hours":{"open_now":true},"photos":[{"height":768,"html_attributions":["<a href=\"https://maps.google.com/maps/contrib/109076966187990941419\">A Google User</a>"],"photo_reference":"AeJbb3dKsjuKDLXJHPT_dRcCfc1cGrc6yBEKvhfjzZAUMPJwF_uQF-WoX4308iKNmdLbmzt6Cy1KFHqbMd5Wt1FdbRdpBfSvXnI9KZ42_nNg20E7NGvtInBlT2d4GuIZkCkJ93A6whqmkEPvBsRa4e1y5fR1x9A236CW_tt8niiZamNq4xxn","width":768}],"place_id":"ChIJfQDk2cTKG0cRxh0KKDyRyWY","plus_code":{"compound_code":"QCJX+2R Łódź","global_code":"9F3XQCJX+2R"},"price_level":3,"rating":4.5,"reference":"ChIJfQDk2cTKG0cRxh0KKDyRyWY","types":["restaurant","food","point_of_interest","establishment"],"user_ratings_total":4315},{"business_status":"OPERATIONAL","formatted_address":"Aleja Jana Pawła II 25/27, 94-292 Łódź","geometry":{"location":{"lat":51.7499036,"lng":19.4365494},"viewport":{"northeast":{"lat":51.75127307989273,"lng":19.43796997989272},"southwest":{"lat":51.74857342010728,"lng":19.43527032010728}}},"icon":"https://maps.gstatic.com/mapfiles/place_api/icons/v1/png_71/restaurant-71.png","icon_background_color":"#FF9E67","icon_mask_base_uri":"https://maps.gstatic.com/mapfiles/place_api/icons/v2/restaurant_pinlet","name":"Pit Stop Steak & Burger","opening_hours":{"open_now":true},"photos":[{"height":1360,"html_attributions":["<a href=\"https://maps.google.com/maps/contrib/106470077106081803657\">Pit Stop Steak &amp; Burger</a>"],"photo_reference":"AeJbb3d_9Ja5SIejfZ29_pt0as5w5nD9Bbc1tjA18Ml2VjAEc58crF1uUq9CU8hhOi0js12T-77sCCuC3JqcfquEaAX-aSz5Fh5ou0oc-aiiiJxJXKvw_Qcn6RWxiZqGJCUiqmqwiCX8dM4TbD1iJOI1MhEIvFsikvIsO30nL1E9BFroQq3f","width":2048}],"place_id":"ChIJARj8S_lKGkcRQaAp5uVkro8","plus_code":{"compound_code":"PCXP+XJ Łódź","global_code":"9F3XPCXP+XJ"},"price_level":2,"rating":4.5,"reference":"ChIJARj8S_lKGkcRQaAp5uVkro8","types":["restaurant","food","point_of_interest","establishment"],"user_ratings_total":2355},{"business_status":"OPERATIONAL","formatted_address":"Szeroka 38, 95-030 Starowa Góra","geometry":{"location":{"lat":51.6870639,"lng":19.4756125},"viewport":{"northeast":{"lat":51.68839272989272,"lng":19.47735317989272},"southwest":{"lat":51.68569307010728,"lng":19.47465352010728}}},"icon":"https://maps.gstatic.com/mapfiles/place_api/icons/v1/png_71/restaurant-71.png","icon_background_color":"#FF9E67","icon_mask_base_uri":"https://maps.gstatic.com/mapfiles/place_api/icons/v2/restaurant_pinlet","name":"Stekówka","opening_hours":{"open_now":true},"photos":[{"height":4032,"html_attributions":["<a href=\"https://maps.google.com/maps/contrib/100023418645536620051\">A Google User</a>"],"photo_reference":"AeJbb3eNtCB-fAPUcoVWWAIOTBpZ26eUejGO12dHSSD4dhGETioRJEV0-8qiHP3DtIDy9_hqKpN33fe2w1wIQXOyXx_-vYyuet-IlGwNGkzCjivOfqtoLl8_Vhswx9OmcHo6G6xVDf-fkz2PkOFrjcAKceCUYdLBtjcHNbt0XQOEpHoY9Gea","width":3024}],"place_id":"ChIJy5gbzvAzGkcRmP8bfe2X5qU","plus_code":{"compound_code":"MFPG+R7 Starowa Góra","global_code":"9F3XMFPG+R7"},"price_level":2,"rating":4.5,"reference":"ChIJy5gbzvAzGkcRmP8bfe2X5qU","types":["restaurant","food","point_of_interest","establishment"],"user_ratings_total":1311},{"business_status":"OPERATIONAL","formatted_address":"Piotrkowska 138/140, 90-063 Łódź","geometry":{"location":{"lat":51.7609747,"lng":19.4584526},"viewport":{"northeast":{"lat":51.76237797989272,"lng":19.45963797989272},"southwest":{"lat":51.75967832010728,"lng":19.45693832010728}}},"icon":"https://maps.gstatic.com/mapfiles/place_api/icons/v1/png_71/restaurant-71.png","icon_background_color":"#FF9E67","icon_mask_base_uri":"https://maps.gstatic.com/mapfiles/place_api/icons/v2/restaurant_pinlet","name":"DOKI gastrobar","opening_hours":{"open_now":true},"photos":[{"height":3968,"html_attributions":["<a href=\"https://maps.google.com/maps/contrib/102207182169440307596\">ZENon DNB</a>"],"photo_reference":"AeJbb3c-xnSCopVQodzQFdPHhJJMrjPddzJG6aMSmehWTl4_Ru2NsoYxmw-um485GCvymE97CXmX0_k-UzjIoqy3xU7ul7-0rr_lT63dcHMYbr4iq3xow-46pFf-1Ry237D6f0KKFQ7rnoMl5LfCj4F0M2SSNyG2j2mS53r6CtfBOBuQQI8T","width":2240}],"place_id":"ChIJpxh-XNQ0GkcR_2yc2nhaevQ","plus_code":{"compound_code":"QF65+99 Łódź","global_code":"9F3XQF65+99"},"price_level":2,"rating":4.5,"reference":"ChIJpxh-XNQ0GkcR_2yc2nhaevQ","types":["restaurant","store","point_of_interest","food","establishment"],"user_ratings_total":1289},{"business_status":"OPERATIONAL","formatted_address":"al. Marszałka Józefa Piłsudskiego 14, 90-051 Łódź","geometry":{"location":{"lat":51.7600365,"lng":19.4610873},"viewport":{"northeast":{"lat":51.76130447989272,"lng":19.46245447989272},"southwest":{"lat":51.75860482010728,"lng":19.45975482010728}}},"icon":"https://maps.gstatic.com/mapfiles/place_api/icons/v1/png_71/restaurant-71.png","icon_background_color":"#FF9E67","icon_mask_base_uri":"https://maps.gstatic.com/mapfiles/place_api/icons/v2/restaurant_pinlet","name":"Wall Street BBQ","opening_hours":{"open_now":true},"photos":[{"height":5120,"html_attributions":["<a href=\"https://maps.google.com/maps/contrib/111939231368990395951\">Anna Famulska</a>"],"photo_reference":"AeJbb3ch1Qa9byXE5sjOdjZdqgbycBwdTyZVCnI4yZgjFTeRJk2VrQoQQuWmZfarbDtWTL1ZBfLd1ERDPVrDM1gv-qDr_1N9LwCxOlZOXCNhnEeWgOc-uMTnG-nS_5FVrPCKBrho6EyyBd56GOTkdQ9ZqyxWGeVAIa5nZTi9Ddgh8yyivx8","width":3840}],"place_id":"ChIJ5_dkddQ0GkcRQ4oBhpKVVs8","plus_code":{"compound_code":"QF66+2C Łódź","global_code":"9F3XQF66+2C"},"price_level":2,"rating":4.5,"reference":"ChIJ5_dkddQ0GkcRQ4oBhpKVVs8","types":["restaurant","point_of_interest","food","establishment"],"user_ratings_total":1150},{"business_status":"OPERATIONAL","formatted_address":"Rewolucji 1905 roku 45, 90-215 Łódź","geometry":{"location":{"lat":51.7749213,"lng":19.4662414},"viewport":{"northeast":{"lat":51.77643272989273,"lng":19.46748452989272},"southwest":{"lat":51.77373307010728,"lng":19.46478487010728}}},"icon":"https://maps.gstatic.com/mapfiles/place_api/icons/v1/png_71/restaurant-71.png","icon_background_color":"#FF9E67","icon_mask_base_uri":"https://maps.gstatic.com/mapfiles/place_api/icons/v2/restaurant_pinlet","name":"Pin Up American","opening_hours":{"open_now":true},"photos":[{"height":801,"html_attributions":["<a href=\"https://maps.google.com/maps/contrib/116876146721605578899\">A Google User</a>"],"photo_reference":"AeJbb3dCXCg0hbsLkt2nxvOUB6Yax0Qi_qkLNshlziQUSCbJ17GFxBzss3tozvmHz4UKyk2OCii-UB86A_g1Z6T2eypeInjeFLEzbpj2e9noVD6M-_ZrRih3FQ4YFzHdXiR7Wk5fJiCgpSkah0Qq-VYy0v8rnOarLB0pakITJj5ILdTVBtT-","width":1200}],"place_id":"ChIJe_oKWIfLG0cRAXH7POQfKYM","plus_code":{"compound_code":"QFF8+XF Łódź","global_code":"9F3XQFF8+XF"},"price_level":1,"rating":4.5,"reference":"ChIJe_oKWIfLG0cRAXH7POQfKYM","types":["cafe","restaurant","food","point_of_interest","establishment"],"user_ratings_total":677},{"business_status":"OPERATIONAL","formatted_address":"Władysława Umińskiego 12, 90-001 Łódź","geometry":{"location":{"lat":51.729428,"lng":19.490852},"viewport":{"northeast":{"lat":51.73080132989272,"lng":19.49210907989272},"southwest":{"lat":51.72810167010728,"lng":19.48940942010728}}},"icon":"https://maps.gstatic.com/mapfiles/place_api/icons/v1/png_71/restaurant-71.png","icon_background_color":"#FF9E67","icon_mask_base_uri":"https://maps.gstatic.com/mapfiles/place_api/icons/v2/restaurant_pinlet","name":"Cochise Burgery Umińskiego Łódź","opening_hours":{"open_now":true},"photos":[{"height":1816,"html_attributions":["<a href=\"https://maps.google.com/maps/contrib/106053748622160908367\">ktm_cross@interia.pl</a>"],"photo_reference":"AeJbb3dGZ4PMhAt8HEsUHuQ7q-IcZzsAeFyiBeDzjP-UhxU6pfjBi_0o_2rGGr8XVeJ4F74lKRDLLCOEHukZ56uEJ6GllhVnDpFrHAMBlrRIexn2mSjp6zCJFTFDw7vTieCzalDJUY5pta0ieph0Jc3w67Jtc4TwzTSHujNTVZhvL_cDR9_H","width":4032}],"place_id":"ChIJbyBkz_o1GkcRod7N3PSZCP8","plus_code":{"compound_code":"PFHR+P8 Łódź","global_code":"9F3XPFHR+P8"},"price_level":2,"rating":4.5,"reference":"ChIJbyBkz_o1GkcRod7N3PSZCP8","types":["restaurant","night_club","bar","food","point_of_interest","establishment"],"user_ratings_total":579},{"business_status":"OPERATIONAL","formatted_address":"Socjalna 48, 93-325 Łódź","geometry":{"location":{"lat":51.7145637,"lng":19.4920573},"viewport":{"northeast":{"lat":51.71590597989272,"lng":19.49332867989273},"southwest":{"lat":51.71320632010728,"lng":19.49062902010728}}},"icon":"https://maps.gstatic.com/mapfiles/place_api/icons/v1/png_71/restaurant-71.png","icon_background_color":"#FF9E67","icon_mask_base_uri":"https://maps.gstatic.com/mapfiles/place_api/icons/v2/restaurant_pinlet","name":"Pizzeria u Leona","opening_hours":{"open_now":true},"photos":[{"height":2268,"html_attributions":["<a href=\"https://maps.google.com/maps/contrib/117306324850964730744\">Marek Brendi</a>"],"photo_reference":"AeJbb3ez5aUXIJZnZ-ANt-G3BYnwFo3xAHPeTEl6UwMjGqLD3E4EHHhDLqs8JEff8fJ_UjGOyrtQTFHLRr-x5nPRfcUPTk9LtdjDZFor7k_YrrMioQBnBrRnWn8-8nLa4OjS6ovPS3_zdzujTloPuLhUAzUSVNwHkR0BkiAe1HjEt6w8t1qn","width":2268}],"place_id":"ChIJ96Jv38MzGkcRPUFwfUuhGHI","plus_code":{"compound_code":"PF7R+RR Łódź","global_code":"9F3XPF7R+RR"},"price_level":1,"rating":4.5,"reference":"ChIJ96Jv38MzGkcRPUFwfUuhGHI","types":["meal_delivery","meal_takeaway","restaurant","point_of_interest","food","establishment"],"user_ratings_total":291},{"business_status":"OPERATIONAL","formatted_address":"Beli Bartoka 20, 92-547 Łódź","geometry":{"location":{"lat":51.7614269,"lng":19.5222662},"viewport":{"northeast":{"lat":51.76276062989271,"lng":19.52371582989272},"southwest":{"lat":51.76006097010727,"lng":19.52101617010728}}},"icon":"https://maps.gstatic.com/mapfiles/place_api/icons/v1/png_71/restaurant-71.png","icon_background_color":"#FF9E67","icon_mask_base_uri":"https://maps.gstatic.com/mapfiles/place_api/icons/v2/restaurant_pinlet","name":"Tommy Burger Widzew","opening_hours":{"open_now":true},"photos":[{"height":2160,"html_attributions":["<a href=\"https://maps.google.com/maps/contrib/115712768335363911556\">TommyBurger</a>"],"photo_reference":"AeJbb3cob_B4iRMf2mqEs-CbhrsFIR_zq7Q9XPIadR9XPeH2LxQ1Zh0swieUaBuELJez4oMQxxa_arxwhUYIibEP5qRRSP6qCZUfOu6AFP2bLW4nbf_tPY_jTeXiNcXhHtMihtCiGZ08Vd18QXUrc2miD9ih5Ts8Eh-UHoI0rI0Q0OZytQH2","width":3240}],"place_id":"ChIJGTbtOqjMG0cRG59LFHLEhZ4","plus_code":{"compound_code":"QG6C+HW Łódź","global_code":"9F3XQG6C+HW"},"price_level":2,"rating":4.4,"reference":"ChIJGTbtOqjMG0cRG59LFHLEhZ4","types":["restaurant","food","point_of_interest","establishment"],"user_ratings_total":710},{"business_status":"OPERATIONAL","formatted_address":"Piotrkowska 209, 90-451 Łódź","geometry":{"location":{"lat":51.75462719999999,"lng":19.4593029},"viewport":{"northeast":{"lat":51.75595907989272,"lng":19.46078097989272},"southwest":{"lat":51.75325942010727,"lng":19.45808132010728}}},"icon":"https://maps.gstatic.com/mapfiles/place_api/icons/v1/png_71/restaurant-71.png","icon_background_color":"#FF9E67","icon_mask_base_uri":"https://maps.gstatic.com/mapfiles/place_api/icons/v2/restaurant_pinlet","name":"Cochise","opening_hours":{"open_now":true},"photos":[{"height":720,"html_attributions":["<a href=\"https://maps.google.com/maps/contrib/115115879777805440831\">A Google User</a>"],"photo_reference":"AeJbb3cJ7hX9sCcoJIs83vsR33uAzdFiWbtTnJvhkLkcgik7Uhk2GklgMyjIch19Q53-dlI6PK0B-j8V5EyOHAc53gb4VD13LfcVOiEJdAUaGY99hD8FGktzMu3c6Vt3Krrw0fx4-abl1SOB3pIMI2PDTaKgDhCszZyn7igoRZBOcYcakRnM","width":960}],"place_id":"ChIJNwNTwes1GkcRGEl6puL_5Ag","plus_code":{"compound_code":"QF35+VP Łódź","global_code":"9F3XQF35+VP"},"rating":4.4,"reference":"ChIJNwNTwes1GkcRGEl6puL_5Ag","types":["bar","restaurant","food","point_of_interest","establishment"],"user_ratings_total":501},{"business_status":"OPERATIONAL","formatted_address":"Jugosłowiańska 1A, 92-720 Łódź","geometry":{"location":{"lat":51.7927516,"lng":19.5880139},"viewport":{"northeast":{"lat":51.79417227989272,"lng":19.58939732989272},"southwest":{"lat":51.79147262010727,"lng":19.58669767010728}}},"icon":"https://maps.gstatic.com/mapfiles/place_api/icons/v1/png_71/restaurant-71.png","icon_background_color":"#FF9E67","icon_mask_base_uri":"https://maps.gstatic.com/mapfiles/place_api/icons/v2/restaurant_pinlet","name":"Black Burger","opening_hours":{"open_now":true},"photos":[{"height":3744,"html_attributions":["<a href=\"https://maps.google.com/maps/contrib/106229306801458800898\">A Google User</a>"],"photo_reference":"AeJbb3czcJNoN0NYlUzB3ZQy3Wlmy_sgRUt5ODdPIH-4DArOouVkbGTDD9A_dYYFDRxPl6zqdJMFQ9l3UQ9RU75NRmiqvjZYl895Nj6HWSR4wNNldVFNBcjyAQUMyg7SxvQrZlGwl8pYhnquAn988fTV7Nb73y7KhMRix8GMeXo5SDSTlB0n","width":4989}],"place_id":"ChIJLbTc6YfNG0cRPBjfZZIGVCM","plus_code":{"compound_code":"QHVQ+46 Łódź","global_code":"9F3XQHVQ+46"},"price_level":2,"rating":4.4,"reference":"ChIJLbTc6YfNG0cRPBjfZZIGVCM","types":["restaurant","food","point_of_interest","establishment"],"user_ratings_total":299},{"business_status":"OPERATIONAL","formatted_address":"Janusza Kusocińskiego 82C, 94-054 Łódź","geometry":{"location":{"lat":51.74967909999999,"lng":19.3923345},"viewport":{"northeast":{"lat":51.75099732989272,"lng":19.39357067989272},"southwest":{"lat":51.74829767010728,"lng":19.39087102010727}}},"icon":"https://maps.gstatic.com/mapfiles/place_api/icons/v1/png_71/restaurant-71.png","icon_background_color":"#FF9E67","icon_mask_base_uri":"https://maps.gstatic.com/mapfiles/place_api/icons/v2/restaurant_pinlet","name":"Świat Szeroki Retkinia","opening_hours":{"open_now":true},"photos":[{"height":700,"html_attributions":["<a href=\"https://maps.google.com/maps/contrib/104923992419941659415\">A Google User</a>"],"photo_reference":"AeJbb3f04gIa-muHkRlEnPUouBJ2KgP-6z6fuHUD6DrVX8XALskrLMLl9K_Uhvxb-CYb0dc0IA5Y90DklVD1pXMNkB3ZuiMRYLnx8b6k66ppgR5sdvqikkA9GoncHsJk8oGJXRozxry38a3UfapDGIzTv8qQeUbHcw5EdNDVTlGqm0MoEwUG","width":700}],"place_id":"ChIJHbwTY5U1GkcRvZQxZzU-TSI","plus_code":{"compound_code":"P9XR+VW Łódź","global_code":"9F3XP9XR+VW"},"rating":4.4,"reference":"ChIJHbwTY5U1GkcRvZQxZzU-TSI","types":["restaurant","point_of_interest","food","establishment"],"user_ratings_total":170},{"business_status":"OPERATIONAL","formatted_address":"Piotrkowska 59, 90-001 Łódź","geometry":{"location":{"lat":51.76916380000001,"lng":19.4562216},"viewport":{"northeast":{"lat":51.77029882989272,"lng":19.45768817989272},"southwest":{"lat":51.76759917010727,"lng":19.45498852010727}}},"icon":"https://maps.gstatic.com/mapfiles/place_api/icons/v1/png_71/restaurant-71.png","icon_background_color":"#FF9E67","icon_mask_base_uri":"https://maps.gstatic.com/mapfiles/place_api/icons/v2/restaurant_pinlet","name":"Bobby Burger","opening_hours":{"open_now":true},"photos":[{"height":3265,"html_attributions":["<a href=\"https://maps.google.com/maps/contrib/110431809957847186176\">Bobby Burger</a>"],"photo_reference":"AeJbb3fjJ2nKwCwWz4ohCoI_ELH1ucuZ4iwJ0fzjmiCtapNfAvCXbjEZWK-6cc6A6bMqEzKEmusS3SFjS-VeesJ8VsifDUPyOizS45Nn4ZELWBSOtTSBmBhHU0EJPT5IBZ7iwazxbHfiazhsILsGhhJ0kfYN00G250qk6REQPwRa4xOLmJec","width":4898}],"place_id":"ChIJtWiYydXKG0cRRFWezhvB7yI","plus_code":{"compound_code":"QF94+MF Łódź","global_code":"9F3XQF94+MF"},"price_level":2,"rating":4.3,"reference":"ChIJtWiYydXKG0cRRFWezhvB7yI","types":["restaurant","food","point_of_interest","establishment"],"user_ratings_total":2372},{"business_status":"OPERATIONAL","formatted_address":"Drewnowska 58, CH Manufaktura, 91-002 Łódź","geometry":{"location":{"lat":51.779571,"lng":19.447726},"viewport":{"northeast":{"lat":51.78072317989272,"lng":19.44912527989272},"southwest":{"lat":51.77802352010728,"lng":19.44642562010728}}},"icon":"https://maps.gstatic.com/mapfiles/place_api/icons/v1/png_71/restaurant-71.png","icon_background_color":"#FF9E67","icon_mask_base_uri":"https://maps.gstatic.com/mapfiles/place_api/icons/v2/restaurant_pinlet","name":"Bobby Burger","opening_hours":{"open_now":true},"photos":[{"height":4032,"html_attributions":["<a href=\"https://maps.google.com/maps/contrib/102984675106210520899\">Michał Adamczewski</a>"],"photo_reference":"AeJbb3eqiam_xNI4D6KOivD81eNaflFlLmaJKrwUknRf64RUCgI4gP4nFnuaa4jWEzeWoqIfbyzycoodQwSF1Cv45JMqzzNSlYyP8LLWTc2iRsWo8vn_7BY0UlmlgsJe3-f8M-WkUjqsOsxJ9wmw8_fzynBwqKvjF_7DSPI4jRFL99bdqtOV","width":3024}],"place_id":"ChIJu9zu-sTKG0cR1P2fhaYtTvw","plus_code":{"compound_code":"QCHX+R3 Łódź","global_code":"9F3XQCHX+R3"},"price_level":2,"rating":4.3,"reference":"ChIJu9zu-sTKG0cR1P2fhaYtTvw","types":["restaurant","food","point_of_interest","establishment"],"user_ratings_total":950},{"business_status":"OPERATIONAL","formatted_address":"Manufaktura, Drewnowska 58, 91-002 Łódź","geometry":{"location":{"lat":51.78018609999999,"lng":19.4467036},"viewport":{"northeast":{"lat":51.78153592989271,"lng":19.44805342989272},"southwest":{"lat":51.77883627010727,"lng":19.44535377010728}}},"icon":"https://maps.gstatic.com/mapfiles/place_api/icons/v1/png_71/restaurant-71.png","icon_background_color":"#FF9E67","icon_mask_base_uri":"https://maps.gstatic.com/mapfiles/place_api/icons/v2/restaurant_pinlet","name":"Pasibus","opening_hours":{"open_now":true},"photos":[{"height":2976,"html_attributions":["<a href=\"https://maps.google.com/maps/contrib/115509616998658528871\">Dawid Kędziak</a>"],"photo_reference":"AeJbb3eRNvlMFYfPnE9fKIF_5HMViPbnuWQLBsR-0ancYQGP4FYKAT-clGqq_OaJxAaexptDNqWlRX6LewHc1oW02ZQsjkR18pvVo-asESq-d0-G2jCvy7VjUvwYRWgXoV3bbhwh_C4SJG3ChizKNH1NKjv12A4TcSAv2XAMoJ_upr1f0zcq","width":3968}],"place_id":"ChIJw5YaXA_LG0cRDP_DvyfcZ8U","plus_code":{"compound_code":"QCJW+3M Łódź","global_code":"9F3XQCJW+3M"},"price_level":2,"rating":4.3,"reference":"ChIJw5YaXA_LG0cRDP_DvyfcZ8U","types":["restaurant","food","point_of_interest","establishment"],"user_ratings_total":899},{"business_status":"OPERATIONAL","formatted_address":"Zgierska 69, 91-463 Łódź","geometry":{"location":{"lat":51.7916495,"lng":19.4498263},"viewport":{"northeast":{"lat":51.79280717989272,"lng":19.45081952989272},"southwest":{"lat":51.79010752010727,"lng":19.44811987010728}}},"icon":"https://maps.gstatic.com/mapfiles/place_api/icons/v1/png_71/restaurant-71.png","icon_background_color":"#FF9E67","icon_mask_base_uri":"https://maps.gstatic.com/mapfiles/place_api/icons/v2/restaurant_pinlet","name":"Bałucki Burger","opening_hours":{"open_now":true},"photos":[{"height":800,"html_attributions":["<a href=\"https://maps.google.com/maps/contrib/112000865549997763623\">A Google User</a>"],"photo_reference":"AeJbb3dIZIOFzK1DaXnDDXLN4iVehNFJx-v7dQKY1fxgl8lYCFcL7HIuNOvGXa2qxkNFrh_ThQ7WsVn0si5bozFyz0kIyUv2hyh95ZW2pregBdgmaqjRzwJ_DTZmYAAX132lHquiAf8q4falYfduy2pXxiKgvBEmZWU8GQilR4kiYRHeWB5Q","width":800}],"place_id":"ChIJMxNNBUbLG0cRf7ldeNG3PLI","plus_code":{"compound_code":"QCRX+MW Łódź","global_code":"9F3XQCRX+MW"},"price_level":2,"rating":4.3,"reference":"ChIJMxNNBUbLG0cRf7ldeNG3PLI","types":["restaurant","food","point_of_interest","establishment"],"user_ratings_total":597},{"business_status":"OPERATIONAL","formatted_address":"Gimnastyczna 126, 94-128 Łódź","geometry":{"location":{"lat":51.74280170000001,"lng":19.3777981},"viewport":{"northeast":{"lat":51.74418672989272,"lng":19.37940477989272},"southwest":{"lat":51.74148707010728,"lng":19.37670512010728}}},"icon":"https://maps.gstatic.com/mapfiles/place_api/icons/v1/png_71/restaurant-71.png","icon_background_color":"#FF9E67","icon_mask_base_uri":"https://maps.gstatic.com/mapfiles/place_api/icons/v2/restaurant_pinlet","name":"Restauracja Smulska","opening_hours":{"open_now":true},"photos":[{"height":2241,"html_attributions":["<a href=\"https://maps.google.com/maps/contrib/113021277525801484997\">A Google User</a>"],"photo_reference":"AeJbb3foh76HfCC9CYn78fDdmkqEGppV2tr1Pk7wKbR6guWYmCSkCLwEM0UmjPjBC4jShkBhcjGDQ3C0Kr__wd1th6u40GYgjhUTTWPErYNp0bCTjcgbFMXYWHOtD2Qt1ST5zdHjoClEzY8ReT3ehvgZljlbhVYXanPQHYywnTwvnNF5J-EA","width":2264}],"place_id":"ChIJ21XKcrU1GkcRYn0ANJDcV2o","plus_code":{"compound_code":"P9VH+44 Łódź","global_code":"9F3XP9VH+44"},"price_level":2,"rating":4.3,"reference":"ChIJ21XKcrU1GkcRYn0ANJDcV2o","types":["restaurant","meal_delivery","store","point_of_interest","food","establishment"],"user_ratings_total":259},{"business_status":"OPERATIONAL","formatted_address":"Gojawiczyńskiej 1/3, 93-249 Łódź","geometry":{"location":{"lat":51.7337847,"lng":19.5054229},"viewport":{"northeast":{"lat":51.73504597989272,"lng":19.50670477989273},"southwest":{"lat":51.73234632010728,"lng":19.50400512010728}}},"icon":"https://maps.gstatic.com/mapfiles/place_api/icons/v1/png_71/restaurant-71.png","icon_background_color":"#FF9E67","icon_mask_base_uri":"https://maps.gstatic.com/mapfiles/place_api/icons/v2/restaurant_pinlet","name":"Pit Stop Steak & Burger Gojawiczyńskiej","opening_hours":{"open_now":true},"photos":[{"height":400,"html_attributions":["<a href=\"https://maps.google.com/maps/contrib/100990036990500516144\">A Google User</a>"],"photo_reference":"AeJbb3eSvswFjUXGjaXI-YPPiXBgVyWgJbgufh0juTPem-rkpYh0-jMq5k5NanReh23nU2xhQqEqiSow8JwQmgiVL86wgo-v6z0b6HVxbuexlVkZA7bjUNKqX-PgtfFxRLbcGYmjqakyh3iX2XFjo4eDMi1UdrzOmjxGAWzv1DBhFrlyerz0","width":600}],"place_id":"ChIJ9wfvQsEzGkcRuaUD4OuHkJ8","plus_code":{"compound_code":"PGM4+G5 Łódź","global_code":"9F3XPGM4+G5"},"rating":4.3,"reference":"ChIJ9wfvQsEzGkcRuaUD4OuHkJ8","types":["restaurant","food","point_of_interest","establishment"],"user_ratings_total":38},{"business_status":"OPERATIONAL","formatted_address":"Piotrkowska 89, 90-423 Łódź","geometry":{"location":{"lat":51.7662424,"lng":19.4567089},"viewport":{"northeast":{"lat":51.76725652989273,"lng":19.45827887989272},"southwest":{"lat":51.76455687010728,"lng":19.45557922010728}}},"icon":"https://maps.gstatic.com/mapfiles/place_api/icons/v1/png_71/bar-71.png","icon_background_color":"#FF9E67","icon_mask_base_uri":"https://maps.gstatic.com/mapfiles/place_api/icons/v2/bar_pinlet","name":"ChillBurger","opening_hours":{"open_now":true},"photos":[{"height":2048,"html_attributions":["<a href=\"https://maps.google.com/maps/contrib/101749504261262701761\">A Google User</a>"],"photo_reference":"AeJbb3eMacJBRLM-fGoQl-3XwsAFpmkiT9pynTo-5faqM1uPbI3EeWw7DEwdIzOuXgVqVZaW5l9CmDwWPdxoBg8SslODDZFDolmnBQxAclwWj7YGHWMAk13oNl2nnoYPmxAFKhmdh6CMjBHsqBET6dAzbQuCdmp-2OCSpMqYby4p9IACQ_UO","width":1536}],"place_id":"ChIJR2h-JTbLG0cRMD0a9RbSfYs","plus_code":{"compound_code":"QF84+FM Łódź","global_code":"9F3XQF84+FM"},"rating":4.3,"reference":"ChIJR2h-JTbLG0cRMD0a9RbSfYs","types":["bar","restaurant","point_of_interest","food","establishment"],"user_ratings_total":15},{"business_status":"OPERATIONAL","formatted_address":"Piotrkowska 25, 90-508 Łódź","geometry":{"location":{"lat":51.773176,"lng":19.4552},"viewport":{"northeast":{"lat":51.77428742989272,"lng":19.45674452989272},"southwest":{"lat":51.77158777010728,"lng":19.45404487010728}}},"icon":"https://maps.gstatic.com/mapfiles/place_api/icons/v1/png_71/restaurant-71.png","icon_background_color":"#FF9E67","icon_mask_base_uri":"https://maps.gstatic.com/mapfiles/place_api/icons/v2/restaurant_pinlet","name":"PITTU PITTU","opening_hours":{"open_now":true},"photos":[{"height":1365,"html_attributions":["<a href=\"https://maps.google.com/maps/contrib/102807449660576162521\">A Google User</a>"],"photo_reference":"AeJbb3cF02bXNj729zEuW0akZHzyB_UIU5jWWWoae1EdsmlchLuraLspxhHqJkh-pXFYSM3s-ZUpGMT-FV3c_L4XKB9SxS31Sg22UUct2tqE8qvLqcA-BK74decEJaIOB9dB5cEJxeXFocPKCXf6EwyUuoQfv5Mo6aXMu3kMvQ09veQATMRa","width":2048}],"place_id":"ChIJQ1_h2NbKG0cRreRZTQ6Ob0Y","plus_code":{"compound_code":"QFF4+73 Łódź","global_code":"9F3XQFF4+73"},"price_level":2,"rating":4.2,"reference":"ChIJQ1_h2NbKG0cRreRZTQ6Ob0Y","types":["restaurant","point_of_interest","food","establishment"],"user_ratings_total":758},{"business_status":"OPERATIONAL","formatted_address":"Aleksandra Kostki-Napierskiego 1, 94-056 Łódź","geometry":{"location":{"lat":51.7477633,"lng":19.3978841},"viewport":{"northeast":{"lat":51.74918802989272,"lng":19.39918067989272},"southwest":{"lat":51.74648837010727,"lng":19.39648102010728}}},"icon":"https://maps.gstatic.com/mapfiles/place_api/icons/v1/png_71/restaurant-71.png","icon_background_color":"#FF9E67","icon_mask_base_uri":"https://maps.gstatic.com/mapfiles/place_api/icons/v2/restaurant_pinlet","name":"Burger I Spółka","opening_hours":{"open_now":true},"photos":[{"height":2160,"html_attributions":["<a href=\"https://maps.google.com/maps/contrib/113045471797258541355\">Dariusz Jugowicz</a>"],"photo_reference":"AeJbb3fhbicgxJT0z66yFIiTvYgQjxUCKnJWn_Jgrjg_rwo6OftJbAvp_vkrWbVKGv2C9tbM6HIQHlMX0V4j_PUeJVah4SFLRMkNltKMJiVHkowYUyWDOFDws70SAGFwBo6ZFeU4JPk5VZtsbqBoofytDxoEPzz6RG7wBuRMDkR2eoCKY9tV","width":3840}],"place_id":"ChIJF1hgKmk1GkcRS272NcgwIN0","plus_code":{"compound_code":"P9XX+45 Łódź","global_code":"9F3XP9XX+45"},"price_level":1,"rating":4.2,"reference":"ChIJF1hgKmk1GkcRS272NcgwIN0","types":["restaurant","food","point_of_interest","establishment"],"user_ratings_total":444},{"business_status":"OPERATIONAL","formatted_address":"Inflancka 29A, 91-848 Łódź","geometry":{"location":{"lat":51.8004537,"lng":19.4648593},"viewport":{"northeast":{"lat":51.80187532989272,"lng":19.46621592989272},"southwest":{"lat":51.79917567010727,"lng":19.46351627010728}}},"icon":"https://maps.gstatic.com/mapfiles/place_api/icons/v1/png_71/restaurant-71.png","icon_background_color":"#FF9E67","icon_mask_base_uri":"https://maps.gstatic.com/mapfiles/place_api/icons/v2/restaurant_pinlet","name":"Tommy Burger Bałuty","opening_hours":{"open_now":true},"photos":[{"height":2160,"html_attributions":["<a href=\"https://maps.google.com/maps/contrib/101563376250055627756\">A Google User</a>"],"photo_reference":"AeJbb3foAvrqKBzBPSp7HxqnmRUyG47G0Q-4qDIzDYrdkMIvj84TeEGKdcwcG1kXtHBpPPLyd2_pP3gN__Ow64FyhnKfhWg5RgM_CzwetlVoCLRvRWPKdxQIaRXy7dK-xQTJMvpooG0fFrYMj6SCrYfV1tSV6esJo-w3NXxCvLWTq9ZmT_zX","width":3240}],"place_id":"ChIJTVSgBBDLG0cRzLs-UTssHLo","plus_code":{"compound_code":"RF27+5W Łódź","global_code":"9F3XRF27+5W"},"price_level":2,"rating":4.2,"reference":"ChIJTVSgBBDLG0cRzLs-UTssHLo","types":["restaurant","food","point_of_interest","establishment"],"user_ratings_total":302},{"business_status":"OPERATIONAL","formatted_address":"Ptak Outlet, Żeromskiego 8, 95-030 Rzgów","geometry":{"location":{"lat":51.6475461,"lng":19.4884184},"viewport":{"northeast":{"lat":51.64839742989273,"lng":19.48996812989272},"southwest":{"lat":51.64569777010728,"lng":19.48726847010728}}},"icon":"https://maps.gstatic.com/mapfiles/place_api/icons/v1/png_71/restaurant-71.png","icon_background_color":"#FF9E67","icon_mask_base_uri":"https://maps.gstatic.com/mapfiles/place_api/icons/v2/restaurant_pinlet","name":"Boogie Burger","opening_hours":{"open_now":true},"photos":[{"height":3000,"html_attributions":["<a href=\"https://maps.google.com/maps/contrib/105839533024064694917\">patrykpd</a>"],"photo_reference":"AeJbb3cw8mPMYIz8HuRQfvGbDqSfiEZVk34_CnJZzivn7SkJG3qEyA_F9cOf-s_rBbVgAgjUiKrtpq01qgJky4vAOH28QCIRn12QskGI84gmwoiWpkq2aDGnpdIfGAqjwWjjvmBoCk5iVvE2hXgfXNGtwcGL8fzN34gsbD44_V8girr3dKm4","width":4000}],"place_id":"ChIJRRxo-cYxGkcRr1fvVpPE7B8","plus_code":{"compound_code":"JFXQ+29 Rzgów","global_code":"9F3XJFXQ+29"},"rating":4.2,"reference":"ChIJRRxo-cYxGkcRr1fvVpPE7B8","types":["restaurant","food","point_of_interest","establishment"],"user_ratings_total":58},{"business_status":"OPERATIONAL","formatted_address":"Drewnowska 58, 91-071 Łódź","geometry":{"location":{"lat":51.7807603,"lng":19.4476209},"viewport":{"northeast":{"lat":51.78220237989272,"lng":19.44893057989272},"southwest":{"lat":51.77950272010727,"lng":19.44623092010728}}},"icon":"https://maps.gstatic.com/mapfiles/place_api/icons/v1/png_71/restaurant-71.png","icon_background_color":"#FF9E67","icon_mask_base_uri":"https://maps.gstatic.com/mapfiles/place_api/icons/v2/restaurant_pinlet","name":"Burger King Manufaktura","opening_hours":{"open_now":true},"photos":[{"height":4032,"html_attributions":["<a href=\"https://maps.google.com/maps/contrib/115069171587781704464\">A Google User</a>"],"photo_reference":"AeJbb3eNZNuMGoB1CqkhYutb-Z-upwwMUP3EyQGSPqgHMLNNn-OjBYohlcR_x7yUKqdALsCXixKHag9Zuy5kjUPRJm-qHx1_9-Jpc_VbkKRrnUwb92SWlQNuUk1fxAISKTHizn45mpLceGjylekemofUC_tsrpVPwULeRl4cZW1Smw4oR0fg","width":3024}],"place_id":"ChIJHfsducXKG0cRY1X6bfxl8ak","plus_code":{"compound_code":"QCJX+82 Łódź","global_code":"9F3XQCJX+82"},"price_level":2,"rating":4.1,"reference":"ChIJHfsducXKG0cRY1X6bfxl8ak","types":["restaurant","bar","food","point_of_interest","establishment"],"user_ratings_total":1135},{"business_status":"OPERATIONAL","formatted_address":"al. Marszałka Józefa Piłsudskiego 15/23, 90-307 Łódź","geometry":{"location":{"lat":51.7595021,"lng":19.464876},"viewport":{"northeast":{"lat":51.76097437989272,"lng":19.46619632989272},"southwest":{"lat":51.75827472010727,"lng":19.46349667010728}}},"icon":"https://maps.gstatic.com/mapfiles/place_api/icons/v1/png_71/restaurant-71.png","icon_background_color":"#FF9E67","icon_mask_base_uri":"https://maps.gstatic.com/mapfiles/place_api/icons/v2/restaurant_pinlet","name":"Bobby Burger","opening_hours":{"open_now":true},"photos":[{"height":3024,"html_attributions":["<a href=\"https://maps.google.com/maps/contrib/106773015020511731442\">Anna Kliber</a>"],"photo_reference":"AeJbb3c--ALP8cr581ENKIlr9bMwZQ8mXdVn9NUiv18JzpsWeBKZ3DOD0V_HorrolmT20_49ooBbSDy8boEwtO7gaEXyuIBA6loQtlLfZC-4naZlTeI-Kc_uYXC-jM8ZAfkjoIwAJh2jDHansDXtKB7uOTwnHOu7Bj2uUmhPUtbGdn1_DZI","width":4032}],"place_id":"ChIJoT66qjw1GkcR7yJ7YZUK5nc","plus_code":{"compound_code":"QF57+RX Łódź","global_code":"9F3XQF57+RX"},"price_level":2,"rating":4.1,"reference":"ChIJoT66qjw1GkcR7yJ7YZUK5nc","types":["restaurant","food","point_of_interest","establishment"],"user_ratings_total":65},{"business_status":"OPERATIONAL","formatted_address":"Alojzego Felińskiego 9, 93-252 Łódź","geometry":{"location":{"lat":51.73217589999999,"lng":19.4986942},"viewport":{"northeast":{"lat":51.73358107989272,"lng":19.49994657989272},"southwest":{"lat":51.73088142010727,"lng":19.49724692010728}}},"icon":"https://maps.gstatic.com/mapfiles/place_api/icons/v1/png_71/restaurant-71.png","icon_background_color":"#FF9E67","icon_mask_base_uri":"https://maps.gstatic.com/mapfiles/place_api/icons/v2/restaurant_pinlet","name":"Pizzeria Benetto","opening_hours":{"open_now":true},"photos":[{"height":2268,"html_attributions":["<a href=\"https://maps.google.com/maps/contrib/114248623185768892964\">A Google User</a>"],"photo_reference":"AeJbb3eSD85DlG_tSOKURh1XmFgDQq8sF2btcOP61KGpB4c7biWQV9QnyCa0a1SB7RfpG65khAeC05eUv9akTh4L9QUHadTiAKUwRibGFvJzUyU-nX4fD-X_NIUXTHPBE0wpUTmEjC8aH55TDkBRfsuhETdqg4cwLBfvFATdwRhRXqaFgJ2j","width":4032}],"place_id":"ChIJXS-VJZ40GkcRAD2hVl2aCaA","plus_code":{"compound_code":"PFJX+VF Łódź","global_code":"9F3XPFJX+VF"},"price_level":2,"rating":4,"reference":"ChIJXS-VJZ40GkcRAD2hVl2aCaA","types":["restaurant","store","point_of_interest","food","establishment"],"user_ratings_total":816},{"business_status":"OPERATIONAL","formatted_address":"Piotrkowska 64, 90-001 Łódź","geometry":{"location":{"lat":51.7694121,"lng":19.4565774},"viewport":{"northeast":{"lat":51.77089667989272,"lng":19.45790202989272},"southwest":{"lat":51.76819702010727,"lng":19.45520237010728}}},"icon":"https://maps.gstatic.com/mapfiles/place_api/icons/v1/png_71/restaurant-71.png","icon_background_color":"#FF9E67","icon_mask_base_uri":"https://maps.gstatic.com/mapfiles/place_api/icons/v2/restaurant_pinlet","name":"American Steak & Burger","opening_hours":{"open_now":true},"photos":[{"height":12000,"html_attributions":["<a href=\"https://maps.google.com/maps/contrib/106529662180060236479\">Slawomir Waryszak</a>"],"photo_reference":"AeJbb3eRd-O38OJpzOdYgPTq3OTF6749j_26TQW_EXK5punA_1YvWyn6aGkHb7E19k0hFarj80pzpFFPsigjkZnKQCfZ55zxOKN2x1Dj-p4Wi0L4eMEWYDmWXxjoCTYTjRYc8mc9swxc01c0MeuDoJB-X554RdDCyl49Lh5h47aWAuFrBZOs","width":9000}],"place_id":"ChIJjd75xdXKG0cRM3Ftscu5cx8","plus_code":{"compound_code":"QF94+QJ Łódź","global_code":"9F3XQF94+QJ"},"price_level":2,"rating":3.9,"reference":"ChIJjd75xdXKG0cRM3Ftscu5cx8","types":["restaurant","food","point_of_interest","establishment"],"user_ratings_total":780},{"business_status":"OPERATIONAL","formatted_address":"Grobelna 8a, 95-200 Pabianice","geometry":{"location":{"lat":51.6620473,"lng":19.3570632},"viewport":{"northeast":{"lat":51.66346547989272,"lng":19.35839302989272},"southwest":{"lat":51.66076582010728,"lng":19.35569337010728}}},"icon":"https://maps.gstatic.com/mapfiles/place_api/icons/v1/png_71/restaurant-71.png","icon_background_color":"#FF9E67","icon_mask_base_uri":"https://maps.gstatic.com/mapfiles/place_api/icons/v2/restaurant_pinlet","name":"Republika Burgera Studio","opening_hours":{"open_now":true},"photos":[{"height":3463,"html_attributions":["<a href=\"https://maps.google.com/maps/contrib/105327789172281863251\">Przemysław Wrona</a>"],"photo_reference":"AeJbb3eqE1MzL2_ulIkY-9OrRjw3o-fU7zdgrsmrPG-IgqYXyvHExabLeSrRZOnfAqcJjPj3Pzp6qcORwRYx9zwMyHVKfmPN1TMRNUnNgHoWSbIjA1yJX4Hgd8xC-hE4ewzD0grJJscZ1CzynH3pCBZBwdztIK6nKxdONElwmo2msOyXnT21","width":4618}],"place_id":"ChIJJYStXLA3GkcRKWfAho-xzik","plus_code":{"compound_code":"M964+RR Pabianice","global_code":"9F3XM964+RR"},"rating":3.6,"reference":"ChIJJYStXLA3GkcRKWfAho-xzik","types":["restaurant","food","point_of_interest","establishment"],"user_ratings_total":60},{"business_status":"OPERATIONAL","formatted_address":"Pabianicka 245, 93-457 Łódź","geometry":{"location":{"lat":51.7037985,"lng":19.4152434},"viewport":{"northeast":{"lat":51.70483672989273,"lng":19.41707282989272},"southwest":{"lat":51.70213707010728,"lng":19.41437317010728}}},"icon":"https://maps.gstatic.com/mapfiles/place_api/icons/v1/png_71/restaurant-71.png","icon_background_color":"#FF9E67","icon_mask_base_uri":"https://maps.gstatic.com/mapfiles/place_api/icons/v2/restaurant_pinlet","name":"Republika Burgera","opening_hours":{"open_now":true},"photos":[{"height":4608,"html_attributions":["<a href=\"https://maps.google.com/maps/contrib/105442528887978376936\">zieletdh</a>"],"photo_reference":"AeJbb3ea21xT3q3hMwi520vwPBC2iO6Cp8aHsGgObRp6KW1i69tZuWx81cA4YItx6P2manSDOxKlcqctJBiPkRdjsfmuQWtaGeBmjXXEA02oK84ZvidRp7l2a78eX4xyzn7V5PJrcQ0mDwAhLzOuxcdaNzSHae6JQv-gmDGOaZ-SXBI798Pu","width":3456}],"place_id":"ChIJp2ZMAzU0GkcRt5ml1o2H6gY","plus_code":{"compound_code":"PC38+G3 Łódź","global_code":"9F3XPC38+G3"},"rating":3.5,"reference":"ChIJp2ZMAzU0GkcRt5ml1o2H6gY","types":["restaurant","food","point_of_interest","establishment"],"user_ratings_total":164},{"business_status":"OPERATIONAL","formatted_address":"Beli Bartoka 72, 92-547 Łódź","geometry":{"location":{"lat":51.7586044,"lng":19.5354329},"viewport":{"northeast":{"lat":51.75998332989272,"lng":19.53661862989273},"southwest":{"lat":51.75728367010728,"lng":19.53391897010728}}},"icon":"https://maps.gstatic.com/mapfiles/place_api/icons/v1/png_71/restaurant-71.png","icon_background_color":"#FF9E67","icon_mask_base_uri":"https://maps.gstatic.com/mapfiles/place_api/icons/v2/restaurant_pinlet","name":"Gastrofather - Zapieksy&Burgery","place_id":"ChIJ0VfkUBfNG0cRhs423Q3mjs8","plus_code":{"compound_code":"QG5P+C5 Łódź","global_code":"9F3XQG5P+C5"},"rating":3.4,"reference":"ChIJ0VfkUBfNG0cRhs423Q3mjs8","types":["restaurant","point_of_interest","food","establishment"],"user_ratings_total":18},{"business_status":"OPERATIONAL","formatted_address":"Piotrkowska 89, 90-423 Łódź","geometry":{"location":{"lat":51.7662844,"lng":19.456215},"viewport":{"northeast":{"lat":51.76763422989272,"lng":19.45756482989272},"southwest":{"lat":51.76493457010728,"lng":19.45486517010728}}},"icon":"https://maps.gstatic.com/mapfiles/place_api/icons/v1/png_71/restaurant-71.png","icon_background_color":"#FF9E67","icon_mask_base_uri":"https://maps.gstatic.com/mapfiles/place_api/icons/v2/restaurant_pinlet","name":"The Burgers Piotrkowska","opening_hours":{"open_now":true},"photos":[{"height":1080,"html_attributions":["<a href=\"https://maps.google.com/maps/contrib/104711027913043064787\">Karolina Kapituła</a>"],"photo_reference":"AeJbb3dGJaDh28gjsj6JWnLDwvVHSHREuH1dsLdvnCNrENWX1_pMXo8ewuwY4pz8p1VMqX9aSABUjbGFFx6St7TYJ2znP1cK3estPMV8kQouWi9QbtOVBM6GPC9AQhrGjFGoW5rGw3_X4kUYGNOzifN1pjtkEUZfI8-1lZRyI3e8eOIdlwAG","width":1080}],"place_id":"ChIJ_6-P5ebLG0cRqBLR7mSBRjo","plus_code":{"compound_code":"QF84+GF Łódź","global_code":"9F3XQF84+GF"},"rating":3.2,"reference":"ChIJ_6-P5ebLG0cRqBLR7mSBRjo","types":["restaurant","food","point_of_interest","establishment"],"user_ratings_total":6},{"business_status":"OPERATIONAL","formatted_address":"Henryka Dąbrowskiego 20 B, 95-100 Zgierz","geometry":{"location":{"lat":51.858034,"lng":19.4160121},"viewport":{"northeast":{"lat":51.85944777989272,"lng":19.41731667989272},"southwest":{"lat":51.85674812010728,"lng":19.41461702010728}}},"icon":"https://maps.gstatic.com/mapfiles/place_api/icons/v1/png_71/restaurant-71.png","icon_background_color":"#FF9E67","icon_mask_base_uri":"https://maps.gstatic.com/mapfiles/place_api/icons/v2/restaurant_pinlet","name":"The Burgers Zgierz","opening_hours":{"open_now":true},"photos":[{"height":788,"html_attributions":["<a href=\"https://maps.google.com/maps/contrib/107299579022762682161\">A Google User</a>"],"photo_reference":"AeJbb3d5e999pZOX7VwcVXTbXF6pYdjBb9YwBcsJpqRC8gwh-swqInSIYGys00tgbt8-IvcFyP-sYEVBM7utn2GztRBPlmo61B_jY3mGrqGQr-ogwHBDF--9L27SPSZPeuL_XYvmh1aJ-c32gYIfTJ9BRwxQA6lkAHL6KsYvDcH-t9PoKYhL","width":940}],"place_id":"ChIJnwbwFiO1G0cRhmcafZA_wcE","plus_code":{"compound_code":"VC58+6C Zgierz","global_code":"9F3XVC58+6C"},"rating":2.7,"reference":"ChIJnwbwFiO1G0cRhmcafZA_wcE","types":["restaurant","food","point_of_interest","establishment"],"user_ratings_total":10},{"business_status":"OPERATIONAL","formatted_address":"Ul. Gen. Jarosława Dąbrowskiego, 93-202 Łódź","geometry":{"location":{"lat":51.7356051,"lng":19.4955211},"viewport":{"northeast":{"lat":51.73715522989272,"lng":19.49692262989272},"southwest":{"lat":51.73445557010728,"lng":19.49422297010728}}},"icon":"https://maps.gstatic.com/mapfiles/place_api/icons/v1/png_71/restaurant-71.png","icon_background_color":"#FF9E67","icon_mask_base_uri":"https://maps.gstatic.com/mapfiles/place_api/icons/v2/restaurant_pinlet","name":"Louisiana Burger","opening_hours":{"open_now":true},"place_id":"ChIJh0n3pvM1GkcR4Zgx0_YuzYg","plus_code":{"compound_code":"PFPW+66 Łódź","global_code":"9F3XPFPW+66"},"rating":0,"reference":"ChIJh0n3pvM1GkcR4Zgx0_YuzYg","types":["restaurant","food","point_of_interest","establishment"],"user_ratings_total":0},{"business_status":"OPERATIONAL","formatted_address":"Piotrkowska 79, 90-423 Łódź","geometry":{"location":{"lat":51.7671809,"lng":19.4564522},"viewport":{"northeast":{"lat":51.76894367989272,"lng":19.45797467989272},"southwest":{"lat":51.76624402010728,"lng":19.45527502010728}}},"icon":"https://maps.gstatic.com/mapfiles/place_api/icons/v1/png_71/restaurant-71.png","icon_background_color":"#FF9E67","icon_mask_base_uri":"https://maps.gstatic.com/mapfiles/place_api/icons/v2/restaurant_pinlet","name":"Wrap&Burger","place_id":"ChIJs29gcdXKG0cRdRr_q6ai0Qo","plus_code":{"compound_code":"QF84+VH Łódź","global_code":"9F3XQF84+VH"},"rating":0,"reference":"ChIJs29gcdXKG0cRdRr_q6ai0Qo","types":["restaurant","food","point_of_interest","establishment"],"user_ratings_total":0},{"business_status":"OPERATIONAL","formatted_address":"CH Pasaż Łódzki, aleja Włókniarzy 264, 93-570 Łódź","geometry":{"location":{"lat":51.7504505,"lng":19.4395122},"viewport":{"northeast":{"lat":51.75190957989272,"lng":19.44063897989272},"southwest":{"lat":51.74920992010728,"lng":19.43793932010728}}},"icon":"https://maps.gstatic.com/mapfiles/place_api/icons/v1/png_71/restaurant-71.png","icon_background_color":"#FF9E67","icon_mask_base_uri":"https://maps.gstatic.com/mapfiles/place_api/icons/v2/restaurant_pinlet","name":"Bagels. Bar szybkiej obsługi","place_id":"ChIJNW2zOSE1GkcRIkgV_uc8aGc","plus_code":{"compound_code":"QC2Q+5R Łódź","global_code":"9F3XQC2Q+5R"},"rating":0,"reference":"ChIJNW2zOSE1GkcRIkgV_uc8aGc","types":["meal_takeaway","restaurant","point_of_interest","food","establishment"],"user_ratings_total":0}]