[{"business_status":"OPERATIONAL","formatted_address":"C. de los Estudios, 7, 28012 Madrid","geometry":{"location":{"lat":40.4117994,"lng":-3.7072069},"viewport":{"northeast":{"lat":40.41315142989271,"lng":-3.705883670107278},"southwest":{"lat":40.41045177010727,"lng":-3.708583329892722}}},"icon":"https://maps.gstatic.com/mapfiles/place_api/icons/v1/png_71/restaurant-71.png","icon_background_color":"#FF9E67","icon_mask_base_uri":"https://maps.gstatic.com/mapfiles/place_api/icons/v2/restaurant_pinlet","name":"Vegan Take Away","opening_hours":{"open_now":true},"place_id":"ChIJQeLR6NUnQg0R4mhEbH9iUq4","plus_code":{"compound_code":"C76V+P4 Madrid","global_code":"8CGRC76V+P4"},"rating":5,"reference":"ChIJQeLR6NUnQg0R4mhEbH9iUq4","types":["restaurant","point_of_interest","food","establishment"],"user_ratings_total":13},{"business_status":"OPERATIONAL","formatted_address":"Restaurante, Calle del Conde de Romanones, 10, 28012 Madrid","geometry":{"location":{"lat":40.4131134,"lng":-3.7050463},"viewport":{"northeast":{"lat":40.41447202989272,"lng":-3.703624470107278},"southwest":{"lat":40.41177237010728,"lng":-3.706324129892722}}},"icon":"https://maps.gstatic.com/mapfiles/place_api/icons/v1/png_71/restaurant-71.png","icon_background_color":"#FF9E67","icon_mask_base_uri":"https://maps.gstatic.com/mapfiles/place_api/icons/v2/restaurant_pinlet","name":"Distrito Vegano","photos":[{"height":3968,"html_attributions":["<a href=\"https://maps.google.com/maps/contrib/117305918041956266266\">A Google User</a>"],"photo_reference":"AeJbb3chx98MWuiav54vOR5yf5DOv65BvVTZkTrB9tean4uzMTy4g4i4kN-SzOUbIK_dLypiElJ7UydP7QYduBjMLF-7YIcd0HG-ERHi2QorMalVU_GzaH9IMSq7fb43XKiGQlzKrub_sDEMZA4NCgR919WUfLpzPQBwIhEQZUz3tNYnv2sp","width":2976}],"place_id":"ChIJDcVwvj8pQg0Rvl6n1j4GKmI","plus_code":{"compound_code":"C77V+6X Madrid","global_code":"8CGRC77V+6X"},"rating":5,"reference":"ChIJDcVwvj8pQg0Rvl6n1j4GKmI","types":["restaurant","food","point_of_interest","establishment"],"user_ratings_total":5},{"business_status":"OPERATIONAL","formatted_address":"C. Mayor, 47, 28013 Madrid","geometry":{"location":{"lat":40.4158962,"lng":-3.7085479},"viewport":{"northeast":{"lat":40.41718007989273,"lng":-3.707321420107279},"southwest":{"lat":40.41448042010728,"lng":-3.710021079892723}}},"icon":"https://maps.gstatic.com/mapfiles/place_api/icons/v1/png_71/restaurant-71.png","icon_background_color":"#FF9E67","icon_mask_base_uri":"https://maps.gstatic.com/mapfiles/place_api/icons/v2/restaurant_pinlet","name":"bienvenidos a sabor alegría","place_id":"ChIJ8bQhMHkoQg0R9qNRbbelkns","plus_code":{"compound_code":"C78R+9H Madrid","global_code":"8CGRC78R+9H"},"rating":5,"reference":"ChIJ8bQhMHkoQg0R9qNRbbelkns","types":["restaurant","food","point_of_interest","establishment"],"user_ratings_total":1},{"business_status":"OPERATIONAL","formatted_address":"Corre. Alta de San Pablo, 2, 28004 Madrid","geometry":{"location":{"lat":40.42467449999999,"lng":-3.702069799999999},"viewport":{"northeast":{"lat":40.42604172989272,"lng":-3.700739770107278},"southwest":{"lat":40.42334207010727,"lng":-3.703439429892722}}},"icon":"https://maps.gstatic.com/mapfiles/place_api/icons/v1/png_71/restaurant-71.png","icon_background_color":"#FF9E67","icon_mask_base_uri":"https://maps.gstatic.com/mapfiles/place_api/icons/v2/restaurant_pinlet","name":"FANTASTIC V","opening_hours":{"open_now":false},"photos":[{"height":512,"html_attributions":["<a href=\"https://maps.google.com/maps/contrib/114368129767891088939\">A Google User</a>"],"photo_reference":"AeJbb3epKfgHsxmMiT5gYlsSwKd_Fc91yjgwp6YZKodbdOoVE2RlLW9x0PWLuhEmKlHVhhTLt9K1h30ovF4tyh2qB8Sy-TgBg1wg4B-xlILLxpr3TLl2ttlhEzPDftH7pkE2-BpgLNsoMf29HNAXRaedEQ9HsxUYElAG4t1lxrINt7JfRIoC","width":909}],"place_id":"ChIJW8zZ7KcpQg0Rhx08FOrI_VI","plus_code":{"compound_code":"C7FX+V5 Madrid","global_code":"8CGRC7FX+V5"},"rating":4.9,"reference":"ChIJW8zZ7KcpQg0Rhx08FOrI_VI","types":["restaurant","point_of_interest","food","establishment"],"user_ratings_total":511},{"business_status":"OPERATIONAL","formatted_address":"Calle de Ruiz, 5, 28004 Madrid","geometry":{"location":{"lat":40.4277453,"lng":-3.7040047},"viewport":{"northeast":{"lat":40.42904582989272,"lng":-3.702715420107279},"southwest":{"lat":40.42634617010727,"lng":-3.705415079892723}}},"icon":"https://maps.gstatic.com/mapfiles/place_api/icons/v1/png_71/restaurant-71.png","icon_background_color":"#FF9E67","icon_mask_base_uri":"https://maps.gstatic.com/mapfiles/place_api/icons/v2/restaurant_pinlet","name":"Landareak","opening_hours":{"open_now":true},"photos":[{"height":3968,"html_attributions":["<a href=\"https://maps.google.com/maps/contrib/112008396501905131649\">Sergio Ojeda Izquierdo</a>"],"photo_reference":"AeJbb3d6O7nxw8eXhg_5RP4hGxfQ9yEo-9i3rC_sy5ao895Kh3JOpLB-01eGUingv1ZLRvEeVVapwBuE21KYSmmoxVFSJMPF1zB59qfDI3twSM3jEA3V62cZ-rm98Zv8FfZK1M-ihAhVjii2EsYeBTIWpIRcVjH4mf_kRpspTrrxxSiOX6Uw","width":2976}],"place_id":"ChIJqVUnGWIoQg0RcEoFPShWDr8","plus_code":{"compound_code":"C7HW+39 Madrid","global_code":"8CGRC7HW+39"},"rating":4.9,"reference":"ChIJqVUnGWIoQg0RcEoFPShWDr8","types":["meal_takeaway","restaurant","point_of_interest","food","establishment"],"user_ratings_total":149},{"business_status":"OPERATIONAL","formatted_address":"Mercado Santa María de la Cabeza, P.º de Sta. María de la Cabeza, 41, Banca 1 y 2, 28045 Madrid","geometry":{"location":{"lat":40.4029101,"lng":-3.697292},"viewport":{"northeast":{"lat":40.40429972989272,"lng":-3.696008770107277},"southwest":{"lat":40.40160007010728,"lng":-3.698708429892721}}},"icon":"https://maps.gstatic.com/mapfiles/place_api/icons/v1/png_71/restaurant-71.png","icon_background_color":"#FF9E67","icon_mask_base_uri":"https://maps.gstatic.com/mapfiles/place_api/icons/v2/restaurant_pinlet","name":"PLANTAMIENTOS","opening_hours":{"open_now":true},"photos":[{"height":3024,"html_attributions":["<a href=\"https://maps.google.com/maps/contrib/110855343066306677454\">A Google User</a>"],"photo_reference":"AeJbb3eC0V-O-XJnlCQzS9jsbP0XygrOm17eS8qxNMoJYkZ4F2c3DInY5LgrxOGi20thccN7HaBXyaL7IHdRRlla7AEdvt9jKC7kFS3MMLGkb08m8KcM3wB9Va0PXQBghNcpW2lW6W8wy_v_uoTK-7I24Wnt5rHRn_fEJz4Ec9yNW8SkdYPe","width":3024}],"place_id":"ChIJoVoBHVUnQg0RXcBKtFxmkTE","plus_code":{"compound_code":"C833+53 Madrid","global_code":"8CGRC833+53"},"rating":4.9,"reference":"ChIJoVoBHVUnQg0RXcBKtFxmkTE","types":["meal_takeaway","restaurant","point_of_interest","food","establishment"],"user_ratings_total":39},{"business_status":"OPERATIONAL","formatted_address":"C. de Pelayo, 19, 28004 Madrid","geometry":{"location":{"lat":40.4226985,"lng":-3.6986091},"viewport":{"northeast":{"lat":40.42404222989272,"lng":-3.697243870107278},"southwest":{"lat":40.42134257010728,"lng":-3.699943529892722}}},"icon":"https://maps.gstatic.com/mapfiles/place_api/icons/v1/png_71/restaurant-71.png","icon_background_color":"#FF9E67","icon_mask_base_uri":"https://maps.gstatic.com/mapfiles/place_api/icons/v2/restaurant_pinlet","name":"Mad Mad Vegan","opening_hours":{"open_now":true},"photos":[{"height":4032,"html_attributions":["<a href=\"https://maps.google.com/maps/contrib/114545203289086064461\">Lauren Bonheim</a>"],"photo_reference":"AeJbb3edusUtEWWl4Gtwd51KVCEdi4wg7D5Zb9fagYjSQTZaVLh2ZgGdcttzYCSb_vcayocMSKR4pm3QLMNKzv8qYAAhyEb153so26ylQe5O0W519EfSK3AxjroEyYEZJzSCFTbCFfndAxzFwwFW3eUhDGEr0SewilBBiraSdbfdFmu2a0hG","width":3024}],"place_id":"ChIJp0iAs5kpQg0REg9rNYuY8PQ","plus_code":{"compound_code":"C8F2+3H Madrid","global_code":"8CGRC8F2+3H"},"price_level":2,"rating":4.8,"reference":"ChIJp0iAs5kpQg0REg9rNYuY8PQ","types":["restaurant","food","point_of_interest","establishment"],"user_ratings_total":1582},{"business_status":"OPERATIONAL","formatted_address":"C. del Barco, 8, 28004 Madrid","geometry":{"location":{"lat":40.4213654,"lng":-3.7027603},"viewport":{"northeast":{"lat":40.42274612989272,"lng":-3.701410820107279},"southwest":{"lat":40.42004647010728,"lng":-3.704110479892722}}},"icon":"https://maps.gstatic.com/mapfiles/place_api/icons/v1/png_71/restaurant-71.png","icon_background_color":"#FF9E67","icon_mask_base_uri":"https://maps.gstatic.com/mapfiles/place_api/icons/v2/restaurant_pinlet","name":"Sanissimo Gran Via Vegan","opening_hours":{"open_now":false},"photos":[{"height":2992,"html_attributions":["<a href=\"https://maps.google.com/maps/contrib/109938176986076646242\">Abel</a>"],"photo_reference":"AeJbb3cNZWf-3aCOAfXPTzFuaEVOkaKriYhnkZENUgQyBxJgA_xq2nklgFRMf8d6bAi-s2o67up_DC_96hH69WpZuS0NAuRg133xtaFeZ1X_3SQZ8jSJbL3nSkVbH-6EJTEPIBNKl6_F5HN2OW3iHWbWaRSrjlmX9iVkQdUJQM58elsmKBbT","width":2992}],"place_id":"ChIJjbEumlgpQg0RITkZQzTjo1s","plus_code":{"compound_code":"C7CW+GV Madrid","global_code":"8CGRC7CW+GV"},"price_level":2,"rating":4.8,"reference":"ChIJjbEumlgpQg0RITkZQzTjo1s","types":["restaurant","food","point_of_interest","establishment"],"user_ratings_total":1076},{"business_status":"OPERATIONAL","formatted_address":"C. de Segovia, 17, 28005 Madrid","geometry":{"location":{"lat":40.4137961,"lng":-3.7124634},"viewport":{"northeast":{"lat":40.41519852989272,"lng":-3.711035020107278},"southwest":{"lat":40.41249887010727,"lng":-3.713734679892722}}},"icon":"https://maps.gstatic.com/mapfiles/place_api/icons/v1/png_71/restaurant-71.png","icon_background_color":"#FF9E67","icon_mask_base_uri":"https://maps.gstatic.com/mapfiles/place_api/icons/v2/restaurant_pinlet","name":"Choose Restaurante Vegano","opening_hours":{"open_now":false},"photos":[{"height":900,"html_attributions":["<a href=\"https://maps.google.com/maps/contrib/111433507754793003621\">A Google User</a>"],"photo_reference":"AeJbb3c_q--jNf0sQNsVNA_brEATUagoPZwFD4j5vHU8wPttgx8KoVy5rnSu7sBzsVvlJ0HcUfahj1WtqNz7j7M7i_ocpZY_vVlfHJDFqwejj1k77uFrFOSsbmWtMT3dCUnNry_SCSnQv6vtauXrXDVsHFXxnc8WekKbhTW8J0cttSWod-2D","width":1999}],"place_id":"ChIJe9vV8U0pQg0RojYHn6kX04s","plus_code":{"compound_code":"C77Q+G2 Madrid","global_code":"8CGRC77Q+G2"},"rating":4.8,"reference":"ChIJe9vV8U0pQg0RojYHn6kX04s","types":["restaurant","food","point_of_interest","establishment"],"user_ratings_total":832},{"business_status":"OPERATIONAL","formatted_address":"C. de Lavapiés, 16, 28012 Madrid","geometry":{"location":{"lat":40.4111134,"lng":-3.7030389},"viewport":{"northeast":{"lat":40.41248587989272,"lng":-3.701580120107277},"southwest":{"lat":40.40978622010728,"lng":-3.704279779892721}}},"icon":"https://maps.gstatic.com/mapfiles/place_api/icons/v1/png_71/restaurant-71.png","icon_background_color":"#FF9E67","icon_mask_base_uri":"https://maps.gstatic.com/mapfiles/place_api/icons/v2/restaurant_pinlet","name":"Mad Mad Vegan","opening_hours":{"open_now":true},"photos":[{"height":4032,"html_attributions":["<a href=\"https://maps.google.com/maps/contrib/109855784230676897531\">A Google User</a>"],"photo_reference":"AeJbb3eF5vCAVlCr6JlwI1JMF5f7hNEolV5J_E7qzEyqmkZBPWhfYEVCeqAsfUps6ngyNWFtFnP6-tB2VNEIu49ez50qMQFFX5aL1LpCwPV9xRAP4LW2oZ0yzvyLk_1CKxgWCEAE5kjxbbyulFQlvlpSjhM3T5kn2-xCn0Qm9nl8um4-vsjK","width":3016}],"place_id":"ChIJMz0uEPonQg0RrTePjJCedbc","plus_code":{"compound_code":"C76W+CQ Madrid","global_code":"8CGRC76W+CQ"},"price_level":2,"rating":4.8,"reference":"ChIJMz0uEPonQg0RrTePjJCedbc","types":["restaurant","food","point_of_interest","establishment"],"user_ratings_total":675},{"business_status":"OPERATIONAL","formatted_address":"C. de Ntra. Sra. de la Luz, 62, 28047 Madrid","geometry":{"location":{"lat":40.3850606,"lng":-3.747795899999999},"viewport":{"northeast":{"lat":40.38625812989272,"lng":-3.746536270107278},"southwest":{"lat":40.38355847010727,"lng":-3.749235929892722}}},"icon":"https://maps.gstatic.com/mapfiles/place_api/icons/v1/png_71/restaurant-71.png","icon_background_color":"#FF9E67","icon_mask_base_uri":"https://maps.gstatic.com/mapfiles/place_api/icons/v2/restaurant_pinlet","name":"Vegania Veggie Bar Carabanchel","opening_hours":{"open_now":false},"photos":[{"height":2268,"html_attributions":["<a href=\"https://maps.google.com/maps/contrib/108608727157588963709\">Angel Misut</a>"],"photo_reference":"AeJbb3dYh9QVKWkAJrrNo8nnK8X28n4zcPeOTX3KhFG6DtAgy4JTYgLfnTwv63hWCvd2EdA2F8PZDZtFWG1N-MXxXxb3lYJPKatW__ezNEEeg9zBeInH20pYuF3TBXk7Bb7odWYByez6lxcKctfQbM4ScUcf2NplNbTa9pner_SGC1pRXmUw","width":4032}],"place_id":"ChIJrVO8NlaJQQ0RYf1rylozpnQ","plus_code":{"compound_code":"97P2+2W Madrid","global_code":"8CGR97P2+2W"},"price_level":1,"rating":4.8,"reference":"ChIJrVO8NlaJQQ0RYf1rylozpnQ","types":["bar","restaurant","point_of_interest","food","establishment"],"user_ratings_total":649},{"business_status":"OPERATIONAL","formatted_address":"P.º del Rey, 10, 28008 Madrid","geometry":{"location":{"lat":40.4213159,"lng":-3.7180375},"viewport":{"northeast":{"lat":40.42266622989273,"lng":-3.716710270107278},"southwest":{"lat":40.41996657010728,"lng":-3.719409929892722}}},"icon":"https://maps.gstatic.com/mapfiles/place_api/icons/v1/png_71/restaurant-71.png","icon_background_color":"#FF9E67","icon_mask_base_uri":"https://maps.gstatic.com/mapfiles/place_api/icons/v2/restaurant_pinlet","name":"Bioloco","opening_hours":{"open_now":false},"photos":[{"height":4344,"html_attributions":["<a href=\"https://maps.google.com/maps/contrib/102516144800228595787\">Andres Lopez Gutierrez de la Cueva</a>"],"photo_reference":"AeJbb3fFmRuGh19qVq1tqTYnKa2k6ng719sYLunBXFb3yD2QiWhOhgfbLhLwhLBwzkxOX8tDsMALUXsmLUeKXXE-dP_xaWRY0bHUvJ5HxnBDNd8hZ5mFVinkviO23CUYN_vKKtH-vcWpH7kRHdbim68-gJqGnrNny2JTwlrUJxOrGsgkNUPQ","width":5792}],"place_id":"ChIJhYVMM4QpQg0ROLHBaG9SWHY","plus_code":{"compound_code":"C7CJ+GQ Madrid","global_code":"8CGRC7CJ+GQ"},"rating":4.8,"reference":"ChIJhYVMM4QpQg0ROLHBaG9SWHY","types":["restaurant","point_of_interest","food","establishment"],"user_ratings_total":204},{"business_status":"OPERATIONAL","formatted_address":"C. Felipe Fraile, 5, 28038 Madrid","geometry":{"location":{"lat":40.3971772,"lng":-3.6660671},"viewport":{"northeast":{"lat":40.39850737989271,"lng":-3.664673770107278},"southwest":{"lat":40.39580772010727,"lng":-3.667373429892721}}},"icon":"https://maps.gstatic.com/mapfiles/place_api/icons/v1/png_71/restaurant-71.png","icon_background_color":"#FF9E67","icon_mask_base_uri":"https://maps.gstatic.com/mapfiles/place_api/icons/v2/restaurant_pinlet","name":"THUNDER Vegan Vallekas","opening_hours":{"open_now":false},"photos":[{"height":1573,"html_attributions":["<a href=\"https://maps.google.com/maps/contrib/102252577675418212462\">A Google User</a>"],"photo_reference":"AeJbb3eYauR4DVevCaI2vC5xJNRAaWgn2_CZIwAJjExbeiKdoKUIm9Wsyvj5W5lqQsIUWvNwkcIu8PzsBj13jb_i3Bonc2_faVXGCUb0Yyt2DRGMjdAMij2pXis8WfKsV8HwQ2LCRP__tbyQ8bwTQ2aRvH4-kMawK5kzpqTm79bDXcRG-uPr","width":2795}],"place_id":"ChIJY7yxWiMnQg0RdVvrTcwyAwA","plus_code":{"compound_code":"98WM+VH Madrid","global_code":"8CGR98WM+VH"},"rating":4.8,"reference":"ChIJY7yxWiMnQg0RdVvrTcwyAwA","types":["restaurant","point_of_interest","food","establishment"],"user_ratings_total":24},{"business_status":"OPERATIONAL","formatted_address":"C. de Nieremberg, 23, 28002 Madrid","geometry":{"location":{"lat":40.4480704,"lng":-3.6727422},"viewport":{"northeast":{"lat":40.44949257989272,"lng":-3.671278320107278},"southwest":{"lat":40.44679292010728,"lng":-3.673977979892722}}},"icon":"https://maps.gstatic.com/mapfiles/place_api/icons/v1/png_71/restaurant-71.png","icon_background_color":"#FF9E67","icon_mask_base_uri":"https://maps.gstatic.com/mapfiles/place_api/icons/v2/restaurant_pinlet","name":"SOPA VEGGIE","opening_hours":{"open_now":false},"photos":[{"height":1600,"html_attributions":["<a href=\"https://maps.google.com/maps/contrib/106327231871186350217\">A Google User</a>"],"photo_reference":"AeJbb3fC5hARGKEeGsL45UdatjXoJZRM-6e9Tza90f6rXWQQ0VZX30ozXfmDhfk8AGYnvWlnUvhTDTbUiM8F3YBlFuAqeRZw0vqRqA6ZT9AOH_emQ4fsrPNQgPkrVAO9PbtBCdiBMb2wTlictSr0uKa7D7CjYM-arYq1npFCHzsmf0AvR15r","width":1200}],"place_id":"ChIJt6SVVr0pQg0RqjVoatZsbkc","plus_code":{"compound_code":"C8XG+6W Madrid","global_code":"8CGRC8XG+6W"},"rating":4.8,"reference":"ChIJt6SVVr0pQg0RqjVoatZsbkc","types":["restaurant","food","point_of_interest","establishment"],"user_ratings_total":20},{"business_status":"OPERATIONAL","formatted_address":"P.º de la Florida, 37, 28008 Madrid","geometry":{"location":{"lat":40.4227556,"lng":-3.7233074},"viewport":{"northeast":{"lat":40.42414892989272,"lng":-3.721894670107278},"southwest":{"lat":40.42144927010727,"lng":-3.724594329892722}}},"icon":"https://maps.gstatic.com/mapfiles/place_api/icons/v1/png_71/restaurant-71.png","icon_background_color":"#FF9E67","icon_mask_base_uri":"https://maps.gstatic.com/mapfiles/place_api/icons/v2/restaurant_pinlet","name":"Sanissimo Principe Pío Vegan","opening_hours":{"open_now":true},"photos":[{"height":1536,"html_attributions":["<a href=\"https://maps.google.com/maps/contrib/102406184456770608153\">Lcoli001</a>"],"photo_reference":"AeJbb3fim9GAflDf161srM4guUe_ntLE6tw7Eyr6qUJ2-v4zRD33l7oB5ILKm2azzNeai1NY1pBS_CkD9s3RK1jCsy1osWfHvqoWCbl0LbKCnmIor2JC3mwpBYanEgvDIvv3tHfY6TPpK-v7R2gky7x-E78smLL5NqqYj3xU9PDdk6-h7SRK","width":2048}],"place_id":"ChIJh8ubrBIoQg0RkOWdsGRXgCw","plus_code":{"compound_code":"C7FG+4M Madrid","global_code":"8CGRC7FG+4M"},"price_level":2,"rating":4.7,"reference":"ChIJh8ubrBIoQg0RkOWdsGRXgCw","types":["restaurant","point_of_interest","food","establishment"],"user_ratings_total":2068},{"business_status":"OPERATIONAL","formatted_address":"C. de la Ballesta, 13, 28004 Madrid","geometry":{"location":{"lat":40.4219399,"lng":-3.7034761},"viewport":{"northeast":{"lat":40.42326487989272,"lng":-3.702122520107277},"southwest":{"lat":40.42056522010728,"lng":-3.704822179892722}}},"icon":"https://maps.gstatic.com/mapfiles/place_api/icons/v1/png_71/restaurant-71.png","icon_background_color":"#FF9E67","icon_mask_base_uri":"https://maps.gstatic.com/mapfiles/place_api/icons/v2/restaurant_pinlet","name":"B13 bar","opening_hours":{"open_now":false},"photos":[{"height":2448,"html_attributions":["<a href=\"https://maps.google.com/maps/contrib/113158545785932296128\">Manuel Rolán Díaz</a>"],"photo_reference":"AeJbb3ccV0QBnG0spsgpwd_kzJ8Lx83cXaDCsYLIm48dT0QGr4MlY8mRhBL-9rAgnMCjfzkaX0HB3UC-NmVF8tHCcw9UEaeB851nzKh3doebtCZAvoOgQm1wbfLVwGkGvuGpx_65Hm-t1FP4VrNJca4NEvUP_XZvRwRe_rQJimZUYVqlnGOI","width":3264}],"place_id":"ChIJ42kRXX0oQg0RiFFbECjZKtE","plus_code":{"compound_code":"C7CW+QH Madrid","global_code":"8CGRC7CW+QH"},"price_level":1,"rating":4.7,"reference":"ChIJ42kRXX0oQg0RiFFbECjZKtE","types":["bar","restaurant","point_of_interest","food","establishment"],"user_ratings_total":1880},{"business_status":"OPERATIONAL","formatted_address":"C. de Jovellanos, 6, 28014 Madrid","geometry":{"location":{"lat":40.4169376,"lng":-3.6968055},"viewport":{"northeast":{"lat":40.41831452989273,"lng":-3.695392720107278},"southwest":{"lat":40.41561487010728,"lng":-3.698092379892722}}},"icon":"https://maps.gstatic.com/mapfiles/place_api/icons/v1/png_71/restaurant-71.png","icon_background_color":"#FF9E67","icon_mask_base_uri":"https://maps.gstatic.com/mapfiles/place_api/icons/v2/restaurant_pinlet","name":"Pizza Natura saludable y sin gluten","opening_hours":{"open_now":false},"photos":[{"height":3024,"html_attributions":["<a href=\"https://maps.google.com/maps/contrib/116135001449101429665\">José María Cuéllar</a>"],"photo_reference":"AeJbb3d1D3NzGv2u5U1dLMxbdhIxS5WVpLeM1txyHQcFHeofo-_-MIU3qwZQuFLnui-IcnivniO-KcRpndMQGI7iFTgW689ldtUXIJTh7sdU8BNUIvPWat6pp5UIfru7JXXy05H3R-kDHAXD1SDd9r2LEZLtWn0wMZfECXOSavBoue4-Yqfg","width":4032}],"place_id":"ChIJqR24KWApQg0R6TRA0ir3Bh0","plus_code":{"compound_code":"C883+Q7 Madrid","global_code":"8CGRC883+Q7"},"rating":4.7,"reference":"ChIJqR24KWApQg0R6TRA0ir3Bh0","types":["restaurant","point_of_interest","food","establishment"],"user_ratings_total":1035},{"business_status":"OPERATIONAL","formatted_address":"C. Benito de Castro, 4, 28028 Madrid","geometry":{"location":{"lat":40.4264864,"lng":-3.6677545},"viewport":{"northeast":{"lat":40.42783632989272,"lng":-3.666361770107277},"southwest":{"lat":40.42513667010728,"lng":-3.669061429892721}}},"icon":"https://maps.gstatic.com/mapfiles/place_api/icons/v1/png_71/restaurant-71.png","icon_background_color":"#FF9E67","icon_mask_base_uri":"https://maps.gstatic.com/mapfiles/place_api/icons/v2/restaurant_pinlet","name":"El Perro Gamberro","opening_hours":{"open_now":false},"photos":[{"height":3024,"html_attributions":["<a href=\"https://maps.google.com/maps/contrib/106803455294107369617\">Emanuele Torres</a>"],"photo_reference":"AeJbb3eXc92Sj1ILChr2Mc4PgLcoh5c6jffPL_SC0ZpE9FLy2pnc8EknjrFX02huz7o6Cex3REa2CZtvvNUK4jTlV4XqVGBvhPWNhq5JN7rZNyw2l6PbEGjUydvt2soH8mhaiewKH1Ya-HxpDkBGXVsAf3p-MxM3TteXBpyHRzUJNnwt1_iA","width":4032}],"place_id":"ChIJdaDAaXgoQg0R61lW2EgYBQQ","plus_code":{"compound_code":"C8GJ+HV Madrid","global_code":"8CGRC8GJ+HV"},"price_level":1,"rating":4.7,"reference":"ChIJdaDAaXgoQg0R61lW2EgYBQQ","types":["restaurant","point_of_interest","food","establishment"],"user_ratings_total":762},{"business_status":"OPERATIONAL","formatted_address":"C. de Fernández de los Ríos, 43, 28015 Madrid","geometry":{"location":{"lat":40.4351397,"lng":-3.710536},"viewport":{"northeast":{"lat":40.43650667989272,"lng":-3.709185470107277},"southwest":{"lat":40.43380702010727,"lng":-3.711885129892721}}},"icon":"https://maps.gstatic.com/mapfiles/place_api/icons/v1/png_71/restaurant-71.png","icon_background_color":"#FF9E67","icon_mask_base_uri":"https://maps.gstatic.com/mapfiles/place_api/icons/v2/restaurant_pinlet","name":"Los Andenes","opening_hours":{"open_now":false},"photos":[{"height":3968,"html_attributions":["<a href=\"https://maps.google.com/maps/contrib/106284727575607075544\">Antonello Corrado</a>"],"photo_reference":"AeJbb3eeX2qt6c716UY3uHBBvovMoEEit-LlLjClyl363HuN93OOo_rKtNGF3lj2MUV63Z5CQZQy533xoJqXQ38Lae4v3e1x6Ejeqmhf0TKHJcBDGO7WWluVBYKHVf738ahQYPhCO_vutfXNYPksLZn932WlXP7CcnukGSdn8E-gc8nf0Eyi","width":2976}],"place_id":"ChIJ4_v9lGIpQg0RR8li_nQgI6U","plus_code":{"compound_code":"C7PQ+2Q Madrid","global_code":"8CGRC7PQ+2Q"},"price_level":1,"rating":4.7,"reference":"ChIJ4_v9lGIpQg0RR8li_nQgI6U","types":["restaurant","food","point_of_interest","establishment"],"user_ratings_total":653},{"business_status":"OPERATIONAL","formatted_address":"C. de Don Felipe, 4, 28004 Madrid","geometry":{"location":{"lat":40.424533,"lng":-3.702365},"viewport":{"northeast":{"lat":40.42584622989271,"lng":-3.701028120107278},"southwest":{"lat":40.42314657010727,"lng":-3.703727779892722}}},"icon":"https://maps.gstatic.com/mapfiles/place_api/icons/v1/png_71/restaurant-71.png","icon_background_color":"#FF9E67","icon_mask_base_uri":"https://maps.gstatic.com/mapfiles/place_api/icons/v2/restaurant_pinlet","name":"THUNDER Vegan Malasaña","opening_hours":{"open_now":true},"photos":[{"height":4032,"html_attributions":["<a href=\"https://maps.google.com/maps/contrib/118004885438219250352\">Prajyoth Mirajkar</a>"],"photo_reference":"AeJbb3d4Cy3o2N9mRzO7cpsyC1n6_GFJROPW41r1BgKC6UgX1sYVaiUF4xcRLM6DQ1uPwGQ5HX9FTvwW1323xEX82uB9gPRlMw6Tyz7mDzNfoFo_FvspN6RhlABWfDXIUeWUavIWCblDd5jydhDWj8yHt6VY-epaQ0TBxz-ezdTPIo9UepWx","width":2268}],"place_id":"ChIJk2NryLQpQg0R6SZUS4VF-84","plus_code":{"compound_code":"C7FX+R3 Madrid","global_code":"8CGRC7FX+R3"},"price_level":1,"rating":4.7,"reference":"ChIJk2NryLQpQg0R6SZUS4VF-84","types":["restaurant","food","point_of_interest","establishment"],"user_ratings_total":477},{"business_status":"OPERATIONAL","formatted_address":"P.º de Extremadura, 4, 28011 Madrid","geometry":{"location":{"lat":40.4142113,"lng":-3.7254808},"viewport":{"northeast":{"lat":40.41545637989272,"lng":-3.724108920107278},"southwest":{"lat":40.41275672010728,"lng":-3.726808579892722}}},"icon":"https://maps.gstatic.com/mapfiles/place_api/icons/v1/png_71/restaurant-71.png","icon_background_color":"#FF9E67","icon_mask_base_uri":"https://maps.gstatic.com/mapfiles/place_api/icons/v2/restaurant_pinlet","name":"Sana vegetariana","opening_hours":{"open_now":true},"photos":[{"height":1600,"html_attributions":["<a href=\"https://maps.google.com/maps/contrib/102730103028407832228\">A Google User</a>"],"photo_reference":"AeJbb3ePOic337ohxzXZ3xaXCnhpsIUGdurCAHWhoYag2bWokRpoQKH7DldI2pecP5an_lbsmi_sl6x8ad10aIbB0MkDLsQAnLVniFsGuaEFKwRJ_W4QGA4h9rH3c_onVcZZp8FhFGrUfy0Xj3U58EQkiv-w0PeNYtfpAOjiejv2L1H6xJAs","width":1288}],"place_id":"ChIJGV8zqggpQg0RtxSGKua_KTs","plus_code":{"compound_code":"C77F+MR Madrid","global_code":"8CGRC77F+MR"},"price_level":1,"rating":4.7,"reference":"ChIJGV8zqggpQg0RtxSGKua_KTs","types":["restaurant","food","point_of_interest","establishment"],"user_ratings_total":124},{"business_status":"OPERATIONAL","formatted_address":"C. de Campomanes, 5, 28013 Madrid","geometry":{"location":{"lat":40.4190636,"lng":-3.7093565},"viewport":{"northeast":{"lat":40.42037347989272,"lng":-3.708014170107278},"southwest":{"lat":40.41767382010728,"lng":-3.710713829892722}}},"icon":"https://maps.gstatic.com/mapfiles/place_api/icons/v1/png_71/restaurant-71.png","icon_background_color":"#FF9E67","icon_mask_base_uri":"https://maps.gstatic.com/mapfiles/place_api/icons/v2/restaurant_pinlet","name":"Sanissimo Opera Vegan","opening_hours":{"open_now":true},"photos":[{"height":3000,"html_attributions":["<a href=\"https://maps.google.com/maps/contrib/110275654588628660259\">Andrés X.V.</a>"],"photo_reference":"AeJbb3fuX_50P4vwmtEC5VpBlgW282ec8RRXMOVFe_iVMd5YVUPXbRMK5IfKP_obndkqb08K1nKDHi3ZSJV8QCXxwclHQ35DDntoNuv3KFF8J6dquF3BDe_d35dB5I-vNi-258_sJTWA1RUDFQ7hDroPqNjwDXPQVsUxEGLVqoBek5jhGizX","width":5333}],"place_id":"ChIJ29ZvwHsoQg0RmCpJuMyaYnQ","plus_code":{"compound_code":"C79R+J7 Madrid","global_code":"8CGRC79R+J7"},"price_level":1,"rating":4.6,"reference":"ChIJ29ZvwHsoQg0RmCpJuMyaYnQ","types":["bar","store","restaurant","point_of_interest","food","establishment"],"user_ratings_total":2526},{"business_status":"OPERATIONAL","formatted_address":"C. de Hernán Cortés, 8, 28004 Madrid","geometry":{"location":{"lat":40.4234353,"lng":-3.7000271},"viewport":{"northeast":{"lat":40.42478122989272,"lng":-3.698647820107279},"southwest":{"lat":40.42208157010727,"lng":-3.701347479892723}}},"icon":"https://maps.gstatic.com/mapfiles/place_api/icons/v1/png_71/restaurant-71.png","icon_background_color":"#FF9E67","icon_mask_base_uri":"https://maps.gstatic.com/mapfiles/place_api/icons/v2/restaurant_pinlet","name":"La Hummuseria","opening_hours":{"open_now":true},"photos":[{"height":1365,"html_attributions":["<a href=\"https://maps.google.com/maps/contrib/109753769007099113201\">La Hummuseria</a>"],"photo_reference":"AeJbb3dfRvoO2VTfy7W4OvuTqmZWAwFOfee_qq9tFkWwNII7EYYmq1lTgjec3CJeBkZX4dTeHsfpDWCV3zyBlhJuyJ4UR7TEVbSN7-EJju0pMyRMx3LtYFe_TzbaTjP9F0DjszheVEU3qo408D34hm_IcEsi-xYaJKWSi6hORnemPcuHglpc","width":2048}],"place_id":"ChIJF6v8g4goQg0RBHIzCYgqfNQ","plus_code":{"compound_code":"C7FX+9X Madrid","global_code":"8CGRC7FX+9X"},"price_level":1,"rating":4.6,"reference":"ChIJF6v8g4goQg0RBHIzCYgqfNQ","types":["restaurant","point_of_interest","food","establishment"],"user_ratings_total":2154},{"business_status":"OPERATIONAL","formatted_address":"Calle del Conde de Romanones, 10, 28012 Madrid","geometry":{"location":{"lat":40.4131134,"lng":-3.7050463},"viewport":{"northeast":{"lat":40.41447202989272,"lng":-3.703624470107278},"southwest":{"lat":40.41177237010728,"lng":-3.706324129892722}}},"icon":"https://maps.gstatic.com/mapfiles/place_api/icons/v1/png_71/restaurant-71.png","icon_background_color":"#FF9E67","icon_mask_base_uri":"https://maps.gstatic.com/mapfiles/place_api/icons/v2/restaurant_pinlet","name":"Distrito Vegano","opening_hours":{"open_now":true},"photos":[{"height":1536,"html_attributions":["<a href=\"https://maps.google.com/maps/contrib/112277795637352743627\">A Google User</a>"],"photo_reference":"AeJbb3dh4udOu58zTKoXL-nGGmaq1UxcOYp6Pcz_MQuWWCJLyL7YzEFvJet1sv474dyYEEGfHDTR6gUGjt-oh1bK3Xg8bW3v-y5-LkHd0lFgfhARr6wxYg1BUhy6u3Z3Csur-889JumloM7X8itbvd16V7g2o1MVZMcCOqN24s3CH11kS4JN","width":2048}],"place_id":"ChIJ2z8TbywmQg0RHVnx4UCblM4","plus_code":{"compound_code":"C77V+6X Madrid","global_code":"8CGRC77V+6X"},"price_level":2,"rating":4.6,"reference":"ChIJ2z8TbywmQg0RHVnx4UCblM4","types":["cafe","bakery","store","restaurant","point_of_interest","food","establishment"],"user_ratings_total":2005},{"business_status":"OPERATIONAL","formatted_address":"C. de Sta. Isabel, 27, 28012 Madrid","geometry":{"location":{"lat":40.4102106,"lng":-3.6972587},"viewport":{"northeast":{"lat":40.41152137989273,"lng":-3.695955120107278},"southwest":{"lat":40.40882172010728,"lng":-3.698654779892721}}},"icon":"https://maps.gstatic.com/mapfiles/place_api/icons/v1/png_71/restaurant-71.png","icon_background_color":"#FF9E67","icon_mask_base_uri":"https://maps.gstatic.com/mapfiles/place_api/icons/v2/restaurant_pinlet","name":"Santa y pura Vegan Bar","opening_hours":{"open_now":false},"photos":[{"height":643,"html_attributions":["<a href=\"https://maps.google.com/maps/contrib/103715377420120600671\">Pura Vida Vegan Bar</a>"],"photo_reference":"AeJbb3f6K9o0y3--4PMjgyeEJFqiqSYcDpXWrMQVpEx7bkhj8K1jN-6fe-jejsxGu85UeIyD9_QZDJS0BSDkR3ZT2FxapG-yiC88kMvsw0vB7SmybxOIM6c_wJRlO4PCbIR8L0WytMQ0Br3TsF2KmldH3Tjz5uHQdvMIphAC1ibBWm9zmz5F","width":1017}],"place_id":"ChIJOZdtitYnQg0RvuYeLnSpBzo","plus_code":{"compound_code":"C863+33 Madrid","global_code":"8CGRC863+33"},"price_level":1,"rating":4.6,"reference":"ChIJOZdtitYnQg0RvuYeLnSpBzo","types":["bar","restaurant","food","point_of_interest","establishment"],"user_ratings_total":1492},{"business_status":"OPERATIONAL","formatted_address":"Av. de Menéndez Pelayo, 61, 28009 Madrid","geometry":{"location":{"lat":40.4157066,"lng":-3.6776369},"viewport":{"northeast":{"lat":40.41695707989273,"lng":-3.676202370107278},"southwest":{"lat":40.41425742010728,"lng":-3.678902029892722}}},"icon":"https://maps.gstatic.com/mapfiles/place_api/icons/v1/png_71/restaurant-71.png","icon_background_color":"#FF9E67","icon_mask_base_uri":"https://maps.gstatic.com/mapfiles/place_api/icons/v2/restaurant_pinlet","name":"Levél Veggie Bistro","opening_hours":{"open_now":false},"photos":[{"height":4032,"html_attributions":["<a href=\"https://maps.google.com/maps/contrib/114960491358276619094\">Danny Hsu</a>"],"photo_reference":"AeJbb3eCdsxeDPyH69aQv5XLEc7MoSf1OIAwo8Nol1FDuCZTiXm0kiw1U9GGsAaj97l1ufBYSOQMUEfX_9z77S5hJiI9RQhkyFzjCNkro4xX-DBSHUlhhEtAcaLIReWnvCeRdZSKMH7CD4QvD_CK0AU3UxOgM1_22eK3fbVY_px6nH-7r7P_","width":3024}],"place_id":"ChIJT_iV0qAoQg0Ry5euNZj43h4","plus_code":{"compound_code":"C88C+7W Madrid","global_code":"8CGRC88C+7W"},"price_level":3,"rating":4.6,"reference":"ChIJT_iV0qAoQg0Ry5euNZj43h4","types":["restaurant","point_of_interest","food","establishment"],"user_ratings_total":1340},{"business_status":"OPERATIONAL","formatted_address":"C. de Galileo, 12, 28015 Madrid","geometry":{"location":{"lat":40.43091889999999,"lng":-3.7103279},"viewport":{"northeast":{"lat":40.43227062989272,"lng":-3.709031670107279},"southwest":{"lat":40.42957097010728,"lng":-3.711731329892723}}},"icon":"https://maps.gstatic.com/mapfiles/place_api/icons/v1/png_71/restaurant-71.png","icon_background_color":"#FF9E67","icon_mask_base_uri":"https://maps.gstatic.com/mapfiles/place_api/icons/v2/restaurant_pinlet","name":"Hakuna Matata Veggie","opening_hours":{"open_now":false},"photos":[{"height":3000,"html_attributions":["<a href=\"https://maps.google.com/maps/contrib/103939176382542681110\">Alessandro</a>"],"photo_reference":"AeJbb3fQTynrVWi-jmnTF5JQoVZnihZD8IQEP6UHyGuyUvf3E9BPNdbTPVmxQf1KkRzkeDg2rm78K5yB86MX1-5CJoX_M0XtjIJNhlih1orxLg3HFONcXNk15aMp-I8cDxz-BCCbPlZLstUJoEshhWMoyEYsHNu7w6L-rfymyHO1ngiTLWIb","width":4000}],"place_id":"ChIJy8RPMlMoQg0RFflzspI-8cI","plus_code":{"compound_code":"C7JQ+9V Madrid","global_code":"8CGRC7JQ+9V"},"price_level":1,"rating":4.6,"reference":"ChIJy8RPMlMoQg0RFflzspI-8cI","types":["restaurant","point_of_interest","food","establishment"],"user_ratings_total":1312},{"business_status":"OPERATIONAL","formatted_address":"C. del Álamo, 3, 28015 Madrid","geometry":{"location":{"lat":40.4238392,"lng":-3.7091181},"viewport":{"northeast":{"lat":40.42521297989272,"lng":-3.707734770107278},"southwest":{"lat":40.42251332010728,"lng":-3.710434429892722}}},"icon":"https://maps.gstatic.com/mapfiles/place_api/icons/v1/png_71/restaurant-71.png","icon_background_color":"#FF9E67","icon_mask_base_uri":"https://maps.gstatic.com/mapfiles/place_api/icons/v2/restaurant_pinlet","name":"Vega Alamo","opening_hours":{"open_now":true},"photos":[{"height":4032,"html_attributions":["<a href=\"https://maps.google.com/maps/contrib/112784058080565847581\">A Google User</a>"],"photo_reference":"AeJbb3cRHhG3Pvu6wzngnqdXNO_geF_JVaM3ufx26E3oyIfZSm0IyuINenkmxnhCQxC7LdJDLRERr7kTKElypp7v8HTLlbd4VWAnAwTB7hfXMGpFDLsvbXoVTLxqOOz97YmdcrNwFK6xZB-1UJ5kZORCG59MKL4KqR76xQKhrXHtym-Dc7ia","width":3024}],"place_id":"ChIJFUNwUm4pQg0RrsbvsOGzA3k","plus_code":{"compound_code":"C7FR+G9 Madrid","global_code":"8CGRC7FR+G9"},"price_level":2,"rating":4.6,"reference":"ChIJFUNwUm4pQg0RrsbvsOGzA3k","types":["restaurant","food","point_of_interest","establishment"],"user_ratings_total":1017},{"business_status":"OPERATIONAL","formatted_address":"C. de Lira, 8, 28007 Madrid","geometry":{"location":{"lat":40.4083057,"lng":-3.6690602},"viewport":{"northeast":{"lat":40.40970607989273,"lng":-3.667676170107279},"southwest":{"lat":40.40700642010729,"lng":-3.670375829892722}}},"icon":"https://maps.gstatic.com/mapfiles/place_api/icons/v1/png_71/restaurant-71.png","icon_background_color":"#FF9E67","icon_mask_base_uri":"https://maps.gstatic.com/mapfiles/place_api/icons/v2/restaurant_pinlet","name":"Cookaluzka","opening_hours":{"open_now":false},"photos":[{"height":2592,"html_attributions":["<a href=\"https://maps.google.com/maps/contrib/115461637128817766990\">Eu sou a Marela</a>"],"photo_reference":"AeJbb3eA-8a3c9O-VJR-r3fcBN8BeK0fmo2KhSRF40zBTziY8HgaBH2kI29aADlp41QhHnOvwsy4qGl_h5qNABC7ZIe7XQHXhRBkNVASFuzNlQOSqBGjdrylrsYs1cdWWbiBJTlOlg9zo52_9Qo-FBDrxav1n8Q2G4WoW2hAhcrqFMIZxn3n","width":1944}],"place_id":"ChIJ8dHBcQQmQg0RTmAUw4EbIDI","plus_code":{"compound_code":"C85J+89 Madrid","global_code":"8CGRC85J+89"},"price_level":1,"rating":4.6,"reference":"ChIJ8dHBcQQmQg0RTmAUw4EbIDI","types":["restaurant","food","point_of_interest","establishment"],"user_ratings_total":1012},{"business_status":"OPERATIONAL","formatted_address":"C. de la Estrella, 5, 28004 Madrid","geometry":{"location":{"lat":40.4220092,"lng":-3.7061916},"viewport":{"northeast":{"lat":40.42337282989272,"lng":-3.704809820107278},"southwest":{"lat":40.42067317010728,"lng":-3.707509479892722}}},"icon":"https://maps.gstatic.com/mapfiles/place_api/icons/v1/png_71/restaurant-71.png","icon_background_color":"#FF9E67","icon_mask_base_uri":"https://maps.gstatic.com/mapfiles/place_api/icons/v2/restaurant_pinlet","name":"Chillin' Cafe","opening_hours":{"open_now":true},"photos":[{"height":2832,"html_attributions":["<a href=\"https://maps.google.com/maps/contrib/115615631324499022098\">Es Gazpacho</a>"],"photo_reference":"AeJbb3fy7NMjMksbWtiRlPM-yFoEPSnAQIXOxvXWYbqV8uPc6spYSPmdf3yt6geIE-_ZpOXrqPOG6QOyeUTt7UUIeVfT_3w4vyb0We6He4XctzZipS7jk2DmFY51PTNboxVPD3QhByYIQgiGfFOoP3C24Unsh7HulbDqOdJPsd_9tz_oQD4b","width":4240}],"place_id":"ChIJJc6IxHwoQg0R9pTetdtROiw","plus_code":{"compound_code":"C7CV+RG Madrid","global_code":"8CGRC7CV+RG"},"price_level":1,"rating":4.6,"reference":"ChIJJc6IxHwoQg0R9pTetdtROiw","types":["cafe","meal_takeaway","restaurant","point_of_interest","health","store","food","establishment"],"user_ratings_total":682},{"business_status":"OPERATIONAL","formatted_address":"C. del Infante, 5, 28014 Madrid","geometry":{"location":{"lat":40.4142531,"lng":-3.6990374},"viewport":{"northeast":{"lat":40.41563027989272,"lng":-3.697696320107278},"southwest":{"lat":40.41293062010728,"lng":-3.700395979892722}}},"icon":"https://maps.gstatic.com/mapfiles/place_api/icons/v1/png_71/restaurant-71.png","icon_background_color":"#FF9E67","icon_mask_base_uri":"https://maps.gstatic.com/mapfiles/place_api/icons/v2/restaurant_pinlet","name":"Reineta Vegetariano","opening_hours":{"open_now":false},"photos":[{"height":2000,"html_attributions":["<a href=\"https://maps.google.com/maps/contrib/109749449509444787399\">Jordi Martí Olive</a>"],"photo_reference":"AeJbb3exwmu0dhj5s7qmwM0-36QPUq0lZLctPHm2I-2ar9vSWPYSWb-12yHMLYDY-YxECnNfuSx2_CSaX12--SYv8NIKP7fnb_2377gRQtIk-pqROTlHNW3FjgSB14enUqdzgJEdLXeFJllvg7nLNwIoAziWXh2FuqIK8qwMBaI-exfpWrrO","width":4000}],"place_id":"ChIJ3b9PlYEoQg0R0JuDCVR21t4","plus_code":{"compound_code":"C872+P9 Madrid","global_code":"8CGRC872+P9"},"price_level":1,"rating":4.6,"reference":"ChIJ3b9PlYEoQg0R0JuDCVR21t4","types":["restaurant","point_of_interest","food","establishment"],"user_ratings_total":634},{"business_status":"OPERATIONAL","formatted_address":"C. de Recoletos, 13, 28001 Madrid","geometry":{"location":{"lat":40.4217873,"lng":-3.6897329},"viewport":{"northeast":{"lat":40.42307797989272,"lng":-3.688349470107278},"southwest":{"lat":40.42037832010728,"lng":-3.691049129892721}}},"icon":"https://maps.gstatic.com/mapfiles/place_api/icons/v1/png_71/restaurant-71.png","icon_background_color":"#FF9E67","icon_mask_base_uri":"https://maps.gstatic.com/mapfiles/place_api/icons/v2/restaurant_pinlet","name":"MUDRÁ Plant Based Food","opening_hours":{"open_now":false},"photos":[{"height":3024,"html_attributions":["<a href=\"https://maps.google.com/maps/contrib/106669518716417334696\">Santiago Lagier</a>"],"photo_reference":"AeJbb3fzODGL-jSIDjx-mXPG2y2vc1IfqS7L0Vf0f_nXIoXzwYzbhKyOoeJ6gMPlEAmaLDb9xVMdWD1GGI9Oc6TjIjMEY7GgIIKL95aRXJOQ5RX1EEy5r10djP08td-8FR2ktHbdZcT-d_HmRKPyzWDPQQ4YhX3wVcvwWHnJz9XJ5pE1JDhD","width":4032}],"place_id":"ChIJOwTcIaIpQg0RMV-Y-m-xreU","plus_code":{"compound_code":"C8C6+P4 Madrid","global_code":"8CGRC8C6+P4"},"rating":4.6,"reference":"ChIJOwTcIaIpQg0RMV-Y-m-xreU","types":["restaurant","food","point_of_interest","establishment"],"user_ratings_total":239},{"business_status":"OPERATIONAL","formatted_address":"C. de Pelayo, 35, 28004 Madrid","geometry":{"location":{"lat":40.4233447,"lng":-3.6981566},"viewport":{"northeast":{"lat":40.42468357989272,"lng":-3.696796120107278},"southwest":{"lat":40.42198392010727,"lng":-3.699495779892722}}},"icon":"https://maps.gstatic.com/mapfiles/place_api/icons/v1/png_71/restaurant-71.png","icon_background_color":"#FF9E67","icon_mask_base_uri":"https://maps.gstatic.com/mapfiles/place_api/icons/v2/restaurant_pinlet","name":"Vegaviana","opening_hours":{"open_now":false},"photos":[{"height":2048,"html_attributions":["<a href=\"https://maps.google.com/maps/contrib/103572143837497001768\">A Google User</a>"],"photo_reference":"AeJbb3fUbmQR4-M04LY4xgy9Q2PwUEeQODfnj-UhKrGL-VVqUvkC-iY8fDZxXn-Nr43nvhHP7R9vzbA0LQe2TyLcsqFPoTnirKCd-73fBCIJgdCmj2EzOpTeh8_d649dzIDaWuLhfGVtpIjTQkIMMS60UlXtlTNl3Knl-kmj0aJdLfX3iw4F","width":1365}],"place_id":"ChIJDZ-02E4pQg0RXX_daz91hdo","plus_code":{"compound_code":"C8F2+8P Madrid","global_code":"8CGRC8F2+8P"},"price_level":1,"rating":4.6,"reference":"ChIJDZ-02E4pQg0RXX_daz91hdo","types":["restaurant","point_of_interest","food","establishment"],"user_ratings_total":135},{"business_status":"OPERATIONAL","formatted_address":"Mercado de San Fernando, C. de Embajadores, 41, 28012 Madrid","geometry":{"location":{"lat":40.4076403,"lng":-3.7038198},"viewport":{"northeast":{"lat":40.40895977989273,"lng":-3.702563470107278},"southwest":{"lat":40.40626012010728,"lng":-3.705263129892722}}},"icon":"https://maps.gstatic.com/mapfiles/place_api/icons/v1/png_71/restaurant-71.png","icon_background_color":"#FF9E67","icon_mask_base_uri":"https://maps.gstatic.com/mapfiles/place_api/icons/v2/restaurant_pinlet","name":"La Alpargata - Taberna Vegana","opening_hours":{"open_now":false},"photos":[{"height":4032,"html_attributions":["<a href=\"https://maps.google.com/maps/contrib/103118661427162076703\">Vanessa I Pérez</a>"],"photo_reference":"AeJbb3e4mdizYIPobVtPX4fJMeqkBqkNIDgExtTm-op98Q5yFPJhyC_zFKwh1Qqy12v2KsPNiVKnTPXVGLrF5dgbrqdD_1e6i5VD-CdET6YkG3tdWwpWx_CEoMH-RJNzfWqj6PU6MJFHmAMEDxlvw0lDdfNP-MET1APIwTkR9cqNVAhWxlXA","width":1816}],"place_id":"ChIJ_WyVSJonQg0REQiz1Rc70Ew","plus_code":{"compound_code":"C75W+3F Madrid","global_code":"8CGRC75W+3F"},"rating":4.6,"reference":"ChIJ_WyVSJonQg0REQiz1Rc70Ew","types":["restaurant","point_of_interest","food","establishment"],"user_ratings_total":63},{"business_status":"OPERATIONAL","formatted_address":"Cost.ª de San Andrés, 16, 28005 Madrid","geometry":{"location":{"lat":40.412475,"lng":-3.711851},"viewport":{"northeast":{"lat":40.41402882989272,"lng":-3.710494020107278},"southwest":{"lat":40.41132917010728,"lng":-3.713193679892722}}},"icon":"https://maps.gstatic.com/mapfiles/place_api/icons/v1/png_71/restaurant-71.png","icon_background_color":"#FF9E67","icon_mask_base_uri":"https://maps.gstatic.com/mapfiles/place_api/icons/v2/restaurant_pinlet","name":"VIVA BURGER","opening_hours":{"open_now":true},"photos":[{"height":4032,"html_attributions":["<a href=\"https://maps.google.com/maps/contrib/115348068757380122186\">susi marco sarrión</a>"],"photo_reference":"AeJbb3f-4WISHuG45m-RCA2xLmK_roqKttWEwsYoXYMnIw6ndCWcrgo2LNa6CmKsLbJ_g3zK1CQcQ-GEjwE9PWavaGfH8rvY_EoUNa9kqU3czGqQKZ_vNfiQPi6dJ1JSwIlNYKLiROQ5z7Z972WFR6eVfuWsb3Mg8zoTFxL3Oms1fTDdAUVl","width":3024}],"place_id":"ChIJBe4I4NcnQg0RVkr_GhncKHI","plus_code":{"compound_code":"C76Q+X7 Madrid","global_code":"8CGRC76Q+X7"},"price_level":2,"rating":4.5,"reference":"ChIJBe4I4NcnQg0RVkr_GhncKHI","types":["restaurant","food","point_of_interest","establishment"],"user_ratings_total":3280},{"business_status":"OPERATIONAL","formatted_address":"C. de la Luna, 9, 28004 Madrid","geometry":{"location":{"lat":40.4222989,"lng":-3.7061463},"viewport":{"northeast":{"lat":40.42367212989272,"lng":-3.704753020107278},"southwest":{"lat":40.42097247010728,"lng":-3.707452679892722}}},"icon":"https://maps.gstatic.com/mapfiles/place_api/icons/v1/png_71/restaurant-71.png","icon_background_color":"#FF9E67","icon_mask_base_uri":"https://maps.gstatic.com/mapfiles/place_api/icons/v2/restaurant_pinlet","name":"VEGA","opening_hours":{"open_now":false},"photos":[{"height":600,"html_attributions":["<a href=\"https://maps.google.com/maps/contrib/104086509081301534547\">VEGA</a>"],"photo_reference":"AeJbb3dtVQ2QOt9LacX4h_G-kJAvxwN-yJIf3F6Neahdk8BCDVN7Zt--DsLQk10twzU4WBYJhjvBcWNoeKrFOsPU3MXuf_LqTbB1DgwOvxHMEUeQgbqoNk4byDHzYrmfmKpnYvb1Czc7T5oGOo2gaRLfUx3fucEy8A1Ub6iQb-knHmVdWvQN","width":900}],"place_id":"ChIJE9j0z3woQg0RFIKfHHEywMg","plus_code":{"compound_code":"C7CV+WG Madrid","global_code":"8CGRC7CV+WG"},"price_level":2,"rating":4.5,"reference":"ChIJE9j0z3woQg0RFIKfHHEywMg","types":["restaurant","point_of_interest","food","establishment"],"user_ratings_total":2431},{"business_status":"OPERATIONAL","formatted_address":"C. de la Encomienda, 19, 28012 Madrid","geometry":{"location":{"lat":40.4106198,"lng":-3.7059984},"viewport":{"northeast":{"lat":40.41198132989273,"lng":-3.704615170107278},"southwest":{"lat":40.40928167010728,"lng":-3.707314829892722}}},"icon":"https://maps.gstatic.com/mapfiles/place_api/icons/v1/png_71/restaurant-71.png","icon_background_color":"#FF9E67","icon_mask_base_uri":"https://maps.gstatic.com/mapfiles/place_api/icons/v2/restaurant_pinlet","name":"La Encomienda","opening_hours":{"open_now":false},"photos":[{"height":2988,"html_attributions":["<a href=\"https://maps.google.com/maps/contrib/107273286664304759580\">Katja J</a>"],"photo_reference":"AeJbb3e-QPAH-SLl4kXVBK-oPgEDNQs14aitH9s54yO3DCrSHVU25tcaqh0lGKtk6tQbqjmLZBrZPFfWIa_FTd9iCgMF_TzHUE4ekdnLYjWTqMf8Z1hO2E0LHXBNS1kxwUZAw3X51v6X0dh4lko9xY-iRcYfTU76ZGgOBepLtY4w7c-k67BS","width":5312}],"place_id":"ChIJGeAVrtUnQg0R80QNSYAj7jk","plus_code":{"compound_code":"C76V+6J Madrid","global_code":"8CGRC76V+6J"},"price_level":2,"rating":4.5,"reference":"ChIJGeAVrtUnQg0R80QNSYAj7jk","types":["bar","restaurant","point_of_interest","food","establishment"],"user_ratings_total":1903},{"business_status":"OPERATIONAL","formatted_address":"C. de Bordadores, 3, 28013 Madrid","geometry":{"location":{"lat":40.4164461,"lng":-3.707959299999999},"viewport":{"northeast":{"lat":40.41768822989273,"lng":-3.706713970107277},"southwest":{"lat":40.41498857010728,"lng":-3.709413629892721}}},"icon":"https://maps.gstatic.com/mapfiles/place_api/icons/v1/png_71/restaurant-71.png","icon_background_color":"#FF9E67","icon_mask_base_uri":"https://maps.gstatic.com/mapfiles/place_api/icons/v2/restaurant_pinlet","name":"Yerbabuena","opening_hours":{"open_now":false},"photos":[{"height":3024,"html_attributions":["<a href=\"https://maps.google.com/maps/contrib/102418466607424004200\">YERBABUENA VEGETARIANO</a>"],"photo_reference":"AeJbb3eGF-FfgsdAi-QsbRs4HApl0M1hdDdMjPny0SnCpQDzHyuFlxZM_dmhI9eviyGT9Ps_kPcAwJcgmxVO4fvQ3PGsprx1N4tUkY6XsHo56CtJydKRXo2wYR5sa-1jdACwvNVF05Wdf_53tFShQdd_XoBJpcpOiyjNn2nLcb3f7w6WgR84","width":4032}],"place_id":"ChIJ0W4USXkoQg0R1H9auDqiISw","plus_code":{"compound_code":"C78R+HR Madrid","global_code":"8CGRC78R+HR"},"rating":4.5,"reference":"ChIJ0W4USXkoQg0R1H9auDqiISw","types":["restaurant","point_of_interest","food","establishment"],"user_ratings_total":1446},{"business_status":"OPERATIONAL","formatted_address":"C. de San Vicente Ferrer, 16, 28004 Madrid","geometry":{"location":{"lat":40.4257089,"lng":-3.7028341},"viewport":{"northeast":{"lat":40.42704762989272,"lng":-3.701500870107277},"southwest":{"lat":40.42434797010727,"lng":-3.704200529892721}}},"icon":"https://maps.gstatic.com/mapfiles/place_api/icons/v1/png_71/restaurant-71.png","icon_background_color":"#FF9E67","icon_mask_base_uri":"https://maps.gstatic.com/mapfiles/place_api/icons/v2/restaurant_pinlet","name":"Pizzi & Dixie","opening_hours":{"open_now":false},"photos":[{"height":2268,"html_attributions":["<a href=\"https://maps.google.com/maps/contrib/100443918088320214839\">Alex</a>"],"photo_reference":"AeJbb3cdeYSCMoRD2MgmOnaqZzLv1fJwVAPDWK5C2s0EVTfRu9TDJMsp7pxcNvP_-XEolcoBwN0KHMJ3bBQ0YJEFRJ5HRCA9gXHKidrSsPqNKcYFv0Jazmucsu4sD7ljNZcRWjDb2y1qF5L7hkCxKVkvUOhKzmojD9pTottr3JtRX_94Mu2E","width":4032}],"place_id":"ChIJ11d_MComQg0Ru1UtP7Ug0u4","plus_code":{"compound_code":"C7GW+7V Madrid","global_code":"8CGRC7GW+7V"},"price_level":2,"rating":4.5,"reference":"ChIJ11d_MComQg0Ru1UtP7Ug0u4","types":["restaurant","point_of_interest","food","establishment"],"user_ratings_total":1441},{"business_status":"OPERATIONAL","formatted_address":"C. Salcillo, 13, POSTERIOR, 28932 Móstoles, Madrid","geometry":{"location":{"lat":40.3334711,"lng":-3.8664527},"viewport":{"northeast":{"lat":40.33468232989272,"lng":-3.865086020107278},"southwest":{"lat":40.33198267010728,"lng":-3.867785679892722}}},"icon":"https://maps.gstatic.com/mapfiles/place_api/icons/v1/png_71/restaurant-71.png","icon_background_color":"#FF9E67","icon_mask_base_uri":"https://maps.gstatic.com/mapfiles/place_api/icons/v2/restaurant_pinlet","name":"V DE VEGETTA","opening_hours":{"open_now":false},"photos":[{"height":2176,"html_attributions":["<a href=\"https://maps.google.com/maps/contrib/114665006603562271226\">Erika Prado Rubio</a>"],"photo_reference":"AeJbb3eE9q5gOe7lbcMYYhl70Puy7eKW8H4LpKkHtfafNIGI42oDMc6cbKMC7KTkinzBjOpoZrqLoYU_hkz2LNK2q2LIOqAkCFRzJo6bEB1T4YfReIJYCdn30SNFVM-buPHhqU-ymuZHYulQ1fQ4qa-uk1Tg-W1pBlSWvD1Ee5O6QHCnHoE8","width":4608}],"place_id":"ChIJE2HznX2OQQ0ReBhgUZQ6vJ4","plus_code":{"compound_code":"84MM+9C Móstoles","global_code":"8CGR84MM+9C"},"price_level":1,"rating":4.5,"reference":"ChIJE2HznX2OQQ0ReBhgUZQ6vJ4","types":["meal_delivery","bar","restaurant","food","point_of_interest","establishment"],"user_ratings_total":1238},{"business_status":"OPERATIONAL","formatted_address":"C. de la Alameda, 4, 28014 Madrid","geometry":{"location":{"lat":40.4123057,"lng":-3.6940002},"viewport":{"northeast":{"lat":40.41368182989272,"lng":-3.692597670107278},"southwest":{"lat":40.41098217010727,"lng":-3.695297329892722}}},"icon":"https://maps.gstatic.com/mapfiles/place_api/icons/v1/png_71/restaurant-71.png","icon_background_color":"#FF9E67","icon_mask_base_uri":"https://maps.gstatic.com/mapfiles/place_api/icons/v2/restaurant_pinlet","name":"El Fogón Verde","opening_hours":{"open_now":false},"photos":[{"height":3024,"html_attributions":["<a href=\"https://maps.google.com/maps/contrib/100094920772859330579\">Mads Wam Schneider</a>"],"photo_reference":"AeJbb3fZMJmOTuE8L2evl57MofIhIqZgN59wa5MvAXf7xl7rFM_sCAJjGc3sraBx1E4pT5KHPmhYkORgQsH6iiu258EyIQieqrsOw9AYwKTEkrz2xFKrqgJWXuEuRKj0tTyoZRl5IfYcFwgnA8yFlaqGd7nNsc7oepVoCWWZaGiSVml2cOeS","width":4032}],"place_id":"ChIJC8KQPSgmQg0Rj5OA7Zz2NXk","plus_code":{"compound_code":"C864+WC Madrid","global_code":"8CGRC864+WC"},"price_level":1,"rating":4.5,"reference":"ChIJC8KQPSgmQg0Rj5OA7Zz2NXk","types":["restaurant","point_of_interest","food","establishment"],"user_ratings_total":759},{"business_status":"OPERATIONAL","formatted_address":"C. del Caballero de Gracia, 13, 28013 Madrid","geometry":{"location":{"lat":40.4192805,"lng":-3.6991694},"viewport":{"northeast":{"lat":40.42074877989273,"lng":-3.697761120107278},"southwest":{"lat":40.41804912010728,"lng":-3.700460779892722}}},"icon":"https://maps.gstatic.com/mapfiles/place_api/icons/v1/png_71/restaurant-71.png","icon_background_color":"#FF9E67","icon_mask_base_uri":"https://maps.gstatic.com/mapfiles/place_api/icons/v2/restaurant_pinlet","name":"Veggie Corner","opening_hours":{"open_now":false},"photos":[{"height":3024,"html_attributions":["<a href=\"https://maps.google.com/maps/contrib/115856060973201636745\">Amar Guerfi</a>"],"photo_reference":"AeJbb3es4iEUMJVT5jbIlnlp-gH8syhhXnk5J-LFQxqCdoyJKDpIn6d01Q2DB3G1tHQLq_kBmnm9AW00Ei-iIwgotRtdasvTZd66h0fZeAm-yAIZLdp7gmtHPyMF0i9bF0jhJCH7FQcbqlvM8PyyCGPY82ERVviMeQTMSAJs5tU0Ge47rexP","width":4032}],"place_id":"ChIJFYvOhyIpQg0RbHO4_NxjsTo","plus_code":{"compound_code":"C892+M8 Madrid","global_code":"8CGRC892+M8"},"rating":4.5,"reference":"ChIJFYvOhyIpQg0RbHO4_NxjsTo","types":["restaurant","point_of_interest","food","establishment"],"user_ratings_total":390},{"business_status":"OPERATIONAL","formatted_address":"Calle de Luchana, 13, 28010 Madrid","geometry":{"location":{"lat":40.4299852,"lng":-3.7010161},"viewport":{"northeast":{"lat":40.43129357989272,"lng":-3.699604070107278},"southwest":{"lat":40.42859392010728,"lng":-3.702303729892722}}},"icon":"https://maps.gstatic.com/mapfiles/place_api/icons/v1/png_71/restaurant-71.png","icon_background_color":"#FF9E67","icon_mask_base_uri":"https://maps.gstatic.com/mapfiles/place_api/icons/v2/restaurant_pinlet","name":"Freedom Pizza","opening_hours":{"open_now":true},"photos":[{"height":4000,"html_attributions":["<a href=\"https://maps.google.com/maps/contrib/102548157865244676354\">Sonia Arias</a>"],"photo_reference":"AeJbb3dxfsSBGAsRius5bdoLzUScbkbRTO1KnAr_wBfc6_KaPzn7huBMIogFWczEDy83TvDHJJL05KvlLK-Dl4wrxhkjHLVp2kEaNVMyE230D7MXtDJh_jn2oIKWWk4S8PgcYPywp3_HSGjsltSYmEye8WBiO2teraW9nurHEATBK7NPHkyw","width":2250}],"place_id":"ChIJV34WewEpQg0Rnl_AlK3-x3I","plus_code":{"compound_code":"C7JX+2H Madrid","global_code":"8CGRC7JX+2H"},"rating":4.5,"reference":"ChIJV34WewEpQg0Rnl_AlK3-x3I","types":["restaurant","point_of_interest","food","establishment"],"user_ratings_total":223},{"business_status":"OPERATIONAL","formatted_address":"C. de Fernández de los Ríos, 17, 28015 Madrid","geometry":{"location":{"lat":40.4348089,"lng":-3.7065114},"viewport":{"northeast":{"lat":40.43625297989273,"lng":-3.705153470107278},"southwest":{"lat":40.43355332010729,"lng":-3.707853129892722}}},"icon":"https://maps.gstatic.com/mapfiles/place_api/icons/v1/png_71/generic_business-71.png","icon_background_color":"#7B9EB0","icon_mask_base_uri":"https://maps.gstatic.com/mapfiles/place_api/icons/v2/generic_pinlet","name":"Comida vegana | Almas Veganas | Restaurante Street Lions Food | Comida Peruana - Mexicana - Asiatica","opening_hours":{"open_now":false},"photos":[{"height":373,"html_attributions":["<a href=\"https://maps.google.com/maps/contrib/116540458942428849344\">A Google User</a>"],"photo_reference":"AeJbb3cvFAJ2oH_l6FSqpHCgcPqUwIPM2P8pBI3XXWTHtic_nyv2tvlZQCDZ2A5TekGS1Tp9DehOGpAey0hhPcOCFKcbuBQkyTMkcnNKJn-yqy2mc-PioDACjzBogZP1vs3nhkpe8zHW9sJn15fsMoXD4AWoX6Xv_1BVXpY1ZCFgDayk1Fca","width":497}],"place_id":"ChIJKzEMJSwpQg0RYMDyMkQu9L0","plus_code":{"compound_code":"C7MV+W9 Madrid","global_code":"8CGRC7MV+W9"},"rating":4.5,"reference":"ChIJKzEMJSwpQg0RYMDyMkQu9L0","types":["meal_delivery","restaurant","point_of_interest","food","establishment"],"user_ratings_total":15},{"business_status":"OPERATIONAL","formatted_address":"C. de las Tres Cruces, 4, 28013 Madrid","geometry":{"location":{"lat":40.4192584,"lng":-3.7028659},"viewport":{"northeast":{"lat":40.42059592989271,"lng":-3.701565020107278},"southwest":{"lat":40.41789627010727,"lng":-3.704264679892722}}},"icon":"https://maps.gstatic.com/mapfiles/place_api/icons/v1/png_71/restaurant-71.png","icon_background_color":"#FF9E67","icon_mask_base_uri":"https://maps.gstatic.com/mapfiles/place_api/icons/v2/restaurant_pinlet","name":"Restaurante Vegetariano Artemisa Sol - Gran Vía","opening_hours":{"open_now":false},"photos":[{"height":3024,"html_attributions":["<a href=\"https://maps.google.com/maps/contrib/103786098908768446512\">Óscar Carrillo</a>"],"photo_reference":"AeJbb3fp94ROJauJRH31K1KV4LzZycS_4AIjPr2KZ77zx__6KKr_dfMii8G0Audl0q6LR874ED-vhBVEg8lD2D-a032Agpy_vdFNhlZZPia3c_c24YNY156cXKdlpzvOC4AUb4F0fHf8fgr1XNPb81XuIA6c9gUgY-IF2TGIcW2zJ--AmoQ1","width":4032}],"place_id":"ChIJC4OxX4coQg0R3bqGh0fouew","plus_code":{"compound_code":"C79W+PV Madrid","global_code":"8CGRC79W+PV"},"price_level":2,"rating":4.4,"reference":"ChIJC4OxX4coQg0R3bqGh0fouew","types":["restaurant","point_of_interest","food","establishment"],"user_ratings_total":1650},{"business_status":"OPERATIONAL","formatted_address":"C. de Ventura de la Vega, 4, 28014 Madrid","geometry":{"location":{"lat":40.4160178,"lng":-3.6989251},"viewport":{"northeast":{"lat":40.41734447989272,"lng":-3.697581120107278},"southwest":{"lat":40.41464482010728,"lng":-3.700280779892722}}},"icon":"https://maps.gstatic.com/mapfiles/place_api/icons/v1/png_71/restaurant-71.png","icon_background_color":"#FF9E67","icon_mask_base_uri":"https://maps.gstatic.com/mapfiles/place_api/icons/v2/restaurant_pinlet","name":"Restaurante Vegetariano Artemisa Sol - Huertas","opening_hours":{"open_now":false},"photos":[{"height":2268,"html_attributions":["<a href=\"https://maps.google.com/maps/contrib/107600948895510217058\">David naftalis</a>"],"photo_reference":"AeJbb3eoZAXrthxKyORCmFnpD3NEm3bTQHUrQ76tFGqbNOUF2Pjl_z_cBbTRxvwrmdscWGnmzjZKSAyuS4qoWQi-V7EVsOvz1hqprQMZUsOMiL2N3HUYwKAoLtfM1_rf2cIHQHW6IgoXJIHPJTRsbU10SvMGzORBV7mVKe1cnymTF_IOjNpP","width":4032}],"place_id":"ChIJq4-kc4EoQg0R7eDDJ8AH-R0","plus_code":{"compound_code":"C882+CC Madrid","global_code":"8CGRC882+CC"},"price_level":2,"rating":4.4,"reference":"ChIJq4-kc4EoQg0R7eDDJ8AH-R0","types":["restaurant","point_of_interest","food","establishment"],"user_ratings_total":1560},{"business_status":"OPERATIONAL","formatted_address":"esquina con, Calle Marqués de Santa Ana, 34, C. del Espíritu Santo, 15, 28004 Madrid","geometry":{"location":{"lat":40.4253054,"lng":-3.7036107},"viewport":{"northeast":{"lat":40.42666312989272,"lng":-3.702270220107278},"southwest":{"lat":40.42396347010727,"lng":-3.704969879892722}}},"icon":"https://maps.gstatic.com/mapfiles/place_api/icons/v1/png_71/restaurant-71.png","icon_background_color":"#FF9E67","icon_mask_base_uri":"https://maps.gstatic.com/mapfiles/place_api/icons/v2/restaurant_pinlet","name":"Avocado Love","opening_hours":{"open_now":false},"photos":[{"height":2448,"html_attributions":["<a href=\"https://maps.google.com/maps/contrib/117388646648124274018\">Laura Perez</a>"],"photo_reference":"AeJbb3c0UzeSCFtEn8UvMzgpzjkCXpXX_e232Yg-k6acNAJ1MU4VS4Vju64rRzsWryMz4FaW8yTA-BRsxgRLzP-ufAess2H-eTcLI8cst49Ad6o9sdp5a6pObDjB7yLPNRQ1BQIb7Np0K5FJlpdrsVGYHmkdEAtkJsYsef_cCMrKaujWW0AT","width":3264}],"place_id":"ChIJMTG_iGIoQg0Ranz0nVfiUMk","plus_code":{"compound_code":"C7GW+4H Madrid","global_code":"8CGRC7GW+4H"},"price_level":1,"rating":4.4,"reference":"ChIJMTG_iGIoQg0Ranz0nVfiUMk","types":["restaurant","point_of_interest","food","establishment"],"user_ratings_total":964},{"business_status":"OPERATIONAL","formatted_address":"Calle de Doña Urraca, 15, 28011 Madrid","geometry":{"location":{"lat":40.4129675,"lng":-3.726045},"viewport":{"northeast":{"lat":40.41418747989272,"lng":-3.724672270107278},"southwest":{"lat":40.41148782010728,"lng":-3.727371929892722}}},"icon":"https://maps.gstatic.com/mapfiles/place_api/icons/v1/png_71/restaurant-71.png","icon_background_color":"#FF9E67","icon_mask_base_uri":"https://maps.gstatic.com/mapfiles/place_api/icons/v2/restaurant_pinlet","name":"Vegicano","opening_hours":{"open_now":true},"photos":[{"height":2988,"html_attributions":["<a href=\"https://maps.google.com/maps/contrib/103893054870929628904\">A Google User</a>"],"photo_reference":"AeJbb3c9wWkYIUvY0B9oIRSEML6ZJTDNVuAc3VJ_Ww7E5Fras9gU8lxvJhA9hXk2Li6KqhbqXpgoIxxr_7FzXNWHyWU9nDo4M3Mv2kzWL_7S2M51TxJUnSsEaTR3JQ4xX6a63Jfvpp06RFmlYuXRAlJX26PUn9r9p-Q_dRw-W3c0vW5__VjW","width":5312}],"place_id":"ChIJ3-iGYwooQg0RmYYC5kO3vK4","plus_code":{"compound_code":"C77F+5H Madrid","global_code":"8CGRC77F+5H"},"rating":4.4,"reference":"ChIJ3-iGYwooQg0RmYYC5kO3vK4","types":["restaurant","food","point_of_interest","establishment"],"user_ratings_total":124},{"business_status":"OPERATIONAL","formatted_address":"Calle de Santiago, 9, 28013 Madrid","geometry":{"location":{"lat":40.4164059,"lng":-3.710512799999999},"viewport":{"northeast":{"lat":40.41776927989272,"lng":-3.709136220107278},"southwest":{"lat":40.41506962010727,"lng":-3.711835879892722}}},"icon":"https://maps.gstatic.com/mapfiles/place_api/icons/v1/png_71/restaurant-71.png","icon_background_color":"#FF9E67","icon_mask_base_uri":"https://maps.gstatic.com/mapfiles/place_api/icons/v2/restaurant_pinlet","name":"Restaurante Vegetariano","opening_hours":{"open_now":false},"photos":[{"height":4032,"html_attributions":["<a href=\"https://maps.google.com/maps/contrib/101465222846867702360\">Vicente Marco</a>"],"photo_reference":"AeJbb3f4aD6sn5DEr267zvknglDOcQHkjTILyqm-91k01hSzKURJuNJO6tCeJ4R0pOjGHVAcnB5_W1sP83lQBEbyaQ7yJ3f8CDBdec2NaUdkhMuOhmMp3toNcOXAISPmNkg941nZX47SQwpM7gB1ysdcpk_0J9Kn1Maz08J-UZ4H_SUsMCOm","width":3024}],"place_id":"ChIJMxl0oHkoQg0RDto02SxSiCk","plus_code":{"compound_code":"C78Q+GQ Madrid","global_code":"8CGRC78Q+GQ"},"rating":4.4,"reference":"ChIJMxl0oHkoQg0RDto02SxSiCk","types":["restaurant","point_of_interest","food","establishment"],"user_ratings_total":91},{"business_status":"OPERATIONAL","formatted_address":"C. de Alcalá, 12, 28014 Madrid","geometry":{"location":{"lat":40.41718669999999,"lng":-3.7008587},"viewport":{"northeast":{"lat":40.41886742989272,"lng":-3.698921249999998},"southwest":{"lat":40.41616777010728,"lng":-3.70165065}}},"icon":"https://maps.gstatic.com/mapfiles/place_api/icons/v1/png_71/restaurant-71.png","icon_background_color":"#FF9E67","icon_mask_base_uri":"https://maps.gstatic.com/mapfiles/place_api/icons/v2/restaurant_pinlet","name":"Vibar","opening_hours":{"open_now":true},"photos":[{"height":4032,"html_attributions":["<a href=\"https://maps.google.com/maps/contrib/112072786255173681731\">A Google User</a>"],"photo_reference":"AeJbb3fnnNnm08ou10FpA0M3DnHvSAk7CP2a7Qo-z2knxYtoCcoebhsly0wU32UBXEP8P5sIAT6qxhWiu7vlG91xfIl6HuzxYDkLLEPMiUjAPu6exEnR_dNlPCZDr6z6jQlUYW8PLtp4_rMoKgUpjvY1ghbaQ5SfAOA7cJfUetAMUsUeBN2V","width":3024}],"place_id":"ChIJdZUpV7YpQg0RJtk8ifZpkLM","plus_code":{"compound_code":"C78X+VM Madrid","global_code":"8CGRC78X+VM"},"rating":4.4,"reference":"ChIJdZUpV7YpQg0RJtk8ifZpkLM","types":["restaurant","point_of_interest","food","establishment"],"user_ratings_total":16},{"business_status":"OPERATIONAL","formatted_address":"C. del Ave María, 43, 28012 Madrid","geometry":{"location":{"lat":40.40943559999999,"lng":-3.7008582},"viewport":{"northeast":{"lat":40.41078557989272,"lng":-3.699576820107278},"southwest":{"lat":40.40808592010728,"lng":-3.702276479892722}}},"icon":"https://maps.gstatic.com/mapfiles/place_api/icons/v1/png_71/restaurant-71.png","icon_background_color":"#FF9E67","icon_mask_base_uri":"https://maps.gstatic.com/mapfiles/place_api/icons/v2/restaurant_pinlet","name":"Viva Chapata","opening_hours":{"open_now":true},"photos":[{"height":1365,"html_attributions":["<a href=\"https://maps.google.com/maps/contrib/104690977863150475562\">Viva Chapata</a>"],"photo_reference":"AeJbb3eT9zd2w8IyWAfy3WQlJhFukV5oIpES6mk2JV4LtaUds9cKJSIf5yqEVwvAttazqo9QtJGf1uHDFCRyax5ojHUOf0Lds76MjjmmhkdhF7LGyNJMKf59ykoAgCOOWzE_NsGxzHo8EMalGzxzVWf381KsYRv5orm0OFbiFKFedBZ40RNQ","width":2048}],"place_id":"ChIJy7ETeKEnQg0R4BX3QVPE2uY","plus_code":{"compound_code":"C75X+QM Madrid","global_code":"8CGRC75X+QM"},"price_level":2,"rating":4.3,"reference":"ChIJy7ETeKEnQg0R4BX3QVPE2uY","types":["restaurant","point_of_interest","food","establishment"],"user_ratings_total":1431},{"business_status":"OPERATIONAL","formatted_address":"C. las Trece Rosas, 2, 28523 Rivas-Vaciamadrid, Madrid","geometry":{"location":{"lat":40.3759891,"lng":-3.5402479},"viewport":{"northeast":{"lat":40.37729812989271,"lng":-3.538901120107278},"southwest":{"lat":40.37459847010727,"lng":-3.541600779892722}}},"icon":"https://maps.gstatic.com/mapfiles/place_api/icons/v1/png_71/restaurant-71.png","icon_background_color":"#FF9E67","icon_mask_base_uri":"https://maps.gstatic.com/mapfiles/place_api/icons/v2/restaurant_pinlet","name":"LA HUELLA VEGANA DE RIVAS","opening_hours":{"open_now":true},"photos":[{"height":2304,"html_attributions":["<a href=\"https://maps.google.com/maps/contrib/103294772504995176475\">Aurora Soria</a>"],"photo_reference":"AeJbb3f5XSwO55vseLghUjk3lNqOFim2y6D79xzrtevx8rYt9IphCf0xfVXvNw5LLkhJQPL5T1n4p2XyxnIRePuTfaJMu-rsYgQcLFuvU1XApcvTt24LcmCRwp-6yMtzoXhHZxi5Savr0sMm-LKeKcIDoVbDLW7SPclo99WWu9u0HdYMdHWj","width":4096}],"place_id":"ChIJSUYzvqo7Qg0Rbgww44e2lmk","plus_code":{"compound_code":"9FG5+CW Rivas-Vaciamadrid","global_code":"8CGR9FG5+CW"},"price_level":2,"rating":4.3,"reference":"ChIJSUYzvqo7Qg0Rbgww44e2lmk","types":["restaurant","point_of_interest","food","establishment"],"user_ratings_total":1405},{"business_status":"OPERATIONAL","formatted_address":"Local Frutas Prohibidas, C. del Conde Duque, 26, 28015 Madrid","geometry":{"location":{"lat":40.42746959999999,"lng":-3.710358499999999},"viewport":{"northeast":{"lat":40.42880062989272,"lng":-3.709051620107277},"southwest":{"lat":40.42610097010728,"lng":-3.711751279892721}}},"icon":"https://maps.gstatic.com/mapfiles/place_api/icons/v1/png_71/restaurant-71.png","icon_background_color":"#FF9E67","icon_mask_base_uri":"https://maps.gstatic.com/mapfiles/place_api/icons/v2/restaurant_pinlet","name":"Frutas Prohibidas","opening_hours":{"open_now":false},"photos":[{"height":2976,"html_attributions":["<a href=\"https://maps.google.com/maps/contrib/112008396501905131649\">Sergio Ojeda Izquierdo</a>"],"photo_reference":"AeJbb3d4PNvqfCCu1FnD39qfm7jrRpAfIc15bmzT4u5TbWLzNwNjgnU_Fb4Tg2cqp43Z7Sm3z4r-JoOMhAUyHJb0-qEKQWprm9H_jzokxbS-b_zibT2rfjfqH1lkmQmQlv86JB7Sa5NkkeJZ-whawBMms3P7rN9mJK7U_jP_M3W12TUb2MdF","width":3968}],"place_id":"ChIJC5_rsjwpQg0Rr2NnbO_JogQ","plus_code":{"compound_code":"C7GQ+XV Madrid","global_code":"8CGRC7GQ+XV"},"price_level":2,"rating":4.3,"reference":"ChIJC5_rsjwpQg0Rr2NnbO_JogQ","types":["bar","restaurant","point_of_interest","store","food","establishment"],"user_ratings_total":1302},{"business_status":"OPERATIONAL","formatted_address":"C. de Buenavista, 42, Local Derecha, 28012 Madrid","geometry":{"location":{"lat":40.4093818,"lng":-3.6999866},"viewport":{"northeast":{"lat":40.41069967989272,"lng":-3.698546870107278},"southwest":{"lat":40.40800002010728,"lng":-3.701246529892722}}},"icon":"https://maps.gstatic.com/mapfiles/place_api/icons/v1/png_71/restaurant-71.png","icon_background_color":"#FF9E67","icon_mask_base_uri":"https://maps.gstatic.com/mapfiles/place_api/icons/v2/restaurant_pinlet","name":"La Oveja Negra Taberna Vegana","opening_hours":{"open_now":true},"photos":[{"height":2736,"html_attributions":["<a href=\"https://maps.google.com/maps/contrib/104460933724579061872\">Alessandro Facchin</a>"],"photo_reference":"AeJbb3duBLYMLZZ35QWoYx9z6c8RysMcVsqfDKPQZBTnz_QWdtBY-X8psGMebUmnfpJ92OQBRPkQyIrgCpxYo8GbzG1YjgPG4walLZl2DHJzIumKN2Z4wis1dW1-aU_54uHYTTKvQZmwPnGdmIBnEam0K4be9jjGguZSeOy4pGFcvhGqq-lK","width":2736}],"place_id":"ChIJda37oismQg0RaQH3D8Qb3fY","plus_code":{"compound_code":"C852+Q2 Madrid","global_code":"8CGRC852+Q2"},"price_level":1,"rating":4.3,"reference":"ChIJda37oismQg0RaQH3D8Qb3fY","types":["restaurant","food","point_of_interest","establishment"],"user_ratings_total":1183},{"business_status":"OPERATIONAL","formatted_address":"C. Esquilache, 4, 28003 Madrid","geometry":{"location":{"lat":40.442964,"lng":-3.7048922},"viewport":{"northeast":{"lat":40.44426937989272,"lng":-3.703607420107279},"southwest":{"lat":40.44156972010728,"lng":-3.706307079892722}}},"icon":"https://maps.gstatic.com/mapfiles/place_api/icons/v1/png_71/restaurant-71.png","icon_background_color":"#FF9E67","icon_mask_base_uri":"https://maps.gstatic.com/mapfiles/place_api/icons/v2/restaurant_pinlet","name":"Ecocentro","opening_hours":{"open_now":true},"photos":[{"height":3024,"html_attributions":["<a href=\"https://maps.google.com/maps/contrib/107863212447717529854\">Ecocentro</a>"],"photo_reference":"AeJbb3faBSKL_0vJpBGX5i4sYlfpFsRZ2PBeOsm64tUcfncAllTYWppPipx39aau5E0-Ko2bkcAawUk8NUXDeI5F-SRPMXO35a5FFjpQR2aZi4WkvaVp4zN7EjDT0BxIr-exmvom9KyYO7EfEb1PrdGISKalueK3ANIwoFwfRJMt4BHJKX6n","width":4032}],"place_id":"ChIJK6ICL1goQg0RtD08Xft-SZQ","plus_code":{"compound_code":"C7VW+52 Madrid","global_code":"8CGRC7VW+52"},"price_level":2,"rating":4.2,"reference":"ChIJK6ICL1goQg0RtD08Xft-SZQ","types":["restaurant","food","point_of_interest","establishment"],"user_ratings_total":2001},{"business_status":"OPERATIONAL","formatted_address":"C. de Juan Álvarez Mendizábal, 10, 28008 Madrid","geometry":{"location":{"lat":40.4240048,"lng":-3.7139958},"viewport":{"northeast":{"lat":40.42532567989272,"lng":-3.712687970107278},"southwest":{"lat":40.42262602010727,"lng":-3.715387629892722}}},"icon":"https://maps.gstatic.com/mapfiles/place_api/icons/v1/png_71/restaurant-71.png","icon_background_color":"#FF9E67","icon_mask_base_uri":"https://maps.gstatic.com/mapfiles/place_api/icons/v2/restaurant_pinlet","name":"Lempika","opening_hours":{"open_now":true},"place_id":"ChIJ6W20lG8oQg0R2k7lru6PIA0","plus_code":{"compound_code":"C7FP+H9 Madrid","global_code":"8CGRC7FP+H9"},"rating":4,"reference":"ChIJ6W20lG8oQg0R2k7lru6PIA0","types":["restaurant","point_of_interest","food","establishment"],"user_ratings_total":3},{"business_status":"OPERATIONAL","formatted_address":"C. del Amor de Dios, 3, 28014 Madrid","geometry":{"location":{"lat":40.4132331,"lng":-3.6981875},"viewport":{"northeast":{"lat":40.41454742989273,"lng":-3.696854720107278},"southwest":{"lat":40.41184777010729,"lng":-3.699554379892722}}},"icon":"https://maps.gstatic.com/mapfiles/place_api/icons/v1/png_71/restaurant-71.png","icon_background_color":"#FF9E67","icon_mask_base_uri":"https://maps.gstatic.com/mapfiles/place_api/icons/v2/restaurant_pinlet","name":"La Biotika","opening_hours":{"open_now":false},"photos":[{"height":533,"html_attributions":["<a href=\"https://maps.google.com/maps/contrib/100631030531170320857\">La Biotika</a>"],"photo_reference":"AeJbb3chMlpC46TrUCfL-Ma4usd_QzvJ9CSD-rfpAp-F-PtPYrpW9466bmZVbP7ipsdMnl6B2VJA2RG4g43Na68vdsPSMEBQ3txxhrp2u7ALc_E_57ojXbffq2JJncolKTvH5MU9agmqsH3iETVqOt7RLL0FK9quqK11saxWs5NlYDkgoSFM","width":800}],"place_id":"ChIJgRES_IEoQg0RVrLIxnqAW8M","plus_code":{"compound_code":"C872+7P Madrid","global_code":"8CGRC872+7P"},"price_level":1,"rating":3.9,"reference":"ChIJgRES_IEoQg0RVrLIxnqAW8M","types":["restaurant","point_of_interest","health","store","food","establishment"],"user_ratings_total":524},{"business_status":"OPERATIONAL","formatted_address":"Av. del General Perón, 40, 28020 Madrid","geometry":{"location":{"lat":40.4512057,"lng":-3.6922929},"viewport":{"northeast":{"lat":40.45301132989271,"lng":-3.690904420107277},"southwest":{"lat":40.45031167010727,"lng":-3.693604079892721}}},"icon":"https://maps.gstatic.com/mapfiles/place_api/icons/v1/png_71/restaurant-71.png","icon_background_color":"#FF9E67","icon_mask_base_uri":"https://maps.gstatic.com/mapfiles/place_api/icons/v2/restaurant_pinlet","name":"Health & Go","opening_hours":{"open_now":false},"photos":[{"height":3456,"html_attributions":["<a href=\"https://maps.google.com/maps/contrib/114749390841821163992\">Health &amp; Go</a>"],"photo_reference":"AeJbb3eYUZQU7ndZXXEhW4tziomf25TFJNIH92kM7Nwzc_u23_PnJJG-kZ7onTfdzNs20qwv7pTlbKOkQRfpu6idvI_Tqr6uMdfz82FNhkR1zBQ75h-yzq9h_K5RfJcUkwBKnDV_vpazvDS3bAw6WHsetXYfB9hq_3uJU7d9l5Btat0t7LU_","width":5184}],"place_id":"ChIJT3ZE0-IoQg0R5E-PyDWJ8Fc","plus_code":{"compound_code":"F825+F3 Madrid","global_code":"8CGRF825+F3"},"rating":3.9,"reference":"ChIJT3ZE0-IoQg0R5E-PyDWJ8Fc","types":["meal_takeaway","restaurant","point_of_interest","food","establishment"],"user_ratings_total":52},{"business_status":"OPERATIONAL","formatted_address":"Av. de Asturias, 3, 28046 Madrid","geometry":{"location":{"lat":40.4689269,"lng":-3.697655},"viewport":{"northeast":{"lat":40.47029907989272,"lng":-3.696275520107278},"southwest":{"lat":40.46759942010727,"lng":-3.698975179892722}}},"icon":"https://maps.gstatic.com/mapfiles/place_api/icons/v1/png_71/restaurant-71.png","icon_background_color":"#FF9E67","icon_mask_base_uri":"https://maps.gstatic.com/mapfiles/place_api/icons/v2/restaurant_pinlet","name":"Veggets & Fruits","place_id":"ChIJn9JrDb4pQg0RqvL82vuiliA","plus_code":{"compound_code":"F892+HW Madrid","global_code":"8CGRF892+HW"},"rating":1,"reference":"ChIJn9JrDb4pQg0RqvL82vuiliA","types":["restaurant","food","point_of_interest","establishment"],"user_ratings_total":1},{"business_status":"OPERATIONAL","formatted_address":"C. de la Batalla del Salado, 41, 28045 Madrid","geometry":{"location":{"lat":40.3984667,"lng":-3.696277799999999},"viewport":{"northeast":{"lat":40.39985157989272,"lng":-3.695026870107278},"southwest":{"lat":40.39715192010728,"lng":-3.697726529892722}}},"icon":"https://maps.gstatic.com/mapfiles/place_api/icons/v1/png_71/restaurant-71.png","icon_background_color":"#FF9E67","icon_mask_base_uri":"https://maps.gstatic.com/mapfiles/place_api/icons/v2/restaurant_pinlet","name":"restaurante sin rezeta","opening_hours":{"open_now":false},"place_id":"ChIJ-ZjXyvMnQg0RgAYiUG_JtTg","plus_code":{"compound_code":"98X3+9F Madrid","global_code":"8CGR98X3+9F"},"rating":0,"reference":"ChIJ-ZjXyvMnQg0RgAYiUG_JtTg","types":["restaurant","point_of_interest","food","establishment"],"user_ratings_total":0}]