[{"business_status":"OPERATIONAL","formatted_address":"Królewska róg, Oleska, 51-200 Wrocław","geometry":{"location":{"lat":51.160083,"lng":17.1342004},"viewport":{"northeast":{"lat":51.16135142989272,"lng":17.13551897989272},"southwest":{"lat":51.15865177010728,"lng":17.13281932010728}}},"icon":"https://maps.gstatic.com/mapfiles/place_api/icons/v1/png_71/restaurant-71.png","icon_background_color":"#FF9E67","icon_mask_base_uri":"https://maps.gstatic.com/mapfiles/place_api/icons/v2/restaurant_pinlet","name":"Amerykański Sen- Kanapki i Kawa","opening_hours":{"open_now":true},"photos":[{"height":3000,"html_attributions":["<a href=\"https://maps.google.com/maps/contrib/110975587662469558533\">Magdalena Mazur-Milewska</a>"],"photo_reference":"AeJbb3cCqPN3HrRf1fRxrELgCQqZ1rZVlhRr4Q5--gIUAps9nS88fxMBp4CROzVQKT5W0JkiQY4q3Iy5EXrQPTOvChfqLaDCYn4LPU1FjUEr9RvueeRmSy9LnRqK53YhP_YWOhiIuXm-frnt3EQWnbg3ZxMBaGgBAspdyniC2p_uAus4w_or","width":4000}],"place_id":"ChIJQ8aIhoTpD0cRNGCHwNG3w1M","plus_code":{"compound_code":"546M+2M Wrocław","global_code":"9F3V546M+2M"},"price_level":1,"rating":5,"reference":"ChIJQ8aIhoTpD0cRNGCHwNG3w1M","types":["restaurant","point_of_interest","food","establishment"],"user_ratings_total":180},{"business_status":"OPERATIONAL","formatted_address":"Tęczowa 3, 53-601 Wrocław","geometry":{"location":{"lat":51.1068589,"lng":17.0185581},"viewport":{"northeast":{"lat":51.10815857989271,"lng":17.01995842989272},"southwest":{"lat":51.10545892010727,"lng":17.01725877010728}}},"icon":"https://maps.gstatic.com/mapfiles/place_api/icons/v1/png_71/restaurant-71.png","icon_background_color":"#FF9E67","icon_mask_base_uri":"https://maps.gstatic.com/mapfiles/place_api/icons/v2/restaurant_pinlet","name":"Chicken Strips","opening_hours":{"open_now":true},"photos":[{"height":810,"html_attributions":["<a href=\"https://maps.google.com/maps/contrib/118305527615934006430\">A Google User</a>"],"photo_reference":"AeJbb3dlsHl04n-1erlI7zotUlIZ7bR5DFmXMH_h2xoD46iNYQWSR2AEhEpy3aXRrVSnDTYX9JHNP-Km_zSR8_KgdgdlnINmSNu7BZIXawbeD5wy5IFzQuiPo1KB2-W1ICmXDLIcxrdtT7GyERx4Z7THb1vbC8OFfBoeQ_eAlTQKwJccy1AE","width":1440}],"place_id":"ChIJN3m-5CXDD0cRHnMvYstaLGQ","plus_code":{"compound_code":"4249+PC Wrocław","global_code":"9F3V4249+PC"},"rating":5,"reference":"ChIJN3m-5CXDD0cRHnMvYstaLGQ","types":["restaurant","point_of_interest","food","establishment"],"user_ratings_total":83},{"business_status":"OPERATIONAL","formatted_address":"Komandorska 18, 53-343 Wrocław","geometry":{"location":{"lat":51.09908369999999,"lng":17.030637},"viewport":{"northeast":{"lat":51.10047337989273,"lng":17.03187912989272},"southwest":{"lat":51.09777372010728,"lng":17.02917947010728}}},"icon":"https://maps.gstatic.com/mapfiles/place_api/icons/v1/png_71/restaurant-71.png","icon_background_color":"#FF9E67","icon_mask_base_uri":"https://maps.gstatic.com/mapfiles/place_api/icons/v2/restaurant_pinlet","name":"Globe Burger","place_id":"ChIJ_TWiXm7CD0cRzAyxqArvmtc","plus_code":{"compound_code":"32XJ+J7 Wrocław","global_code":"9F3V32XJ+J7"},"rating":5,"reference":"ChIJ_TWiXm7CD0cRzAyxqArvmtc","types":["restaurant","food","point_of_interest","establishment"],"user_ratings_total":1},{"business_status":"OPERATIONAL","formatted_address":"Plac Solny 20, 50-438 Wrocław","geometry":{"location":{"lat":51.1092194,"lng":17.0300797},"viewport":{"northeast":{"lat":51.11047372989272,"lng":17.03131527989272},"southwest":{"lat":51.10777407010727,"lng":17.02861562010728}}},"icon":"https://maps.gstatic.com/mapfiles/place_api/icons/v1/png_71/restaurant-71.png","icon_background_color":"#FF9E67","icon_mask_base_uri":"https://maps.gstatic.com/mapfiles/place_api/icons/v2/restaurant_pinlet","name":"Grill Brothers burgery","opening_hours":{"open_now":true},"photos":[{"height":9000,"html_attributions":["<a href=\"https://maps.google.com/maps/contrib/115241067929823298667\">115241067929823298667</a>"],"photo_reference":"AeJbb3dPjFm4jpPLJf9V3yTnzSUYblOQthXfEEzxJabQV2_xV_D6ASwtVVshfFQxoWo_4XsA33aT3WRs3_vbS7T0WfB2bNgxQUQI_wsDKM09r8iiYOoWHNPA7w-yaboHXWvJsl4L47VGsRtZOyk5AUgqHfxrGFmjcqN9u4_aQpuVUWKUHWk9","width":12000}],"place_id":"ChIJR9k6a5HDD0cRjAYUL21XnS0","plus_code":{"compound_code":"425J+M2 Wrocław","global_code":"9F3V425J+M2"},"price_level":2,"rating":4.9,"reference":"ChIJR9k6a5HDD0cRjAYUL21XnS0","types":["restaurant","food","point_of_interest","establishment"],"user_ratings_total":1316},{"business_status":"OPERATIONAL","formatted_address":"Piastów Śląskich 19, 55-011 Siechnice","geometry":{"location":{"lat":51.032765,"lng":17.145936},"viewport":{"northeast":{"lat":51.03409017989272,"lng":17.14734462989272},"southwest":{"lat":51.03139052010728,"lng":17.14464497010728}}},"icon":"https://maps.gstatic.com/mapfiles/place_api/icons/v1/png_71/restaurant-71.png","icon_background_color":"#FF9E67","icon_mask_base_uri":"https://maps.gstatic.com/mapfiles/place_api/icons/v2/restaurant_pinlet","name":"BUA Burger","opening_hours":{"open_now":true},"photos":[{"height":4032,"html_attributions":["<a href=\"https://maps.google.com/maps/contrib/100344519986641814615\">A Google User</a>"],"photo_reference":"AeJbb3dhJpDB9Tl73dPQmeIMskAeVO2pKi2qjpPg5els7V5SkZKWUuMYpUGpkxVSqOyuaFAzkjHniEyhiM4_W1g5PjgvLdRaK3RMKLjKnt8f9ojr3qlZQur1qpdkUVT3y50j2prpk7TlOx5JClcKmLywRZaOldKwsiCKrOBlNXuOQlL7Z82a","width":3024}],"place_id":"ChIJDejHwHndD0cRUwetk7UEgC8","plus_code":{"compound_code":"24MW+49 Siechnice","global_code":"9F3V24MW+49"},"rating":4.9,"reference":"ChIJDejHwHndD0cRUwetk7UEgC8","types":["restaurant","food","point_of_interest","establishment"],"user_ratings_total":131},{"business_status":"OPERATIONAL","formatted_address":"Wincentego Witosa, 55-040 Kobierzyce","geometry":{"location":{"lat":50.9705938,"lng":16.9327822},"viewport":{"northeast":{"lat":50.97203792989271,"lng":16.93393842989272},"southwest":{"lat":50.96933827010727,"lng":16.93123877010728}}},"icon":"https://maps.gstatic.com/mapfiles/place_api/icons/v1/png_71/generic_business-71.png","icon_background_color":"#7B9EB0","icon_mask_base_uri":"https://maps.gstatic.com/mapfiles/place_api/icons/v2/generic_pinlet","name":"NIENAŻARTY","opening_hours":{"open_now":true},"photos":[{"height":1800,"html_attributions":["<a href=\"https://maps.google.com/maps/contrib/112317965043803305836\">klamcalol</a>"],"photo_reference":"AeJbb3fbVpBLbWI1zPGsfbG5ucX2GY-M7uPMzVoSNrDkP_9Nf9OFWcjXqmqE2tI2fzFI-3gwDjMypEbJELy0mpido9PmJdvdZrdt6w9jU6xzl60cCjqA-5Q57jFjURKfU7_43fNg0ZptLkODkNJqImuMHd8P10qHeM3hf5UjZf8baSBxxzbU","width":4000}],"place_id":"ChIJJ9L-PubBD0cRXkHgjVCAhl8","plus_code":{"compound_code":"XWCM+64 Kobierzyce","global_code":"9F2RXWCM+64"},"price_level":1,"rating":4.8,"reference":"ChIJJ9L-PubBD0cRXkHgjVCAhl8","types":["meal_delivery","bar","restaurant","point_of_interest","food","establishment"],"user_ratings_total":194},{"business_status":"OPERATIONAL","formatted_address":"Antonia Vivaldiego 32, 52-131 Wrocław","geometry":{"location":{"lat":51.0516101,"lng":17.0598125},"viewport":{"northeast":{"lat":51.05300442989272,"lng":17.06114322989272},"southwest":{"lat":51.05030477010727,"lng":17.05844357010728}}},"icon":"https://maps.gstatic.com/mapfiles/place_api/icons/v1/png_71/restaurant-71.png","icon_background_color":"#FF9E67","icon_mask_base_uri":"https://maps.gstatic.com/mapfiles/place_api/icons/v2/restaurant_pinlet","name":"PickUp Burger","opening_hours":{"open_now":false},"photos":[{"height":4000,"html_attributions":["<a href=\"https://maps.google.com/maps/contrib/115224328872477341052\">A Google User</a>"],"photo_reference":"AeJbb3fUAAZML534-1Y8n2Q8d2oeScdEi9YTU78V2sD6JLGBvN-BM_ICOF79f_MQQyEhLq0UDtahiZvyAkHU53Eq6WZqEb7ybJ_kg9olFG4SP7gIQZWdx2wqzndFqxmpCLF0sp6WjMs_Zj_AD0MzBwrgFHgrDrod7GOq2UnVRFgPrPYj3liP","width":6000}],"place_id":"ChIJ3zVdM9nDD0cRFVLOJrujnQ0","plus_code":{"compound_code":"3325+JW Wrocław","global_code":"9F3V3325+JW"},"rating":4.8,"reference":"ChIJ3zVdM9nDD0cRFVLOJrujnQ0","types":["meal_takeaway","meal_delivery","restaurant","food","point_of_interest","establishment"],"user_ratings_total":170},{"business_status":"OPERATIONAL","formatted_address":"Psie Budy 7/8/9 wejście od ul, Kazimierza Wielkiego, 50-080 Wrocław","geometry":{"location":{"lat":51.1097236,"lng":17.0271764},"viewport":{"northeast":{"lat":51.11106327989272,"lng":17.02841777989272},"southwest":{"lat":51.10836362010728,"lng":17.02571812010727}}},"icon":"https://maps.gstatic.com/mapfiles/place_api/icons/v1/png_71/restaurant-71.png","icon_background_color":"#FF9E67","icon_mask_base_uri":"https://maps.gstatic.com/mapfiles/place_api/icons/v2/restaurant_pinlet","name":"Burger Ltd","opening_hours":{"open_now":true},"photos":[{"height":3024,"html_attributions":["<a href=\"https://maps.google.com/maps/contrib/110991344744097636048\">Olha Fedevych</a>"],"photo_reference":"AeJbb3foZMg4J05iUDtYcvDgzwBl71wg1YH_jpGOg5sj2DAy07zxyoxyVQDW4w9SrfH0sik8WRd50wDA3wyDVtap5zdPGPj_7TaWoAQfo0WmgY60xP20FiV94VXMVQo00tD9_h0VvUaqGMRDrIWH9VYWD1ixhe9KBxTgvJXLA61ApnMIB7RY","width":3024}],"place_id":"ChIJQ99S4QrCD0cRaRySFfEDI6g","plus_code":{"compound_code":"425G+VV Wrocław","global_code":"9F3V425G+VV"},"price_level":2,"rating":4.7,"reference":"ChIJQ99S4QrCD0cRaRySFfEDI6g","types":["restaurant","food","point_of_interest","establishment"],"user_ratings_total":3025},{"business_status":"OPERATIONAL","formatted_address":"Na Grobli 6, 50-421 Wrocław","geometry":{"location":{"lat":51.1054476,"lng":17.0537273},"viewport":{"northeast":{"lat":51.10673112989273,"lng":17.05518962989272},"southwest":{"lat":51.10403147010729,"lng":17.05248997010728}}},"icon":"https://maps.gstatic.com/mapfiles/place_api/icons/v1/png_71/restaurant-71.png","icon_background_color":"#FF9E67","icon_mask_base_uri":"https://maps.gstatic.com/mapfiles/place_api/icons/v2/restaurant_pinlet","name":"Grill Brothers burgery Na Grobli","opening_hours":{"open_now":true},"photos":[{"height":2880,"html_attributions":["<a href=\"https://maps.google.com/maps/contrib/112123685764360455553\">Anna Matejczuk</a>"],"photo_reference":"AeJbb3cQVjdPzzmw8lUsTF_vjpUwx5ARPsLo1XwFin7TxLmtbW-yFc6fWJJ9m1mXaTpbgmhszpXYkpf_hJQBQGvhhMzy5nAWgW-r-0Z9V4AUhIl1SPqlv6xOr0w4uxS6Gt7KStfCIJUBQ1QR1UI-DnBb2e4miypT8003LBbNedvvrOAU9fqW","width":2160}],"place_id":"ChIJiUO_OX7CD0cR7AFTK3jru6s","plus_code":{"compound_code":"4343+5F Wrocław","global_code":"9F3V4343+5F"},"price_level":2,"rating":4.7,"reference":"ChIJiUO_OX7CD0cR7AFTK3jru6s","types":["restaurant","food","point_of_interest","establishment"],"user_ratings_total":1036},{"business_status":"OPERATIONAL","formatted_address":"Tadeusza Kościuszki 158, 50-430 Wrocław","geometry":{"location":{"lat":51.0991621,"lng":17.0505985},"viewport":{"northeast":{"lat":51.10045727989272,"lng":17.05220592989272},"southwest":{"lat":51.09775762010727,"lng":17.04950627010728}}},"icon":"https://maps.gstatic.com/mapfiles/place_api/icons/v1/png_71/restaurant-71.png","icon_background_color":"#FF9E67","icon_mask_base_uri":"https://maps.gstatic.com/mapfiles/place_api/icons/v2/restaurant_pinlet","name":"Szarpane Burgery","opening_hours":{"open_now":true},"photos":[{"height":3124,"html_attributions":["<a href=\"https://maps.google.com/maps/contrib/116363962180562217033\">A Google User</a>"],"photo_reference":"AeJbb3cW1Uj13RZNdR10CZGWT1DVlCdr8JMbPT7-mtE1thO78HoOxo9gZv-SXIWYe8kTChircDmPOEobTUNtpZX_owC8Jx8EOUsBFkvvUl8lfFbTpMxikfAD4-l94qp-Hs60ipjChlpxk-XokYYcha3WGKemfkw09oacUEl0L6XeVKiPCs4","width":2343}],"place_id":"ChIJF3TNNRbDD0cR1QYeJWiHb_M","plus_code":{"compound_code":"33X2+M6 Wrocław","global_code":"9F3V33X2+M6"},"price_level":2,"rating":4.7,"reference":"ChIJF3TNNRbDD0cR1QYeJWiHb_M","types":["restaurant","meal_delivery","food","point_of_interest","establishment"],"user_ratings_total":204},{"business_status":"OPERATIONAL","formatted_address":"Stefana Jaracza 57B, 50-305 Wrocław","geometry":{"location":{"lat":51.1266688,"lng":17.0591714},"viewport":{"northeast":{"lat":51.12798352989272,"lng":17.06053427989272},"southwest":{"lat":51.12528387010727,"lng":17.05783462010728}}},"icon":"https://maps.gstatic.com/mapfiles/place_api/icons/v1/png_71/restaurant-71.png","icon_background_color":"#FF9E67","icon_mask_base_uri":"https://maps.gstatic.com/mapfiles/place_api/icons/v2/restaurant_pinlet","name":"Kulinarne Wojaże-Burgers-Grill","opening_hours":{"open_now":false},"photos":[{"height":638,"html_attributions":["<a href=\"https://maps.google.com/maps/contrib/107704181048498809379\">A Google User</a>"],"photo_reference":"AeJbb3eN4cFNMUpcNtzFKdnW83FOsY5S32zpnUgtNz-PgsmkO9eqbJHNYg1ww3QfAUJhhbkk5BNDs5LBpiqxExTiz8Oju8RksmxAvN3wMoPKAIM-8RFcANOO8POX2NOOnovWbHfwGhYLTq5fsNjQqdcT1WfKkFB3Cxq3vsFP55UIiEeSGk_U","width":960}],"place_id":"ChIJJQjuJ6LrD0cRaDPdIsY0goU","plus_code":{"compound_code":"43G5+MM Wrocław","global_code":"9F3V43G5+MM"},"rating":4.7,"reference":"ChIJJQjuJ6LrD0cRaDPdIsY0goU","types":["restaurant","food","point_of_interest","establishment"],"user_ratings_total":164},{"business_status":"OPERATIONAL","formatted_address":"Bierutowska 57/59, 51-317 Wrocław","geometry":{"location":{"lat":51.1512778,"lng":17.1270385},"viewport":{"northeast":{"lat":51.15263682989272,"lng":17.12838417989272},"southwest":{"lat":51.14993717010728,"lng":17.12568452010728}}},"icon":"https://maps.gstatic.com/mapfiles/place_api/icons/v1/png_71/restaurant-71.png","icon_background_color":"#FF9E67","icon_mask_base_uri":"https://maps.gstatic.com/mapfiles/place_api/icons/v2/restaurant_pinlet","name":"Vege Box Concept | Vege Burgery | Frytki domowe | Lody rzemieślnicze z automatu","opening_hours":{"open_now":true},"photos":[{"height":563,"html_attributions":["<a href=\"https://maps.google.com/maps/contrib/109174032032716455516\">A Google User</a>"],"photo_reference":"AeJbb3dzauuHQoPtkLYxCt4NNkM5LMgOlG_-EryZDfR1-9PzhDQHa3yBKep9dbpcqR5rsfE1TKEIXAeIn94dsty02VLA4rrY8cvreillLvDr63fj3uWvsOWBcEVds3r86uRf-3ibj64DAfM-p0CZ6LJg1Pjqmyyno8BII_bQco6OA9H_tOwb","width":1000}],"place_id":"ChIJx9rIDSXpD0cRVoqqq2U4F4Y","plus_code":{"compound_code":"542G+GR Wrocław","global_code":"9F3V542G+GR"},"rating":4.7,"reference":"ChIJx9rIDSXpD0cRVoqqq2U4F4Y","types":["restaurant","point_of_interest","food","establishment"],"user_ratings_total":138},{"business_status":"OPERATIONAL","formatted_address":"Stanisława Przybyszewskiego 77A, 51-148 Wrocław","geometry":{"location":{"lat":51.1397153,"lng":17.0615471},"viewport":{"northeast":{"lat":51.14109847989273,"lng":17.06276382989272},"southwest":{"lat":51.13839882010728,"lng":17.06006417010728}}},"icon":"https://maps.gstatic.com/mapfiles/place_api/icons/v1/png_71/generic_business-71.png","icon_background_color":"#7B9EB0","icon_mask_base_uri":"https://maps.gstatic.com/mapfiles/place_api/icons/v2/generic_pinlet","name":"Hell Burger Bistro","opening_hours":{"open_now":true},"photos":[{"height":982,"html_attributions":["<a href=\"https://maps.google.com/maps/contrib/100552825874305178247\">A Google User</a>"],"photo_reference":"AeJbb3eoENVAlu3C0W8wwSWSkUXheR_EfKscLbP6lwEfAKVsS51KW8BokiGg0wAAwznaAH1NE0QEBACUmtkJfADpckEs10A4EgJY3gezLGurWgXl9TIOK391aChQdAgUXD0vdWDdi2jb57fqecf3CVMEgVcneTlay5Ez8zrksRqsdulrQ_wf","width":1024}],"place_id":"ChIJN0t1NKXnD0cRdZUZ_jp_DM0","plus_code":{"compound_code":"43Q6+VJ Wrocław","global_code":"9F3V43Q6+VJ"},"rating":4.7,"reference":"ChIJN0t1NKXnD0cRdZUZ_jp_DM0","types":["meal_delivery","restaurant","food","point_of_interest","establishment"],"user_ratings_total":38},{"business_status":"OPERATIONAL","formatted_address":"Rynek 23-24, 50-101 Wrocław","geometry":{"location":{"lat":51.1092008,"lng":17.0321373},"viewport":{"northeast":{"lat":51.11052182989273,"lng":17.03301442989272},"southwest":{"lat":51.10782217010728,"lng":17.03031477010728}}},"icon":"https://maps.gstatic.com/mapfiles/place_api/icons/v1/png_71/restaurant-71.png","icon_background_color":"#FF9E67","icon_mask_base_uri":"https://maps.gstatic.com/mapfiles/place_api/icons/v2/restaurant_pinlet","name":"Whiskey in the Jar","opening_hours":{"open_now":true},"photos":[{"height":1732,"html_attributions":["<a href=\"https://maps.google.com/maps/contrib/113119254812849265139\">Michał Kobryń</a>"],"photo_reference":"AeJbb3eZlbaK_Ro7qOmgc5w42Mj8l_ugpvuedBy6x4cX0YefSPqIXY04SZ4iEDQ_OcXYvvuYR34GmysIYBCVo2ltx1L3Vzk1ltha2bbDNgNlbXDIH13LtHA4xxIrZ66DQ3kSkhukWPGKT4GFzBBDhMVVXtHaxAVujs0MVeCC7zW0iHlMDdur","width":3071}],"place_id":"ChIJB2V_THTCD0cR6m8wLNyC9PE","plus_code":{"compound_code":"425J+MV Wrocław","global_code":"9F3V425J+MV"},"price_level":2,"rating":4.6,"reference":"ChIJB2V_THTCD0cR6m8wLNyC9PE","types":["bar","restaurant","point_of_interest","food","establishment"],"user_ratings_total":9315},{"business_status":"OPERATIONAL","formatted_address":"Świdnicka 11, 50-066 Wrocław","geometry":{"location":{"lat":51.1078096,"lng":17.0322245},"viewport":{"northeast":{"lat":51.10900867989272,"lng":17.03382147989272},"southwest":{"lat":51.10630902010728,"lng":17.03112182010728}}},"icon":"https://maps.gstatic.com/mapfiles/place_api/icons/v1/png_71/restaurant-71.png","icon_background_color":"#FF9E67","icon_mask_base_uri":"https://maps.gstatic.com/mapfiles/place_api/icons/v2/restaurant_pinlet","name":"Pasibus","opening_hours":{"open_now":true},"photos":[{"height":3717,"html_attributions":["<a href=\"https://maps.google.com/maps/contrib/115398336026690228250\">Stacja Pasibus</a>"],"photo_reference":"AeJbb3f5pGxuE_Aw7a1FfnVobu7yq9cPVj7u6uIE60X6bkHOvtlCgKU5jp4K4EhYCfGrI0czoKiO4uQEa0PNQYhtV2OsXuyKNII3QLRrnNYwqrBzIwkpKyKEdEUzG6kVTFI_WO__QM5pFzaXrijUd1oGw_cF19HXSqq1uK1tjRTOKHfa8IG5","width":5576}],"place_id":"ChIJJ8p_FnTCD0cRAQGW8kvEoUw","plus_code":{"compound_code":"425J+4V Wrocław","global_code":"9F3V425J+4V"},"price_level":2,"rating":4.6,"reference":"ChIJJ8p_FnTCD0cRAQGW8kvEoUw","types":["restaurant","food","point_of_interest","establishment"],"user_ratings_total":9036},{"business_status":"OPERATIONAL","formatted_address":"Pawła Włodkowica 37, 50-072 Wrocław","geometry":{"location":{"lat":51.1107336,"lng":17.02342},"viewport":{"northeast":{"lat":51.11219997989272,"lng":17.02483937989272},"southwest":{"lat":51.10950032010728,"lng":17.02213972010728}}},"icon":"https://maps.gstatic.com/mapfiles/place_api/icons/v1/png_71/restaurant-71.png","icon_background_color":"#FF9E67","icon_mask_base_uri":"https://maps.gstatic.com/mapfiles/place_api/icons/v2/restaurant_pinlet","name":"Pasibus","opening_hours":{"open_now":true},"photos":[{"height":4032,"html_attributions":["<a href=\"https://maps.google.com/maps/contrib/115834590883377017222\">ALUTKA WrC</a>"],"photo_reference":"AeJbb3dDY806atF_82Sif4gMAmVbV3AEP6ATzc00GlwTgqi7Tnt8OYyYWw6NohbCIq5FRKyvqm-C2EEBtu0hD3zG5R9rrfljh0VVYxGgmbnFHRR-uZ0fK6HbumgtKdMr1dgsG6IwdpU9QFbq_95v1HYFvQ8s2HhcCn7m5sNKZf8iyz5BLlpJ","width":3024}],"place_id":"ChIJJR9oVArCD0cRROMDVRfVnlk","plus_code":{"compound_code":"426F+79 Wrocław","global_code":"9F3V426F+79"},"price_level":2,"rating":4.6,"reference":"ChIJJR9oVArCD0cRROMDVRfVnlk","types":["restaurant","food","point_of_interest","establishment"],"user_ratings_total":3797},{"business_status":"OPERATIONAL","formatted_address":"Rynek 20/21, 50-101 Wrocław","geometry":{"location":{"lat":51.1092552,"lng":17.0316225},"viewport":{"northeast":{"lat":51.11057657989272,"lng":17.03277287989273},"southwest":{"lat":51.10787692010727,"lng":17.03007322010728}}},"icon":"https://maps.gstatic.com/mapfiles/place_api/icons/v1/png_71/restaurant-71.png","icon_background_color":"#FF9E67","icon_mask_base_uri":"https://maps.gstatic.com/mapfiles/place_api/icons/v2/restaurant_pinlet","name":"Soczewka","opening_hours":{"open_now":true},"photos":[{"height":2736,"html_attributions":["<a href=\"https://maps.google.com/maps/contrib/109816940375920710721\">Miłek Giczan</a>"],"photo_reference":"AeJbb3dFOzgm6IIsou8c4N63XZ4v2nNjbipsx6DyJnf62X50TZSE1n2jKQAH6fkdcJrEv9SYNiy0ZM4EjYlUJBpmze_0olCze-QPvvw6afzmusnkobx57OCXAfzyqCBobTNn1kgpEMwHQMaJgdBlVX304eyQOQoaf-r_Wrwg2c3Gj96Up7Qv","width":3648}],"place_id":"ChIJXTaQsnXCD0cRx9LtsQ4afNM","plus_code":{"compound_code":"425J+PJ Wrocław","global_code":"9F3V425J+PJ"},"price_level":2,"rating":4.6,"reference":"ChIJXTaQsnXCD0cRx9LtsQ4afNM","types":["meal_takeaway","restaurant","food","point_of_interest","establishment"],"user_ratings_total":2641},{"business_status":"OPERATIONAL","formatted_address":"Zwycięska 14ce, 53-033 Wrocław","geometry":{"location":{"lat":51.0585494,"lng":17.0111813},"viewport":{"northeast":{"lat":51.05981442989272,"lng":17.01254882989273},"southwest":{"lat":51.05711477010727,"lng":17.00984917010728}}},"icon":"https://maps.gstatic.com/mapfiles/place_api/icons/v1/png_71/restaurant-71.png","icon_background_color":"#FF9E67","icon_mask_base_uri":"https://maps.gstatic.com/mapfiles/place_api/icons/v2/restaurant_pinlet","name":"Beef Burger","opening_hours":{"open_now":true},"photos":[{"height":3024,"html_attributions":["<a href=\"https://maps.google.com/maps/contrib/108464222245067592830\">Ola Pałczyńska</a>"],"photo_reference":"AeJbb3dp2S79HDxMMlUVOCj9r2jqj9K5YeQndig7g2lbBUOXCWEOaBbzXvvGCBZJ-vFT_yN7THiX-uTHH2-_TE2CDjlTbUnW7HELdyU1fJBBuLeeh5RS125MI5WrHX1k1f_7WCGbE1x-0oIlW6OwT1PLSwEiaBLokUzxs471ojChtiWZQwma","width":4032}],"place_id":"ChIJ9RsJKqXDD0cRMIFtetlp8u8","plus_code":{"compound_code":"3256+CF Wrocław","global_code":"9F3V3256+CF"},"price_level":2,"rating":4.6,"reference":"ChIJ9RsJKqXDD0cRMIFtetlp8u8","types":["restaurant","food","point_of_interest","establishment"],"user_ratings_total":1237},{"business_status":"OPERATIONAL","formatted_address":"Ofiar Oświęcimskich 19, 50-059 Wrocław","geometry":{"location":{"lat":51.1082227,"lng":17.0317272},"viewport":{"northeast":{"lat":51.10970227989272,"lng":17.03314622989272},"southwest":{"lat":51.10700262010727,"lng":17.03044657010728}}},"icon":"https://maps.gstatic.com/mapfiles/place_api/icons/v1/png_71/restaurant-71.png","icon_background_color":"#FF9E67","icon_mask_base_uri":"https://maps.gstatic.com/mapfiles/place_api/icons/v2/restaurant_pinlet","name":"SZAMAni","opening_hours":{"open_now":true},"photos":[{"height":1280,"html_attributions":["<a href=\"https://maps.google.com/maps/contrib/112384651783993015555\">A Google User</a>"],"photo_reference":"AeJbb3dt-v4dPQQlUgdKBCcyNHOnfnipSOq12UL8Q4Jz6rkFToOe-jnghgPfQdBzcQ8v0QgvdX6BoMttbAIEh0-oIOFajfiSZGGvWWh-FzAL77-2KkU2OS3k49O5HYvTDwUsu3tHqlis34Hfr2-9pT-mvRhnzEH38cIEhL007RLRLW8ykn9s","width":1920}],"place_id":"ChIJ_4qdcd7pD0cR5uitgVnnHf0","plus_code":{"compound_code":"425J+7M Wrocław","global_code":"9F3V425J+7M"},"price_level":2,"rating":4.6,"reference":"ChIJ_4qdcd7pD0cR5uitgVnnHf0","types":["restaurant","point_of_interest","food","establishment"],"user_ratings_total":1086},{"business_status":"OPERATIONAL","formatted_address":"Kiełczowska 64C, 51-315 Wrocław","geometry":{"location":{"lat":51.14612080000001,"lng":17.1333487},"viewport":{"northeast":{"lat":51.14735692989272,"lng":17.13466132989272},"southwest":{"lat":51.14465727010728,"lng":17.13196167010728}}},"icon":"https://maps.gstatic.com/mapfiles/place_api/icons/v1/png_71/restaurant-71.png","icon_background_color":"#FF9E67","icon_mask_base_uri":"https://maps.gstatic.com/mapfiles/place_api/icons/v2/restaurant_pinlet","name":"Na Wolnym Ogniu Food Truck","opening_hours":{"open_now":true},"photos":[{"height":1259,"html_attributions":["<a href=\"https://maps.google.com/maps/contrib/110257893656168864060\">A Google User</a>"],"photo_reference":"AeJbb3eIZ8L5oPYUNjckbhrPF8bL-L_gPnXMo0yMWBZUBZZq-dAaauI3ke46Bz4AtlByGKP8gGQNBvUYMWsTnZ_8QcYgJZhVKqefiyfgrs8cd8tqXVzrsWK55IPzWpv_v64M-baTOqsSpH9NyIEzzJxCSBQJm_13D2v2iaaVHsFAH5djQTtd","width":1889}],"place_id":"ChIJWeBvNIiiD0cRm508mNT1vR8","plus_code":{"compound_code":"44WM+C8 Wrocław","global_code":"9F3V44WM+C8"},"price_level":1,"rating":4.6,"reference":"ChIJWeBvNIiiD0cRm508mNT1vR8","types":["bar","restaurant","food","point_of_interest","establishment"],"user_ratings_total":142},{"business_status":"OPERATIONAL","formatted_address":"Powstańców Śląskich 217, 53-139 Wrocław","geometry":{"location":{"lat":51.07539130000001,"lng":17.0064538},"viewport":{"northeast":{"lat":51.07673017989271,"lng":17.00780542989272},"southwest":{"lat":51.07403052010727,"lng":17.00510577010727}}},"icon":"https://maps.gstatic.com/mapfiles/place_api/icons/v1/png_71/restaurant-71.png","icon_background_color":"#FF9E67","icon_mask_base_uri":"https://maps.gstatic.com/mapfiles/place_api/icons/v2/restaurant_pinlet","name":"Grill Brothers","opening_hours":{"open_now":true},"photos":[{"height":452,"html_attributions":["<a href=\"https://maps.google.com/maps/contrib/108467029116986042389\">A Google User</a>"],"photo_reference":"AeJbb3eZe9hmYlsRfKtq7JLw3_OdsfVgryvAT70Td3T8JMMug3JZ5hp4R6j-4Ii7tXHtBfzmuZXqvrdHO6Bc4Vv-LuDDKZ7P-x9JOZW_vkekFMgwIkI2DbIUuLbfpVCJz_ekmAZ7hi2UT0Rr-jE7uU1zme66fz5uSyFhkVhuev4wdlNxs-NF","width":806}],"place_id":"ChIJB0IhI0_DD0cRf1sdUBGkahk","plus_code":{"compound_code":"32G4+5H Wrocław","global_code":"9F3V32G4+5H"},"rating":4.6,"reference":"ChIJB0IhI0_DD0cRf1sdUBGkahk","types":["restaurant","food","point_of_interest","establishment"],"user_ratings_total":106},{"business_status":"OPERATIONAL","formatted_address":"Semaforowa 15, 52-115 Wrocław","geometry":{"location":{"lat":51.0610567,"lng":17.0793286},"viewport":{"northeast":{"lat":51.06237862989272,"lng":17.08081402989272},"southwest":{"lat":51.05967897010728,"lng":17.07811437010728}}},"icon":"https://maps.gstatic.com/mapfiles/place_api/icons/v1/png_71/restaurant-71.png","icon_background_color":"#FF9E67","icon_mask_base_uri":"https://maps.gstatic.com/mapfiles/place_api/icons/v2/restaurant_pinlet","name":"Burger na Brochowie","opening_hours":{"open_now":true},"photos":[{"height":4500,"html_attributions":["<a href=\"https://maps.google.com/maps/contrib/106443410752801482689\">A Google User</a>"],"photo_reference":"AeJbb3dtElqY-YTem7j4dNHcpuAGE2CJiNlGZXWxt5hWTFe8jT0FZ7BKJUL9Q8no1B1u4Ufkh1H0pZe9xpBsNmOGVWztgfz6x5oZR5RWpaIG9Nn6XtWOneY4aiLks6kZjbM1w3k_pCFUdXrBKaws5S6jfyJA1SRs2gD-d8f1Fy3ngh5p_fsH","width":3001}],"place_id":"ChIJ890ufGvDD0cRO8582TZfXwo","plus_code":{"compound_code":"336H+CP Wrocław","global_code":"9F3V336H+CP"},"rating":4.6,"reference":"ChIJ890ufGvDD0cRO8582TZfXwo","types":["restaurant","point_of_interest","food","establishment"],"user_ratings_total":94},{"business_status":"OPERATIONAL","formatted_address":"Boczna 1, 55-093 Kiełczów","geometry":{"location":{"lat":51.1378338,"lng":17.1839205},"viewport":{"northeast":{"lat":51.13917957989272,"lng":17.18543297989272},"southwest":{"lat":51.13647992010728,"lng":17.18273332010728}}},"icon":"https://maps.gstatic.com/mapfiles/place_api/icons/v1/png_71/restaurant-71.png","icon_background_color":"#FF9E67","icon_mask_base_uri":"https://maps.gstatic.com/mapfiles/place_api/icons/v2/restaurant_pinlet","name":"Punkt G","opening_hours":{"open_now":true},"photos":[{"height":3024,"html_attributions":["<a href=\"https://maps.google.com/maps/contrib/114755164682589559489\">Tomasz Pawłowski</a>"],"photo_reference":"AeJbb3eQVE64p_GXyf2Tyf5lyEMkF5Q8VpYgN76sR7EfiKt-BHxlJv-iK68hTdOwiQQWHFitJ4W6X0-XUiI2xi0NKETQEh6Ck5xydyttW6OwKGraiVTru-_wWMquaNnrtbmCpXFBDuU-jqfNPHvpL0Bm6U5qnFxYeT1fS_DULsjFi05o99TO","width":4032}],"place_id":"ChIJqz20wrfnD0cRR-MZ5gD9QYE","plus_code":{"compound_code":"45QM+4H Kiełczów","global_code":"9F3V45QM+4H"},"rating":4.6,"reference":"ChIJqz20wrfnD0cRR-MZ5gD9QYE","types":["restaurant","food","point_of_interest","establishment"],"user_ratings_total":78},{"business_status":"OPERATIONAL","formatted_address":"Sucha 1, 50-086 Wrocław","geometry":{"location":{"lat":51.0961134,"lng":17.033663},"viewport":{"northeast":{"lat":51.09805602989272,"lng":17.03465162989272},"southwest":{"lat":51.09535637010728,"lng":17.03195197010728}}},"icon":"https://maps.gstatic.com/mapfiles/place_api/icons/v1/png_71/restaurant-71.png","icon_background_color":"#FF9E67","icon_mask_base_uri":"https://maps.gstatic.com/mapfiles/place_api/icons/v2/restaurant_pinlet","name":"Pasibus","opening_hours":{"open_now":true},"photos":[{"height":475,"html_attributions":["<a href=\"https://maps.google.com/maps/contrib/112992126683689614484\">Masmoudi Khaled</a>"],"photo_reference":"AeJbb3dbuPLfCW3s4DXTR6DcI6cv_Uzht60WtSbhSzNeURDzzc7tHqR5Up7rmh3N9-lSL4CE2M7kRiUSSqBSvO0xDEOeXxo04usHwR86wdCCvq-qPiKezNbo4JqVAl_sFLFjKfeCyZfKRrOsEqmr6e6wAfPqHhKDd9m_VyZU_5Ca_NSeDrcW","width":960}],"place_id":"ChIJFwJuX2_CD0cRZUVhwZbypcs","plus_code":{"compound_code":"32WM+CF Wrocław","global_code":"9F3V32WM+CF"},"price_level":2,"rating":4.5,"reference":"ChIJFwJuX2_CD0cRZUVhwZbypcs","types":["restaurant","point_of_interest","food","establishment"],"user_ratings_total":2104},{"business_status":"OPERATIONAL","formatted_address":"Łukasiewicza 18, 50-371 Wrocław","geometry":{"location":{"lat":51.1093114,"lng":17.0647187},"viewport":{"northeast":{"lat":51.11065792989272,"lng":17.06606787989272},"southwest":{"lat":51.10795827010728,"lng":17.06336822010728}}},"icon":"https://maps.gstatic.com/mapfiles/place_api/icons/v1/png_71/restaurant-71.png","icon_background_color":"#FF9E67","icon_mask_base_uri":"https://maps.gstatic.com/mapfiles/place_api/icons/v2/restaurant_pinlet","name":"Pasibus","opening_hours":{"open_now":true},"photos":[{"height":3717,"html_attributions":["<a href=\"https://maps.google.com/maps/contrib/102716288845479170072\">Pasibus</a>"],"photo_reference":"AeJbb3cYwvhfO9utDNMvbl3pRsnFaKNVQXxmWMV0VpszeIs1oVBwP8zfPZn0xYTYgQ04WeHnc19qjYgjPCKlA-9iQ5VJGu_fy6MWhOMshZ3-6XDdAjYehDE9EbfykQbCIak8PlqnPHQyDJz2XhnvKFD1qKz3yjMTVcS47od5zSBzWnMsYJc7","width":5576}],"place_id":"ChIJxy4ILyroD0cRmDTFhzCp2II","plus_code":{"compound_code":"4357+PV Wrocław","global_code":"9F3V4357+PV"},"price_level":2,"rating":4.5,"reference":"ChIJxy4ILyroD0cRmDTFhzCp2II","types":["restaurant","food","point_of_interest","establishment"],"user_ratings_total":1936},{"business_status":"OPERATIONAL","formatted_address":"Wrocławska 193, 55-002 Kamieniec Wrocławski","geometry":{"location":{"lat":51.0851197,"lng":17.1685747},"viewport":{"northeast":{"lat":51.08651922989272,"lng":17.17012252989273},"southwest":{"lat":51.08381957010727,"lng":17.16742287010728}}},"icon":"https://maps.gstatic.com/mapfiles/place_api/icons/v1/png_71/bar-71.png","icon_background_color":"#FF9E67","icon_mask_base_uri":"https://maps.gstatic.com/mapfiles/place_api/icons/v2/bar_pinlet","name":"PGR BAR food & drinks","opening_hours":{"open_now":true},"photos":[{"height":585,"html_attributions":["<a href=\"https://maps.google.com/maps/contrib/115335243733133943758\">A Google User</a>"],"photo_reference":"AeJbb3dBvDEy_eqRg92XSTaUTzD2erB5_oJLwMN7xWpIAwfUdBnLkf_P-0kzuR8fmipU4CA4VetkiG_6wreOPgu8p6vVdPGi4SArW9eHsJzEEFbCcd3IO_76h34BVNdou0OaJwx6wtkdtroYGXJLHZqQrUoG5YlxfNEQ6Pns5cp8Lm4aIm5l","width":700}],"place_id":"ChIJv1FdkMvdD0cRZFbf5ZHCA_I","plus_code":{"compound_code":"35P9+2C Kamieniec Wrocławski","global_code":"9F3V35P9+2C"},"price_level":2,"rating":4.5,"reference":"ChIJv1FdkMvdD0cRZFbf5ZHCA_I","types":["bar","restaurant","point_of_interest","food","establishment"],"user_ratings_total":347},{"business_status":"OPERATIONAL","formatted_address":"Michała Płońskiego 31, 54-002 Wrocław","geometry":{"location":{"lat":51.1451759,"lng":16.8666295},"viewport":{"northeast":{"lat":51.14646607989273,"lng":16.86788397989272},"southwest":{"lat":51.14376642010728,"lng":16.86518432010728}}},"icon":"https://maps.gstatic.com/mapfiles/place_api/icons/v1/png_71/restaurant-71.png","icon_background_color":"#FF9E67","icon_mask_base_uri":"https://maps.gstatic.com/mapfiles/place_api/icons/v2/restaurant_pinlet","name":"Heavy Meat Burgery i Steki Wrocław","opening_hours":{"open_now":true},"photos":[{"height":1600,"html_attributions":["<a href=\"https://maps.google.com/maps/contrib/111450101705328385232\">A Google User</a>"],"photo_reference":"AeJbb3dpSbWXZ8uTaHf0_NhLzpe1SV7y5oro1VW0TZSHEOZP4dducBrST2m7CdvGVrM3KPigHkz7AKsmu9489tXNWiThdDKJKCWUBhqnpb0WhTJUNr_BkGur9T0m7nWsi0UywLmw7ZJRy7MBTL-3gf16PK81W4EvIOLVKVFkrGEFbOH_D75s","width":1200}],"place_id":"ChIJc50TKn6VD0cRu3UD4AYczjY","plus_code":{"compound_code":"4VW8+3M Wrocław","global_code":"9F3R4VW8+3M"},"price_level":2,"rating":4.5,"reference":"ChIJc50TKn6VD0cRu3UD4AYczjY","types":["meal_takeaway","restaurant","food","point_of_interest","establishment"],"user_ratings_total":341},{"business_status":"OPERATIONAL","formatted_address":"Rakietowa 8, 54-615 Wrocław","geometry":{"location":{"lat":51.09841369999999,"lng":16.9372715},"viewport":{"northeast":{"lat":51.09985992989272,"lng":16.93856382989272},"southwest":{"lat":51.09716027010727,"lng":16.93586417010728}}},"icon":"https://maps.gstatic.com/mapfiles/place_api/icons/v1/png_71/restaurant-71.png","icon_background_color":"#FF9E67","icon_mask_base_uri":"https://maps.gstatic.com/mapfiles/place_api/icons/v2/restaurant_pinlet","name":"Wypaśnik","opening_hours":{"open_now":false},"photos":[{"height":659,"html_attributions":["<a href=\"https://maps.google.com/maps/contrib/107529721555533306521\">A Google User</a>"],"photo_reference":"AeJbb3f1FH8UGHyG6ET0Yt7ZMY-qC7wLb6hm5m9IrdEPVk8LqFY36WArVEVxaE1gm_Pw9nDx-Lm8ueV7f9e9I3Ev3-69bR6ImDp3qaSlyQAfC78maMj7HFed4s-P5Uzf8LOFTx-dsD18q3VUeTsUVTE0tMgIyo4Ibx3v-F3OOJ7BG9jBiMCL","width":960}],"place_id":"ChIJRTB3Pl3BD0cRWoXYqwAzH1M","plus_code":{"compound_code":"3WXP+9W Wrocław","global_code":"9F3R3WXP+9W"},"rating":4.5,"reference":"ChIJRTB3Pl3BD0cRWoXYqwAzH1M","types":["restaurant","food","point_of_interest","establishment"],"user_ratings_total":257},{"business_status":"OPERATIONAL","formatted_address":"Klimasa 37d/1, 50-515 Wrocław","geometry":{"location":{"lat":51.079552,"lng":17.063358},"viewport":{"northeast":{"lat":51.08098752989272,"lng":17.06461282989272},"southwest":{"lat":51.07828787010727,"lng":17.06191317010728}}},"icon":"https://maps.gstatic.com/mapfiles/place_api/icons/v1/png_71/restaurant-71.png","icon_background_color":"#FF9E67","icon_mask_base_uri":"https://maps.gstatic.com/mapfiles/place_api/icons/v2/restaurant_pinlet","name":"Rock Burger","opening_hours":{"open_now":true},"photos":[{"height":721,"html_attributions":["<a href=\"https://maps.google.com/maps/contrib/102478670616248052799\">A Google User</a>"],"photo_reference":"AeJbb3c-9HYofpnwOTZZC_Vn9ksUKxPTcKqniMPRhm0lssnpGOI_JQ3m_e1s-9A3ozUbVDH_YScuJweGcoDfYimSFEYdczdoa-k9TWB0OwE_2x1mDV4BwCowg6J-_f9tlZ2A5f_eyIY8Hxi4yXtQPQeQJy4fMqN02oFnfTwlNpIddCyaTm7h","width":1080}],"place_id":"ChIJgUp8B6nDD0cR_0YuL5AD7Cg","plus_code":{"compound_code":"33H7+R8 Wrocław","global_code":"9F3V33H7+R8"},"rating":4.5,"reference":"ChIJgUp8B6nDD0cR_0YuL5AD7Cg","types":["restaurant","food","point_of_interest","establishment"],"user_ratings_total":151},{"business_status":"OPERATIONAL","formatted_address":"Plac Solny 10, 50-074 Wrocław","geometry":{"location":{"lat":51.1093005,"lng":17.0286001},"viewport":{"northeast":{"lat":51.11095927989272,"lng":17.02996572989272},"southwest":{"lat":51.10825962010728,"lng":17.02726607010728}}},"icon":"https://maps.gstatic.com/mapfiles/place_api/icons/v1/png_71/restaurant-71.png","icon_background_color":"#FF9E67","icon_mask_base_uri":"https://maps.gstatic.com/mapfiles/place_api/icons/v2/restaurant_pinlet","name":"Moaburger","opening_hours":{"open_now":true},"photos":[{"height":3024,"html_attributions":["<a href=\"https://maps.google.com/maps/contrib/106239937106978215659\">Szymon Szajda</a>"],"photo_reference":"AeJbb3eyrqSe8SBEhl9-bE1bAm4HRKBKjWHNomOtbWkHk0vApsoEw9tdPAR4PMc5gr8dbr73Gw82cVR2Y1YtaIgS7XXl16lLXyTTDQChAiSmzlfG83D3SD40KXXsd0OS-DZl44N6u5gynkFYsp7VTmwR3amqpnJ4wIoEIeK0QgTFzXdyUrUC","width":4032}],"place_id":"ChIJsYKm3XTCD0cRhQJgkEgAQ6Q","plus_code":{"compound_code":"425H+PC Wrocław","global_code":"9F3V425H+PC"},"price_level":2,"rating":4.4,"reference":"ChIJsYKm3XTCD0cRhQJgkEgAQ6Q","types":["restaurant","food","point_of_interest","establishment"],"user_ratings_total":3718},{"business_status":"OPERATIONAL","formatted_address":"Powstańców Śląskich 2/4, 53-333 Wrocław","geometry":{"location":{"lat":51.0989241,"lng":17.029657},"viewport":{"northeast":{"lat":51.10015872989272,"lng":17.03121092989272},"southwest":{"lat":51.09745907010728,"lng":17.02851127010728}}},"icon":"https://maps.gstatic.com/mapfiles/place_api/icons/v1/png_71/restaurant-71.png","icon_background_color":"#FF9E67","icon_mask_base_uri":"https://maps.gstatic.com/mapfiles/place_api/icons/v2/restaurant_pinlet","name":"Pasibus","opening_hours":{"open_now":true},"photos":[{"height":2988,"html_attributions":["<a href=\"https://maps.google.com/maps/contrib/115727150910704792523\">Tomek J</a>"],"photo_reference":"AeJbb3c-WpGD38Izmnb1ue22Gdc_GxFV5a8RpQ5DKrS-kXJJLP8LAJruDNc3EPD0SsA-ULt1NYoPwHOcDo4aezzAaXSe6hv_JCxe4eCi-7PfvCOx8ek7d6GhuwAbMeki-95dDi_UK2GOYhaf3A93EkxTCoqB8hs9cqIWvKbhzmGVeZdlCAde","width":5312}],"place_id":"ChIJ6e_cd27CD0cR9HkSRDy4yjk","plus_code":{"compound_code":"32XH+HV Wrocław","global_code":"9F3V32XH+HV"},"price_level":2,"rating":4.4,"reference":"ChIJ6e_cd27CD0cR9HkSRDy4yjk","types":["restaurant","food","point_of_interest","establishment"],"user_ratings_total":1200},{"business_status":"OPERATIONAL","formatted_address":"Ferio, Świeradowska 51/57, 50-559 Wrocław","geometry":{"location":{"lat":51.0762642,"lng":17.0416468},"viewport":{"northeast":{"lat":51.07769352989272,"lng":17.04300117989272},"southwest":{"lat":51.07499387010728,"lng":17.04030152010727}}},"icon":"https://maps.gstatic.com/mapfiles/place_api/icons/v1/png_71/restaurant-71.png","icon_background_color":"#FF9E67","icon_mask_base_uri":"https://maps.gstatic.com/mapfiles/place_api/icons/v2/restaurant_pinlet","name":"Pasibus","opening_hours":{"open_now":true},"photos":[{"height":959,"html_attributions":["<a href=\"https://maps.google.com/maps/contrib/107478167202113598591\">A Google User</a>"],"photo_reference":"AeJbb3czHyhrsWJR2I7q3vtZRrXF81NWT0AvPiX0NAPbgdAsagHYW4g6c4_G51MXBrAgI8YrdnK2IKdl6jdZaDbKVqFYhSQVTvWcmVeaXJqdIe-vy_XUMth6koMyuK0eT7JB7RZic_3BTF2tnPLCXl2MCoxcn8dyW9ydFjMD2NynDZYTP9I8","width":959}],"place_id":"ChIJS8coEfTDD0cRmx3ttZlNeG8","plus_code":{"compound_code":"32GR+GM Wrocław","global_code":"9F3V32GR+GM"},"price_level":2,"rating":4.4,"reference":"ChIJS8coEfTDD0cRmx3ttZlNeG8","types":["restaurant","point_of_interest","food","establishment"],"user_ratings_total":623},{"business_status":"OPERATIONAL","formatted_address":"Zwycięska 43, 53-033 Wrocław","geometry":{"location":{"lat":51.0592747,"lng":17.0127509},"viewport":{"northeast":{"lat":51.06052417989272,"lng":17.01406642989273},"southwest":{"lat":51.05782452010727,"lng":17.01136677010728}}},"icon":"https://maps.gstatic.com/mapfiles/place_api/icons/v1/png_71/restaurant-71.png","icon_background_color":"#FF9E67","icon_mask_base_uri":"https://maps.gstatic.com/mapfiles/place_api/icons/v2/restaurant_pinlet","name":"Restauracja Burger Spot - Zwycięska","opening_hours":{"open_now":true},"photos":[{"height":544,"html_attributions":["<a href=\"https://maps.google.com/maps/contrib/111763353006404825272\">A Google User</a>"],"photo_reference":"AeJbb3fYd4WLX-PGsNVoCMPVlmYumkUPPd2SFce1L9WaSGnby-HeBJD4Go9s8-THalVTfbhRnl69dQ5Y-UC-TFd4YatQfe2d8pxyHes_Ug-vKZN_-Q__WCBJLgx9K6pazYxLN9D_epBGO0-A7ojtli5HyxUPyotCZgAPk7fMw1G-dYN2PtZ2","width":1010}],"place_id":"ChIJ6epIsZrDD0cR0Vhj3vff0yk","plus_code":{"compound_code":"3257+P4 Wrocław","global_code":"9F3V3257+P4"},"rating":4.4,"reference":"ChIJ6epIsZrDD0cR0Vhj3vff0yk","types":["restaurant","food","point_of_interest","establishment"],"user_ratings_total":299},{"business_status":"OPERATIONAL","formatted_address":"Rychtalska 16, 50-304 Wrocław","geometry":{"location":{"lat":51.129168,"lng":17.0464618},"viewport":{"northeast":{"lat":51.13054782989273,"lng":17.04794032989272},"southwest":{"lat":51.12784817010728,"lng":17.04524067010728}}},"icon":"https://maps.gstatic.com/mapfiles/place_api/icons/v1/png_71/restaurant-71.png","icon_background_color":"#FF9E67","icon_mask_base_uri":"https://maps.gstatic.com/mapfiles/place_api/icons/v2/restaurant_pinlet","name":"66 American Burger","opening_hours":{"open_now":true},"photos":[{"height":798,"html_attributions":["<a href=\"https://maps.google.com/maps/contrib/111187172305694514631\">A Google User</a>"],"photo_reference":"AeJbb3e9zdKtgZDSr33EeoQ-rXHnjPdKRecxz7VYqpd9ccgnSscSwg_qn09Sg8mJB-xQ3PGdPjnV4pV-hQ44VXnM9bCmoErUNDtaeQnWyk128naX7Gm_UzT9VKT1oRRB6-jVU_tRoLga83qEU81Nx0Q1Sa74sRme7V6qltxPojCIZ_yqTXQC","width":1200}],"place_id":"ChIJLUC7_wPCD0cRyVpCC-Sg-YQ","plus_code":{"compound_code":"42HW+MH Wrocław","global_code":"9F3V42HW+MH"},"rating":4.4,"reference":"ChIJLUC7_wPCD0cRyVpCC-Sg-YQ","types":["restaurant","food","point_of_interest","establishment"],"user_ratings_total":136},{"business_status":"OPERATIONAL","formatted_address":"plac Grunwaldzki 22, 50-363 Wrocław","geometry":{"location":{"lat":51.1123448,"lng":17.0594954},"viewport":{"northeast":{"lat":51.11369462989271,"lng":17.06084522989272},"southwest":{"lat":51.11099497010727,"lng":17.05814557010728}}},"icon":"https://maps.gstatic.com/mapfiles/place_api/icons/v1/png_71/restaurant-71.png","icon_background_color":"#FF9E67","icon_mask_base_uri":"https://maps.gstatic.com/mapfiles/place_api/icons/v2/restaurant_pinlet","name":"Pasibus","opening_hours":{"open_now":true},"photos":[{"height":3717,"html_attributions":["<a href=\"https://maps.google.com/maps/contrib/113333861848137189255\">Pasibua Pasaż Grunwaldzki</a>"],"photo_reference":"AeJbb3epaFC80WHefDKO7APc0Nolzigqbj5CwOghs36zcvIGYZoygvcF-bWae-c1-cVBBYYVmipcetc2ycNVYACfgjFJXvQdSP1LD83znn3gEHNlOHXTlo1cfl9JhSx-Yc8WDUqoM522aAaVF06I0nSB-dJYRqorpNGN0LEL5XbSY4uzfLRg","width":5576}],"place_id":"ChIJDfbQr9TpD0cRtZ2pUk3CuM0","plus_code":{"compound_code":"4365+WQ Wrocław","global_code":"9F3V4365+WQ"},"price_level":2,"rating":4.3,"reference":"ChIJDfbQr9TpD0cRtZ2pUk3CuM0","types":["restaurant","point_of_interest","food","establishment"],"user_ratings_total":1595},{"business_status":"OPERATIONAL","formatted_address":"Popowicka 26, 54-237 Wrocław","geometry":{"location":{"lat":51.1257591,"lng":16.9972447},"viewport":{"northeast":{"lat":51.12699302989272,"lng":16.99867552989272},"southwest":{"lat":51.12429337010728,"lng":16.99597587010728}}},"icon":"https://maps.gstatic.com/mapfiles/place_api/icons/v1/png_71/restaurant-71.png","icon_background_color":"#FF9E67","icon_mask_base_uri":"https://maps.gstatic.com/mapfiles/place_api/icons/v2/restaurant_pinlet","name":"Grillburger","opening_hours":{"open_now":true},"photos":[{"height":9000,"html_attributions":["<a href=\"https://maps.google.com/maps/contrib/111827104544300404053\">kubaw604</a>"],"photo_reference":"AeJbb3cetXhRr_aQshpgtrFq0jQlk3NEO4zL0oiYTXea32SaXvYpqJtOwgvTy_xOkL5BgNIN3UtQubO4gh5QAiC5AVgU1P31airofYmSEMKrtsml3SZHMhlCkpSNMpL87dmd4ylwTdWnKTtRPJLkaFwZQvb_kj49k16kVd7bV-EKOGw8zQhU","width":12000}],"place_id":"ChIJ2al9hATqD0cR6uoEdbsu4lI","plus_code":{"compound_code":"4XGW+8V Wrocław","global_code":"9F3R4XGW+8V"},"price_level":2,"rating":4.3,"reference":"ChIJ2al9hATqD0cR6uoEdbsu4lI","types":["restaurant","food","point_of_interest","establishment"],"user_ratings_total":1582},{"business_status":"OPERATIONAL","formatted_address":"Sukiennice 6, 50-107 Wrocław","geometry":{"location":{"lat":51.1100224,"lng":17.0319394},"viewport":{"northeast":{"lat":51.11121152989273,"lng":17.03387317989272},"southwest":{"lat":51.10851187010728,"lng":17.03117352010728}}},"icon":"https://maps.gstatic.com/mapfiles/place_api/icons/v1/png_71/restaurant-71.png","icon_background_color":"#FF9E67","icon_mask_base_uri":"https://maps.gstatic.com/mapfiles/place_api/icons/v2/restaurant_pinlet","name":"Butchery & Grill","opening_hours":{"open_now":true},"photos":[{"height":2664,"html_attributions":["<a href=\"https://maps.google.com/maps/contrib/115315451102466380491\">Paweł Staworzyński</a>"],"photo_reference":"AeJbb3cYl96CHduinARO8kb9UjXlz_A4TKLi54evqy_QozREpOVkBTCr8H8EsjauJ0WVXeVAyvrc0FmBe_TlL3hiKvRqsCv69oPNestSIAQOhgwcC6Nnx6iB7fdWrudKwQw4LqTvZThJhcPz-LBHMmdAAg0xgAQ-GZ17HFoKM3_iwFtSpMMB","width":5920}],"place_id":"ChIJf2nCpXXCD0cRroFi_zO8VaU","plus_code":{"compound_code":"426J+2Q Wrocław","global_code":"9F3V426J+2Q"},"price_level":3,"rating":4.3,"reference":"ChIJf2nCpXXCD0cRroFi_zO8VaU","types":["restaurant","point_of_interest","food","establishment"],"user_ratings_total":1075},{"business_status":"OPERATIONAL","formatted_address":"Niedźwiedzia 1, 50-529 Wrocław","geometry":{"location":{"lat":51.1207155,"lng":16.9956478},"viewport":{"northeast":{"lat":51.12200747989272,"lng":16.99691887989272},"southwest":{"lat":51.11930782010727,"lng":16.99421922010728}}},"icon":"https://maps.gstatic.com/mapfiles/place_api/icons/v1/png_71/restaurant-71.png","icon_background_color":"#FF9E67","icon_mask_base_uri":"https://maps.gstatic.com/mapfiles/place_api/icons/v2/restaurant_pinlet","name":"Balkan Burger Legnicka","opening_hours":{"open_now":true},"photos":[{"height":560,"html_attributions":["<a href=\"https://maps.google.com/maps/contrib/117843412412043616260\">A Google User</a>"],"photo_reference":"AeJbb3e4YkIN5IrlUZkPddWDtvBb_xdSglFci_kagB2_t7cJk7g8MdNXao_-S6eI_IlAkVqfDnKV54-H4dJz4Qw4AeMtRuN-gLzflBoi5GM9mKX4QarGFQQ4lubZlaPX3TvwX-RP5CgNA7K9zzETo8glNA2Uq_nAHPT_PH0JC7Cl2lXrpI4f","width":400}],"place_id":"ChIJEwTj___pD0cRsJYXHtZmS_o","plus_code":{"compound_code":"4XCW+77 Wrocław","global_code":"9F3R4XCW+77"},"price_level":2,"rating":4.3,"reference":"ChIJEwTj___pD0cRsJYXHtZmS_o","types":["bar","restaurant","food","point_of_interest","establishment"],"user_ratings_total":373},{"business_status":"OPERATIONAL","formatted_address":"Galeria Dominikańska, plac Dominikański 3, 50-159 Wrocław","geometry":{"location":{"lat":51.1082677,"lng":17.0393991},"viewport":{"northeast":{"lat":51.10959347989272,"lng":17.04050787989272},"southwest":{"lat":51.10689382010727,"lng":17.03780822010728}}},"icon":"https://maps.gstatic.com/mapfiles/place_api/icons/v1/png_71/restaurant-71.png","icon_background_color":"#FF9E67","icon_mask_base_uri":"https://maps.gstatic.com/mapfiles/place_api/icons/v2/restaurant_pinlet","name":"MAX Premium Burgers","opening_hours":{"open_now":true},"photos":[{"height":534,"html_attributions":["<a href=\"https://maps.google.com/maps/contrib/112476597562472727964\">Magdalena Wróbel</a>"],"photo_reference":"AeJbb3eAhjhIqoL4QcPUIUpq-qWvWs0hru2odz7lGXAN1ZhxwFi4jJXhYzzQKAVDVdwiI6MNAnCqURMqVdHnhZc47DVU5QczZAc17nmi0wy0ySFCsrgoHMQ7yrqe3PBbu54Ussvx6DqGkuieNMp1Qfc2cQlsQ4LQajDNxqtTmFGU47AlFmU","width":750}],"place_id":"ChIJbR8RCnfCD0cRy3QX1zVOr-0","plus_code":{"compound_code":"425Q+8Q Wrocław","global_code":"9F3V425Q+8Q"},"price_level":2,"rating":4.2,"reference":"ChIJbR8RCnfCD0cRy3QX1zVOr-0","types":["restaurant","food","point_of_interest","establishment"],"user_ratings_total":4496},{"business_status":"OPERATIONAL","formatted_address":"Czekoladowa 20, 55-040 Bielany Wrocławskie","geometry":{"location":{"lat":51.04676749999999,"lng":16.9611982},"viewport":{"northeast":{"lat":51.04807262989272,"lng":16.96255267989272},"southwest":{"lat":51.04537297010727,"lng":16.95985302010728}}},"icon":"https://maps.gstatic.com/mapfiles/place_api/icons/v1/png_71/restaurant-71.png","icon_background_color":"#FF9E67","icon_mask_base_uri":"https://maps.gstatic.com/mapfiles/place_api/icons/v2/restaurant_pinlet","name":"Burger King Bielany Wrocławskie (Drive Thru)","opening_hours":{"open_now":true},"photos":[{"height":1836,"html_attributions":["<a href=\"https://maps.google.com/maps/contrib/103745544502928122893\">Wojciech Kaczmarek</a>"],"photo_reference":"AeJbb3cBQymSc9-f91027M6yfLM1eVCRA290ojQXfbvJ82gP_cgk3ioFJKN64ZlZEcDjAkaELm_3eYFvV2SD0b64sy_BNjKGbzSe3k9oAsWUXa6GPyPEzuCJ0oTb2ZvdcRV3N9-6SMkbTecWEV10ShUga__PZ4WLP5HpDd0s4bX5i2KywaEy","width":3264}],"place_id":"ChIJN2FuzvzDD0cR1w_gpdhVxoY","plus_code":{"compound_code":"2XW6+PF Bielany Wrocławskie","global_code":"9F3R2XW6+PF"},"price_level":2,"rating":4.2,"reference":"ChIJN2FuzvzDD0cR1w_gpdhVxoY","types":["restaurant","point_of_interest","food","establishment"],"user_ratings_total":2688},{"business_status":"OPERATIONAL","formatted_address":"Magnolia Park, Legnicka 58, 54-204 Wrocław","geometry":{"location":{"lat":51.11747219999999,"lng":16.9879968},"viewport":{"northeast":{"lat":51.11872382989272,"lng":16.98920707989272},"southwest":{"lat":51.11602417010727,"lng":16.98650742010727}}},"icon":"https://maps.gstatic.com/mapfiles/place_api/icons/v1/png_71/restaurant-71.png","icon_background_color":"#FF9E67","icon_mask_base_uri":"https://maps.gstatic.com/mapfiles/place_api/icons/v2/restaurant_pinlet","name":"Pasibus","opening_hours":{"open_now":true},"photos":[{"height":5616,"html_attributions":["<a href=\"https://maps.google.com/maps/contrib/102725701892478942716\">A Google User</a>"],"photo_reference":"AeJbb3fBpBo26m2xsxHZKsFeuu_zR-_Um6tUEcF0gclVFECQA4uqCnk5jKqyxWuOSkZckMCVW0O08S1P1zti6N80_TxySUYkUbyYhjC_tVr6se4IN34VnyXYxhaktpyQhLfznkGE6nyyMl_IVRogUQBwtAyruN5ANRyJ7nupi7kEK-yFypht","width":3744}],"place_id":"ChIJaQ0eVoDrD0cRBZtcj8LxZHc","plus_code":{"compound_code":"4X8Q+X5 Wrocław","global_code":"9F3R4X8Q+X5"},"price_level":2,"rating":4.2,"reference":"ChIJaQ0eVoDrD0cRBZtcj8LxZHc","types":["restaurant","point_of_interest","food","establishment"],"user_ratings_total":743},{"business_status":"OPERATIONAL","formatted_address":"plac Grunwaldzki 22, 50-363 Wrocław","geometry":{"location":{"lat":51.1129426,"lng":17.0591226},"viewport":{"northeast":{"lat":51.11460762989272,"lng":17.06066742989272},"southwest":{"lat":51.11190797010727,"lng":17.05796777010728}}},"icon":"https://maps.gstatic.com/mapfiles/place_api/icons/v1/png_71/restaurant-71.png","icon_background_color":"#FF9E67","icon_mask_base_uri":"https://maps.gstatic.com/mapfiles/place_api/icons/v2/restaurant_pinlet","name":"Burger King","opening_hours":{"open_now":true},"photos":[{"height":4032,"html_attributions":["<a href=\"https://maps.google.com/maps/contrib/105656323561251713418\">A Google User</a>"],"photo_reference":"AeJbb3cs_AuJinz6GSxyupMJmWbLdxomBEdQXEbBdJiRH_qI_u7ApyBNFd71KxxtSBHMVIKp1THBDFpQWYUTV1JSiY0gUlMb-Hjq0VWREIMkNkO-11rJUL0cu9CmtU38m8njCY2hZWvrHdVCWOgJIR7zqNtr80tlRWootFwtt2PLAnJYyYTi","width":3024}],"place_id":"ChIJg8BLpdTpD0cRNlQRGALhUq4","plus_code":{"compound_code":"4375+5J Wrocław","global_code":"9F3V4375+5J"},"price_level":2,"rating":4.2,"reference":"ChIJg8BLpdTpD0cRNlQRGALhUq4","types":["restaurant","food","point_of_interest","establishment"],"user_ratings_total":542},{"business_status":"OPERATIONAL","formatted_address":"Kiełczowska 51C, 52-443 Wrocław","geometry":{"location":{"lat":51.1464436,"lng":17.1271735},"viewport":{"northeast":{"lat":51.14782457989273,"lng":17.12863222989272},"southwest":{"lat":51.14512492010728,"lng":17.12593257010728}}},"icon":"https://maps.gstatic.com/mapfiles/place_api/icons/v1/png_71/restaurant-71.png","icon_background_color":"#FF9E67","icon_mask_base_uri":"https://maps.gstatic.com/mapfiles/place_api/icons/v2/restaurant_pinlet","name":"Pizza & Burger Factory","opening_hours":{"open_now":true},"photos":[{"height":1960,"html_attributions":["<a href=\"https://maps.google.com/maps/contrib/106134160025499441564\">A Google User</a>"],"photo_reference":"AeJbb3fXn277aLS8FOvsY6-sl8C-cp5XVhvA5wzipDsV-WOcBUeUofDn4r-9WvQy0BqkUBO-R0u6rnjmY2Rs3KTyBexkEXsZVWgsacGctmWHISLZjhBIKn0z7JTLNHLeB1Y23gsJL64bOrq9WPU8vlO1OkkNswiB7ADsVVFhtbZmIqxXcAaG","width":2650}],"place_id":"ChIJCxlVSY_oD0cRBWUEA3XKnCQ","plus_code":{"compound_code":"44WG+HV Wrocław","global_code":"9F3V44WG+HV"},"rating":4.2,"reference":"ChIJCxlVSY_oD0cRBWUEA3XKnCQ","types":["restaurant","night_club","meal_takeaway","bar","meal_delivery","food","point_of_interest","establishment"],"user_ratings_total":520},{"business_status":"OPERATIONAL","formatted_address":"Szewska 75/77, 50-021 Wrocław","geometry":{"location":{"lat":51.1095598,"lng":17.0333046},"viewport":{"northeast":{"lat":51.11094867989272,"lng":17.03468032989272},"southwest":{"lat":51.10824902010728,"lng":17.03198067010728}}},"icon":"https://maps.gstatic.com/mapfiles/place_api/icons/v1/png_71/restaurant-71.png","icon_background_color":"#FF9E67","icon_mask_base_uri":"https://maps.gstatic.com/mapfiles/place_api/icons/v2/restaurant_pinlet","name":"Burger King Feniks","opening_hours":{"open_now":true},"photos":[{"height":3000,"html_attributions":["<a href=\"https://maps.google.com/maps/contrib/100922430217757825581\">Marek Majewski</a>"],"photo_reference":"AeJbb3d0pwo-t_VPuG2qSsEgIoLnQifZ4saG9iVi8WcyRYXLDoRQO_-R6eTQJea55NUX7_jJ2P6cyNwJljs5ZbEygG01vFo2pxPJd9meANSSY1JOFjj9MmIvZTPwDg2aMettcDk5XzyWz0UjJJjS4ts5bUOcE2kG46uVogSGKlbRh9nQyiWJ","width":5333}],"place_id":"ChIJO0DrznXCD0cRZAp3MTZxlrg","plus_code":{"compound_code":"425M+R8 Wrocław","global_code":"9F3V425M+R8"},"price_level":2,"rating":4.1,"reference":"ChIJO0DrznXCD0cRZAp3MTZxlrg","types":["restaurant","food","point_of_interest","establishment"],"user_ratings_total":2432},{"business_status":"OPERATIONAL","formatted_address":"Komandorska 66, 53-110 Wrocław","geometry":{"location":{"lat":51.094983,"lng":17.027943},"viewport":{"northeast":{"lat":51.09626332989272,"lng":17.02951942989272},"southwest":{"lat":51.09356367010727,"lng":17.02681977010728}}},"icon":"https://maps.gstatic.com/mapfiles/place_api/icons/v1/png_71/restaurant-71.png","icon_background_color":"#FF9E67","icon_mask_base_uri":"https://maps.gstatic.com/mapfiles/place_api/icons/v2/restaurant_pinlet","name":"Balkan Burger Arena","opening_hours":{"open_now":true},"photos":[{"height":1067,"html_attributions":["<a href=\"https://maps.google.com/maps/contrib/116983915963660196528\">Mariola Rozmus</a>"],"photo_reference":"AeJbb3eurfpKCp4wqiEl0nf7t3eNIFzH6CC6fZCFfjlCkLE0LZv_rOQpUuvtGmKUmFTpzpuwyR1MEOjsJ9ITBx1Ab0XMhedEI05SnM3N0fRKJp97Z7meEmVwHP_jMgN9FLz-XsyzIJUQ0rWI5yBR0TtajvY1vZqf4dFNCkmRL6LT_6qvcxpP","width":1600}],"place_id":"ChIJ9aMFh0rCD0cRO3eDDRTDwVA","plus_code":{"compound_code":"32VH+X5 Wrocław","global_code":"9F3V32VH+X5"},"price_level":2,"rating":4.1,"reference":"ChIJ9aMFh0rCD0cRO3eDDRTDwVA","types":["restaurant","bar","food","point_of_interest","establishment"],"user_ratings_total":773},{"business_status":"OPERATIONAL","formatted_address":"Wojciecha Bogusławskiego 43, 50-031 Wrocław","geometry":{"location":{"lat":51.1005713,"lng":17.0272395},"viewport":{"northeast":{"lat":51.10196352989272,"lng":17.02861342989272},"southwest":{"lat":51.09926387010728,"lng":17.02591377010728}}},"icon":"https://maps.gstatic.com/mapfiles/place_api/icons/v1/png_71/restaurant-71.png","icon_background_color":"#FF9E67","icon_mask_base_uri":"https://maps.gstatic.com/mapfiles/place_api/icons/v2/restaurant_pinlet","name":"Garage Burger","opening_hours":{"open_now":true},"photos":[{"height":3120,"html_attributions":["<a href=\"https://maps.google.com/maps/contrib/108612465120903044434\">Em Ikar</a>"],"photo_reference":"AeJbb3dD1Unpt9OY8VVJ5m9rcqBTN6rJdMi6ikN38hSpv0CCEUiYxOqA9ALIXqX6WB5ZW7Hprgd3wm5aUPjcvahVIq46wovakdE9Xj8A-uOTW1Gu1AM8PVk9Qlehkwk5TYz87yzpVqmZTG35hzUPF5leKCzbFvBOpg59GkaVryJfEvDZD8yh","width":4160}],"place_id":"ChIJ8ZUdwG3CD0cRV1MSMZKc-H8","plus_code":{"compound_code":"422G+6V Wrocław","global_code":"9F3V422G+6V"},"price_level":2,"rating":4,"reference":"ChIJ8ZUdwG3CD0cRV1MSMZKc-H8","types":["restaurant","food","point_of_interest","establishment"],"user_ratings_total":432},{"business_status":"OPERATIONAL","formatted_address":"CH Korona, Bolesława Krzywoustego 126, 51-421 Wrocław","geometry":{"location":{"lat":51.142253,"lng":17.0887054},"viewport":{"northeast":{"lat":51.14344587989272,"lng":17.09012872989272},"southwest":{"lat":51.14074622010727,"lng":17.08742907010728}}},"icon":"https://maps.gstatic.com/mapfiles/place_api/icons/v1/png_71/restaurant-71.png","icon_background_color":"#FF9E67","icon_mask_base_uri":"https://maps.gstatic.com/mapfiles/place_api/icons/v2/restaurant_pinlet","name":"Pasibus","opening_hours":{"open_now":true},"photos":[{"height":5241,"html_attributions":["<a href=\"https://maps.google.com/maps/contrib/105859156391051824689\">A Google User</a>"],"photo_reference":"AeJbb3em-APGRqAJ6rOGczQMsXWHYdUFK6MgQW7YlocRefNL_ocXXVnP1YICDVvnJQe01pGkuESo1vUtKmw_FKEWqiFhg1_9DWlA7an2sX_8X9V6F-k75zHnn1UShls2IIJl49POR6MTF5bPd3VJmg7COQPwSXyAPHl_1WM1Kg33Ovvdp0Y_","width":4193}],"place_id":"ChIJN81T0jjpD0cRczTfzoru6nI","plus_code":{"compound_code":"43RQ+WF Wrocław","global_code":"9F3V43RQ+WF"},"price_level":2,"rating":4,"reference":"ChIJN81T0jjpD0cRczTfzoru6nI","types":["restaurant","point_of_interest","food","establishment"],"user_ratings_total":162},{"business_status":"OPERATIONAL","formatted_address":"Drukarska 32, 53-312 Wrocław","geometry":{"location":{"lat":51.08958140000001,"lng":17.0210855},"viewport":{"northeast":{"lat":51.09106352989273,"lng":17.02239997989272},"southwest":{"lat":51.08836387010728,"lng":17.01970032010728}}},"icon":"https://maps.gstatic.com/mapfiles/place_api/icons/v1/png_71/restaurant-71.png","icon_background_color":"#FF9E67","icon_mask_base_uri":"https://maps.gstatic.com/mapfiles/place_api/icons/v2/restaurant_pinlet","name":"Queens Street Bar","opening_hours":{"open_now":true},"photos":[{"height":3448,"html_attributions":["<a href=\"https://maps.google.com/maps/contrib/108479985957969765811\">Piotr Gładczak</a>"],"photo_reference":"AeJbb3crcB76fBdkYMzRzJKthQ0QMmrVPK6m-H9u_Sf6lhI1XH8xYP3ttBN4Iad4W2emjq8xE732jHlnlYMgGun2sYprIZpjUAux0cGfQ2Rrms2PxDq7GnmMiNKukciVZhPrWwsklKYC4lxoDRfp002IsX_gHS0gQ_y9JRFoW_P7hsZV_cp8","width":5168}],"place_id":"ChIJx4VYnEHCD0cR4MqXAzZy5b0","plus_code":{"compound_code":"32QC+RC Wrocław","global_code":"9F3V32QC+RC"},"price_level":2,"rating":3.9,"reference":"ChIJx4VYnEHCD0cR4MqXAzZy5b0","types":["restaurant","point_of_interest","food","establishment"],"user_ratings_total":1239},{"business_status":"OPERATIONAL","formatted_address":"Legnicka 58, 54-204 Wrocław","geometry":{"location":{"lat":51.1187754,"lng":16.9886836},"viewport":{"northeast":{"lat":51.12023912989272,"lng":16.99136785},"southwest":{"lat":51.11753947010727,"lng":16.98778885}}},"icon":"https://maps.gstatic.com/mapfiles/place_api/icons/v1/png_71/restaurant-71.png","icon_background_color":"#FF9E67","icon_mask_base_uri":"https://maps.gstatic.com/mapfiles/place_api/icons/v2/restaurant_pinlet","name":"Burger King Magnolia","opening_hours":{"open_now":true},"photos":[{"height":2988,"html_attributions":["<a href=\"https://maps.google.com/maps/contrib/114255918357989547077\">_SkoczeK_ ™</a>"],"photo_reference":"AeJbb3cgUsVWQ4Bi_mJAdKe8_ZA1IfdPVnNOJa0Z_qnzKSwHH228jtSIwv7mkKChGuTi75ripAp16LChRlCbaAVIZHh5Osndk0XzdUIPv8mPekzF79BPlBlVZOK8cwiAvBTik2CHk4zJ30IeNdJInOfiTvWU278e3-VcYq21GEcp2KU6d1OO","width":5312}],"place_id":"ChIJtQegeAfqD0cRVP-E1zsfXz8","plus_code":{"compound_code":"4X9Q+GF Wrocław","global_code":"9F3R4X9Q+GF"},"price_level":2,"rating":3.8,"reference":"ChIJtQegeAfqD0cRVP-E1zsfXz8","types":["restaurant","food","point_of_interest","establishment"],"user_ratings_total":768},{"business_status":"OPERATIONAL","formatted_address":"55-040 Bielany Wrocławskie","geometry":{"location":{"lat":51.0489585,"lng":16.9585438},"viewport":{"northeast":{"lat":51.05030832989272,"lng":16.95989362989272},"southwest":{"lat":51.04760867010727,"lng":16.95719397010728}}},"icon":"https://maps.gstatic.com/mapfiles/place_api/icons/v1/png_71/restaurant-71.png","icon_background_color":"#FF9E67","icon_mask_base_uri":"https://maps.gstatic.com/mapfiles/place_api/icons/v2/restaurant_pinlet","name":"Smasz Burger","opening_hours":{"open_now":true},"photos":[{"height":514,"html_attributions":["<a href=\"https://maps.google.com/maps/contrib/109946220066188684816\">Kamilosiek FlyingFun</a>"],"photo_reference":"AeJbb3eiDwXSmuR1h4QUaq5NHul-00XKIXlA26bYNt9AxHCwuFS5M_iNZ6bYsez2nXQZvUhbl7QudqSRqZoiE4K25M0Ysxut6_B7aN91k9zvuD11QsOlVW77b0PrmsO2EkVDaETYNl4-ftt9D6jALHCQ9sGNejNkNnwk74MJl0NCeHX9sew2","width":960}],"place_id":"ChIJC3sZFQXDD0cR0XWybux4xHY","plus_code":{"compound_code":"2XX5+HC Bielany Wrocławskie","global_code":"9F3R2XX5+HC"},"rating":3.8,"reference":"ChIJC3sZFQXDD0cR0XWybux4xHY","types":["restaurant","food","point_of_interest","establishment"],"user_ratings_total":117},{"business_status":"OPERATIONAL","formatted_address":"Kazimierza Wielkiego 39, 50-438 Wrocław","geometry":{"location":{"lat":51.1075867,"lng":17.0301124},"viewport":{"northeast":{"lat":51.10900067989272,"lng":17.03151462989272},"southwest":{"lat":51.10630102010728,"lng":17.02881497010728}}},"icon":"https://maps.gstatic.com/mapfiles/place_api/icons/v1/png_71/restaurant-71.png","icon_background_color":"#FF9E67","icon_mask_base_uri":"https://maps.gstatic.com/mapfiles/place_api/icons/v2/restaurant_pinlet","name":"Balkan Burger Marynka","opening_hours":{"open_now":true},"photos":[{"height":544,"html_attributions":["<a href=\"https://maps.google.com/maps/contrib/106546672100299456863\">A Google User</a>"],"photo_reference":"AeJbb3f0pQ53mNAYfdaE1Fe8IkmXjsgeMxuAtVbmtO_9PYYTj9IB-XtOUmEfcCoRJFCm35TM6GeG6dVA1HSjuQkRsy9SQ__odazaiVyF8hE-SMMKNMdFtBlKKNbDEoHPrslhWxwilccCwlIdWgsKbkzsSDt5T0-VmuSaHKcxVXgK3-rYtPZN","width":1010}],"place_id":"ChIJj66acPnDD0cRCeegwosRnV0","plus_code":{"compound_code":"425J+22 Wrocław","global_code":"9F3V425J+22"},"rating":3.8,"reference":"ChIJj66acPnDD0cRCeegwosRnV0","types":["restaurant","food","point_of_interest","establishment"],"user_ratings_total":18},{"business_status":"OPERATIONAL","formatted_address":"Wroclavia, Sucha 1, 50-086 Wrocław","geometry":{"location":{"lat":51.0970988,"lng":17.0352918},"viewport":{"northeast":{"lat":51.09853827989272,"lng":17.03668892989272},"southwest":{"lat":51.09583862010728,"lng":17.03398927010728}}},"icon":"https://maps.gstatic.com/mapfiles/place_api/icons/v1/png_71/restaurant-71.png","icon_background_color":"#FF9E67","icon_mask_base_uri":"https://maps.gstatic.com/mapfiles/place_api/icons/v2/restaurant_pinlet","name":"MAX Premium Burgers","opening_hours":{"open_now":true},"photos":[{"height":3676,"html_attributions":["<a href=\"https://maps.google.com/maps/contrib/110675531522171119541\">A Google User</a>"],"photo_reference":"AeJbb3f_KIFdSYz_zupsJQi0aADsYQfFI9CGezafd9FTWDvJRF8oHwLHYDlUF388mNkzvPJ9Rwfxe60_XTzRSm8-UYMCibmlNHkbaGv6f7BE7Q_4lg0b2InWZAbw3RJybDV0r-PxTebjhNt1UU3heVBz8t7-Nr-dop_m2CkPfLHjFC4xVROC","width":5506}],"place_id":"ChIJuYJV2y7DD0cR6yfRA3bpYag","plus_code":{"compound_code":"32WP+R4 Wrocław","global_code":"9F3V32WP+R4"},"price_level":2,"rating":3.7,"reference":"ChIJuYJV2y7DD0cR6yfRA3bpYag","types":["restaurant","food","point_of_interest","establishment"],"user_ratings_total":277},{"business_status":"OPERATIONAL","formatted_address":"Wystawowa 1, 51-618 Wrocław","geometry":{"location":{"lat":51.10749329999999,"lng":17.0741029},"viewport":{"northeast":{"lat":51.10891832989272,"lng":17.07523787989272},"southwest":{"lat":51.10621867010727,"lng":17.07253822010728}}},"icon":"https://maps.gstatic.com/mapfiles/place_api/icons/v1/png_71/restaurant-71.png","icon_background_color":"#FF9E67","icon_mask_base_uri":"https://maps.gstatic.com/mapfiles/place_api/icons/v2/restaurant_pinlet","name":"Balkan Burger Hala Stulecia","opening_hours":{"open_now":true},"photos":[{"height":1600,"html_attributions":["<a href=\"https://maps.google.com/maps/contrib/102764624253517250413\">A Google User</a>"],"photo_reference":"AeJbb3f56aMc2GR_nxpo6roNIsI7DmejzmNWcY4RY1EYxD-mZIn8BV9QBhekGEXUZ2YV4rikDtNd94V8IbSdVqvQ6YKejQCwRAAH6f5yCJ3xg4dWqra-2_6gHhhYOOsP-w_np7T1SV0VgctgOy82kuE5eiRB1O1U28MRBPoRb1vE1An9Fp5i","width":2133}],"place_id":"ChIJe-N0EeDpD0cRIJ5NCWIzuGI","plus_code":{"compound_code":"434F+XJ Wrocław","global_code":"9F3V434F+XJ"},"rating":3.7,"reference":"ChIJe-N0EeDpD0cRIJ5NCWIzuGI","types":["restaurant","food","point_of_interest","establishment"],"user_ratings_total":6},{"business_status":"OPERATIONAL","formatted_address":"Wróblewskiego 1-5, 51-618 Wrocław","geometry":{"location":{"lat":51.105672,"lng":17.0760719},"viewport":{"northeast":{"lat":51.10714212989272,"lng":17.07752847989272},"southwest":{"lat":51.10444247010727,"lng":17.07482882010728}}},"icon":"https://maps.gstatic.com/mapfiles/place_api/icons/v1/png_71/restaurant-71.png","icon_background_color":"#FF9E67","icon_mask_base_uri":"https://maps.gstatic.com/mapfiles/place_api/icons/v2/restaurant_pinlet","name":"Aston Burger","opening_hours":{"open_now":true},"photos":[{"height":4000,"html_attributions":["<a href=\"https://maps.google.com/maps/contrib/118213672542137630423\">Оксана Иванова</a>"],"photo_reference":"AeJbb3es3p500gJFjiN2wOxIrXweU4l3vE9hVLykOA7TrbnWxOOsCHU1G02tQxdCabfp8r6F0pzv0-Ln1JtYLRgLOsFbf9iVHKSb6oX9jK7DfSv9mZDnxYe60OXOHtx8TFIV94JGJ8ouF5clEzHcL80vhilfvX6UkSNzxsxY9KilvlYSVcL-","width":3000}],"place_id":"ChIJ39yvbCjoD0cR_byejXRcjnE","plus_code":{"compound_code":"434G+7C Wrocław","global_code":"9F3V434G+7C"},"rating":3.5,"reference":"ChIJ39yvbCjoD0cR_byejXRcjnE","types":["meal_takeaway","restaurant","food","point_of_interest","establishment"],"user_ratings_total":85},{"business_status":"OPERATIONAL","formatted_address":"Niedźwiedzia 1, 54-230 Wrocław","geometry":{"location":{"lat":51.12127109999999,"lng":16.9949977},"viewport":{"northeast":{"lat":51.12273627989271,"lng":16.99603182989272},"southwest":{"lat":51.12003662010727,"lng":16.99333217010728}}},"icon":"https://maps.gstatic.com/mapfiles/place_api/icons/v1/png_71/restaurant-71.png","icon_background_color":"#FF9E67","icon_mask_base_uri":"https://maps.gstatic.com/mapfiles/place_api/icons/v2/restaurant_pinlet","name":"Black & Yellow","opening_hours":{"open_now":true},"photos":[{"height":6000,"html_attributions":["<a href=\"https://maps.google.com/maps/contrib/108841424103065108418\">108841424103065108418</a>"],"photo_reference":"AeJbb3dHKU1jbvbWinogFhniSi7ln6RRfs845O8f3rp4c8GXEgXwRb3FOs6wB0sbY11fgHY5iIzNYyJs0NQnEECXujxR0aK55iITZ2G9_CT2_A7viwPvmYTUrFI1W9BPOqPgLEw5o_eydsisRGKzX6X9GKtSMfTb_t5Nr4gYmIjlcnaWnNba","width":8000}],"place_id":"ChIJdSPWIMzrD0cRMu8rK_ZxmGc","plus_code":{"compound_code":"4XCV+GX Wrocław","global_code":"9F3R4XCV+GX"},"rating":3.1,"reference":"ChIJdSPWIMzrD0cRMu8rK_ZxmGc","types":["meal_takeaway","restaurant","point_of_interest","food","establishment"],"user_ratings_total":91},{"business_status":"OPERATIONAL","formatted_address":"Rynek Ratusz, 52-007 Wrocław","geometry":{"location":{"lat":51.1101768,"lng":17.0329335},"viewport":{"northeast":{"lat":51.11129037989273,"lng":17.03438722989273},"southwest":{"lat":51.10859072010729,"lng":17.03168757010728}}},"icon":"https://maps.gstatic.com/mapfiles/place_api/icons/v1/png_71/restaurant-71.png","icon_background_color":"#FF9E67","icon_mask_base_uri":"https://maps.gstatic.com/mapfiles/place_api/icons/v2/restaurant_pinlet","name":"Blow Burgers","opening_hours":{"open_now":true},"photos":[{"height":1860,"html_attributions":["<a href=\"https://maps.google.com/maps/contrib/110680014689135849622\">Adrian Szymczak</a>"],"photo_reference":"AeJbb3dmNRoxZFhl8dUvWy09BLQHxQdEjdAVnTYIeYDmQJff5Y_j_ARqOLW2vBC6wbNRZ57VSb-0RhG9CVIBNmJ5Lhh8aExURMp-Kf-h07uUaSDwutNAOWgCXzQys_a7auveHcKcnNaZ0gW3MiZlItLenBiictOn6uoRXm-FP0Erq6KnXfiL","width":4032}],"place_id":"ChIJt5aSKQbDD0cRxp-qTrltQJo","plus_code":{"compound_code":"426M+35 Wrocław","global_code":"9F3V426M+35"},"rating":2.8,"reference":"ChIJt5aSKQbDD0cRxp-qTrltQJo","types":["restaurant","food","point_of_interest","establishment"],"user_ratings_total":54},{"business_status":"OPERATIONAL","formatted_address":"Widna 6, 50-001 Wrocław","geometry":{"location":{"lat":51.083616,"lng":17.0454281},"viewport":{"northeast":{"lat":51.08497697989272,"lng":17.04712847989272},"southwest":{"lat":51.08227732010727,"lng":17.04442882010728}}},"icon":"https://maps.gstatic.com/mapfiles/place_api/icons/v1/png_71/restaurant-71.png","icon_background_color":"#FF9E67","icon_mask_base_uri":"https://maps.gstatic.com/mapfiles/place_api/icons/v2/restaurant_pinlet","name":"Black & Yellow","photos":[{"height":3648,"html_attributions":["<a href=\"https://maps.google.com/maps/contrib/110128594964497867433\">A Google User</a>"],"photo_reference":"AeJbb3fjM96S4bUg0l95NmAnbt-r-OIuEV7bjMCtOGTfZ6QuUXaKiTLYFIs26BL5hDdqo9cuPexjZ6I-_2mGyKHEkxT2FoX0659nBpS1tztA8BHmrPDBdXgRf2IGww3UatgIGL-sLrML2rm-4mXx_2Bnu0qPg6Xg_McEQuIyxyKh7jXcjILV","width":2736}],"place_id":"ChIJQ1VeDy3DD0cRL-veOXZ_cv8","plus_code":{"compound_code":"32MW+C5 Wrocław","global_code":"9F3V32MW+C5"},"rating":2.7,"reference":"ChIJQ1VeDy3DD0cRL-veOXZ_cv8","types":["restaurant","point_of_interest","food","establishment"],"user_ratings_total":12},{"business_status":"OPERATIONAL","formatted_address":"plac Bema 6, 50-265 Wrocław","geometry":{"location":{"lat":51.1168602,"lng":17.0423455},"viewport":{"northeast":{"lat":51.11825437989272,"lng":17.04358947989272},"southwest":{"lat":51.11555472010728,"lng":17.04088982010728}}},"icon":"https://maps.gstatic.com/mapfiles/place_api/icons/v1/png_71/restaurant-71.png","icon_background_color":"#FF9E67","icon_mask_base_uri":"https://maps.gstatic.com/mapfiles/place_api/icons/v2/restaurant_pinlet","name":"#zjedzburgera","opening_hours":{"open_now":true},"photos":[{"height":3024,"html_attributions":["<a href=\"https://maps.google.com/maps/contrib/114491766850649214047\">Wojciech Moczulski</a>"],"photo_reference":"AeJbb3cFBqDeigFsR2uYGPEg3-FajjgdWNtWFeQV0Bcjj4A_9idfQ__mumwIx_pLJpZ77gkV0gvM08g5ZrlYlDIjtAmVp56AVq3Oxx-7acO-urbRrxMe6WDCXrRL6fJaCSj__EcUkpDYsO4-2yGvBW-94-GzRIdSGOH3zZmj7K3Og6v7bhxV","width":4032}],"place_id":"ChIJuT65LgXpD0cRfNf-4qQOb18","plus_code":{"compound_code":"428R+PW Wrocław","global_code":"9F3V428R+PW"},"rating":2.6,"reference":"ChIJuT65LgXpD0cRfNf-4qQOb18","types":["restaurant","food","point_of_interest","establishment"],"user_ratings_total":45},{"business_status":"OPERATIONAL","formatted_address":"Czekoladowa 7-9/11 lokal, 55-040 i232","geometry":{"location":{"lat":51.0482096,"lng":16.9595064},"viewport":{"northeast":{"lat":51.04951932989272,"lng":16.96083022989272},"southwest":{"lat":51.04681967010728,"lng":16.95813057010728}}},"icon":"https://maps.gstatic.com/mapfiles/place_api/icons/v1/png_71/restaurant-71.png","icon_background_color":"#FF9E67","icon_mask_base_uri":"https://maps.gstatic.com/mapfiles/place_api/icons/v2/restaurant_pinlet","name":"Burger King","opening_hours":{"open_now":true},"place_id":"ChIJu9MMC2DDD0cRIwnk5pJKH5I","plus_code":{"compound_code":"2XX5+7R Bielany Wrocławskie","global_code":"9F3R2XX5+7R"},"price_level":2,"rating":0,"reference":"ChIJu9MMC2DDD0cRIwnk5pJKH5I","types":["restaurant","point_of_interest","food","establishment"],"user_ratings_total":0},{"business_status":"OPERATIONAL","formatted_address":"Odrzańska 6A, 50-438 Wrocław","geometry":{"location":{"lat":51.1118138,"lng":17.031546},"viewport":{"northeast":{"lat":51.11319287989273,"lng":17.03270567989272},"southwest":{"lat":51.11049322010728,"lng":17.03000602010727}}},"icon":"https://maps.gstatic.com/mapfiles/place_api/icons/v1/png_71/restaurant-71.png","icon_background_color":"#FF9E67","icon_mask_base_uri":"https://maps.gstatic.com/mapfiles/place_api/icons/v2/restaurant_pinlet","name":"Burger place","place_id":"ChIJt0DxVhvDD0cRAP0eTJni1N0","plus_code":{"compound_code":"426J+PJ Wrocław","global_code":"9F3V426J+PJ"},"rating":0,"reference":"ChIJt0DxVhvDD0cRAP0eTJni1N0","types":["restaurant","point_of_interest","food","establishment"],"user_ratings_total":0}]