[{"business_status":"OPERATIONAL","formatted_address":"Kurt-Triest-Straße 5, 90441 Nürnberg","geometry":{"location":{"lat":49.4316324,"lng":11.0442367},"viewport":{"northeast":{"lat":49.43287922989271,"lng":11.04551172989272},"southwest":{"lat":49.43017957010727,"lng":11.04281207010728}}},"icon":"https://maps.gstatic.com/mapfiles/place_api/icons/v1/png_71/shopping-71.png","icon_background_color":"#4B96F3","icon_mask_base_uri":"https://maps.gstatic.com/mapfiles/place_api/icons/v2/shoppingcart_pinlet","name":"E-Center Lebensmittelpunkt Schätz","opening_hours":{"open_now":true},"photos":[{"height":3120,"html_attributions":["<a href=\"https://maps.google.com/maps/contrib/108094348524513211364\">A Google User</a>"],"photo_reference":"AeJbb3e0u4UsYbEbjZ_nY2zP3uiU3FhYm7xnPgXWtSMDevofRjzwjPtT_WhrXq4oNum9CWjfWZRuYZ1vrdzxVoW5_qq7js-s9yVPRNH6KBkgdoDcFv-7apCxmahoWOOvG0gsJKYU1fwEEJ_5LSgI2bY7jAtEv_4-xtJCXEReTGTwJeCQau39","width":4160}],"place_id":"ChIJTdgXhQVXn0cRbWTlLQICRKk","plus_code":{"compound_code":"C2JV+MM Nuremberg","global_code":"8FXHC2JV+MM"},"rating":4.6,"reference":"ChIJTdgXhQVXn0cRbWTlLQICRKk","types":["supermarket","grocery_or_supermarket","bakery","meal_takeaway","restaurant","food","store","point_of_interest","establishment"],"user_ratings_total":679},{"business_status":"OPERATIONAL","formatted_address":"Hintere Insel Schütt 34, 90403 Nürnberg","geometry":{"location":{"lat":49.4530025,"lng":11.0857222},"viewport":{"northeast":{"lat":49.45437002989272,"lng":11.08702252989272},"southwest":{"lat":49.45167037010728,"lng":11.08432287010728}}},"icon":"https://maps.gstatic.com/mapfiles/place_api/icons/v1/png_71/bar-71.png","icon_background_color":"#FF9E67","icon_mask_base_uri":"https://maps.gstatic.com/mapfiles/place_api/icons/v2/bar_pinlet","name":"Restauration Kopernikus - Restaurant & Biergarten","opening_hours":{"open_now":false},"photos":[{"height":2736,"html_attributions":["<a href=\"https://maps.google.com/maps/contrib/114449747434986920629\">McComplexNumberOne</a>"],"photo_reference":"AeJbb3eroV-ZxxMIuXbUfArkr6MFYS5Zu-gDZTvy5JW0s3f_rft33dQUKy5BgZHK2EzBYaP1BNqjnKPIxAd2q_dBC4wv7ConpNjAvRYKRIBjGdJnaAH9zcEM-BJvcE3c_BMLP-aMPBDSbGBLMWO9Z5mPdg81pqDR0IJInGbcOjO0VDAZHaxK","width":3648}],"place_id":"ChIJG6qWoKNXn0cR0UE50wbbkAo","plus_code":{"compound_code":"F33P+67 Nuremberg","global_code":"8FXHF33P+67"},"price_level":2,"rating":4.5,"reference":"ChIJG6qWoKNXn0cR0UE50wbbkAo","types":["bar","restaurant","food","point_of_interest","establishment"],"user_ratings_total":1849},{"business_status":"OPERATIONAL","formatted_address":"Königspl. 4, 91126 Schwabach","geometry":{"location":{"lat":49.32928,"lng":11.02111},"viewport":{"northeast":{"lat":49.33066972989273,"lng":11.02258437989272},"southwest":{"lat":49.32797007010728,"lng":11.01988472010728}}},"icon":"https://maps.gstatic.com/mapfiles/place_api/icons/v1/png_71/restaurant-71.png","icon_background_color":"#FF9E67","icon_mask_base_uri":"https://maps.gstatic.com/mapfiles/place_api/icons/v2/restaurant_pinlet","name":"Buonissimo Schwabach | Italienische Eis-Manufaktur","opening_hours":{"open_now":true},"photos":[{"height":6000,"html_attributions":["<a href=\"https://maps.google.com/maps/contrib/112478407097505779136\">Jürgen Heindl</a>"],"photo_reference":"AeJbb3c7Zb1brzifWUjQvq-idgTYP8VPy2x9xZ11tCOX9tU62EGZoOJt3eCsm7KN7tsvSRQxRMvgkiuitrH8vYkCekVUHNwyySu3WC5ipiL-7L_lorw6N3dvAsmHkCF8vB1MkE7s8dXp3dF4UdQ1YVXm-0SzStOXLvdA-yJyZIAfkGjmNn3a","width":8000}],"place_id":"ChIJ836FHipQn0cRTgtaA2TOttY","plus_code":{"compound_code":"82HC+PC Schwabach","global_code":"8FXH82HC+PC"},"price_level":2,"rating":4.5,"reference":"ChIJ836FHipQn0cRTgtaA2TOttY","types":["cafe","meal_takeaway","bar","restaurant","food","store","point_of_interest","establishment"],"user_ratings_total":485},{"business_status":"OPERATIONAL","formatted_address":"Sebastianstraße 25, 91058 Erlangen","geometry":{"location":{"lat":49.545517,"lng":11.0308723},"viewport":{"northeast":{"lat":49.54689092989273,"lng":11.03210307989272},"southwest":{"lat":49.54419127010728,"lng":11.02940342010728}}},"icon":"https://maps.gstatic.com/mapfiles/place_api/icons/v1/png_71/restaurant-71.png","icon_background_color":"#FF9E67","icon_mask_base_uri":"https://maps.gstatic.com/mapfiles/place_api/icons/v2/restaurant_pinlet","name":"Bistro da Bahiana","opening_hours":{"open_now":false},"photos":[{"height":1920,"html_attributions":["<a href=\"https://maps.google.com/maps/contrib/111040186811178744653\">BETH chaves</a>"],"photo_reference":"AeJbb3fion_GkEiOYP-nTlfN0Z5I7Y-DNNb77a2fJMDjrHuNeFLvK-Aisquy8wuDaV_9vJpTobQOG7eGxPNE2s8SQbAz7j-nUj_rxts1CwAPeW26mkez2ErWhK57JLg_ueTHsaSRPM3k3xPzhD0GUunoc_sVLq7CLWRxKkXWZN2vluwuYx2N","width":2560}],"place_id":"ChIJV-YgZJD-oUcRY-ABNk53G7g","plus_code":{"compound_code":"G2WJ+68 Erlangen","global_code":"8FXHG2WJ+68"},"price_level":2,"rating":4.5,"reference":"ChIJV-YgZJD-oUcRY-ABNk53G7g","types":["restaurant","food","point_of_interest","establishment"],"user_ratings_total":175},{"business_status":"OPERATIONAL","formatted_address":"Schwabacher Str. 8, 90762 Fürth","geometry":{"location":{"lat":49.475675,"lng":10.9887972},"viewport":{"northeast":{"lat":49.47733572989272,"lng":10.99021502989272},"southwest":{"lat":49.47463607010728,"lng":10.98751537010728}}},"icon":"https://maps.gstatic.com/mapfiles/place_api/icons/v1/png_71/restaurant-71.png","icon_background_color":"#FF9E67","icon_mask_base_uri":"https://maps.gstatic.com/mapfiles/place_api/icons/v2/restaurant_pinlet","name":"Wonder Waffel Fürth","opening_hours":{"open_now":true},"photos":[{"height":2592,"html_attributions":["<a href=\"https://maps.google.com/maps/contrib/106245869697404217656\">Tina Kautler</a>"],"photo_reference":"AeJbb3dx62nv_5ztKaJYPRO7rERSViaHk4ikommwfNT4hJNVvA_9msb08q8MvLWQd3wvwbXB7MFqePN5kCtPrX_y1ZhoCjyp53VQHX2XBvFG221_5Uj8LjCqZuOKpSFd_pn4Pt8vvWLA5NXnuJwDdW9APX8uV8PEfEFJsYFvCU6hDeJQsrPZ","width":4608}],"place_id":"ChIJmdEOZJVVn0cRl22nOiJY-1U","plus_code":{"compound_code":"FXGQ+7G Fürth","global_code":"8FXGFXGQ+7G"},"price_level":2,"rating":4.4,"reference":"ChIJmdEOZJVVn0cRl22nOiJY-1U","types":["cafe","restaurant","food","store","point_of_interest","establishment"],"user_ratings_total":906},{"business_status":"OPERATIONAL","formatted_address":"Kappadocia 1, 91126 Schwabach","geometry":{"location":{"lat":49.3298854,"lng":11.0227855},"viewport":{"northeast":{"lat":49.33120642989272,"lng":11.02423732989272},"southwest":{"lat":49.32850677010727,"lng":11.02153767010728}}},"icon":"https://maps.gstatic.com/mapfiles/place_api/icons/v1/png_71/restaurant-71.png","icon_background_color":"#FF9E67","icon_mask_base_uri":"https://maps.gstatic.com/mapfiles/place_api/icons/v2/restaurant_pinlet","name":"Das Laumer","opening_hours":{"open_now":true},"photos":[{"height":930,"html_attributions":["<a href=\"https://maps.google.com/maps/contrib/105464250576125874570\">A Google User</a>"],"photo_reference":"AeJbb3fVfh9n08os4Vfp6l4I_rWqVI5c2pIFAzvTRi3LGMYIVtFj5B3itC3jREPRXXSjZmv9mRDitu0lUCFmr9eYpAd2lJDjmgatDAKC_AmlegWvt3JXmFEbykPNcrmlLFmpp_5o0Fp7cBS2hAVYD6NCep0OMwT5VJIC5IQ7o5zKieYP2lk","width":1940}],"place_id":"ChIJyVMokSlQn0cRflQ0J0cwFcA","plus_code":{"compound_code":"82HF+X4 Schwabach","global_code":"8FXH82HF+X4"},"price_level":2,"rating":4.4,"reference":"ChIJyVMokSlQn0cRflQ0J0cwFcA","types":["bar","restaurant","food","point_of_interest","establishment"],"user_ratings_total":279},{"business_status":"OPERATIONAL","formatted_address":"Hintere Insel Schütt 34, 90403 Nürnberg","geometry":{"location":{"lat":49.4530518,"lng":11.085724},"viewport":{"northeast":{"lat":49.45442347989272,"lng":11.08706427989272},"southwest":{"lat":49.45172382010728,"lng":11.08436462010728}}},"icon":"https://maps.gstatic.com/mapfiles/place_api/icons/v1/png_71/generic_business-71.png","icon_background_color":"#7B9EB0","icon_mask_base_uri":"https://maps.gstatic.com/mapfiles/place_api/icons/v2/generic_pinlet","name":"Cultural Center in Krakow House","opening_hours":{"open_now":true},"photos":[{"height":4032,"html_attributions":["<a href=\"https://maps.google.com/maps/contrib/105141669338011240158\">Manuel Hohenberger</a>"],"photo_reference":"AeJbb3dmrStQIm_W3wGpPi33SNzhaHQuQXYf_8kfTkHk0h1NrTMT1fB-7ARu7_2im2VVS8_Xz6aIJaeN88WZCmJTzhjR8-0K92pRfVQznWFT8LB8i0BbZan-c7UjOTFWQWAMjhKnsyvSz2JcyJzExTcmV2UBTtMiwjsHs0Nseb6b5k5vx4sw","width":3024}],"place_id":"ChIJ5yKAaQ-fDEERt_PYvUkcBM0","plus_code":{"compound_code":"F33P+67 Nuremberg","global_code":"8FXHF33P+67"},"rating":4.4,"reference":"ChIJ5yKAaQ-fDEERt_PYvUkcBM0","types":["travel_agency","restaurant","food","point_of_interest","establishment"],"user_ratings_total":206}]