[{"business_status":"OPERATIONAL","formatted_address":"5 Rue Joseph Sansboeuf, 75008 Paris","geometry":{"location":{"lat":48.8755472,"lng":2.32283},"viewport":{"northeast":{"lat":48.87674217989272,"lng":2.324239329892722},"southwest":{"lat":48.87404252010727,"lng":2.321539670107277}}},"icon":"https://maps.gstatic.com/mapfiles/place_api/icons/v1/png_71/restaurant-71.png","icon_background_color":"#FF9E67","icon_mask_base_uri":"https://maps.gstatic.com/mapfiles/place_api/icons/v2/restaurant_pinlet","name":"Sukhi Asie","opening_hours":{"open_now":false},"photos":[{"height":723,"html_attributions":["<a href=\"https://maps.google.com/maps/contrib/102774277401054126433\">A Google User</a>"],"photo_reference":"AeJbb3dOH1UXEVlhrmuZMo62PHy9M3YPYaNRRND8dUUFRIbsBJvTRemvB4aPRimRUfSPK03BHHD6Q_NXVkO5DE3QDKHIaHR3RpWYFV0zpxKQLYsaZKwptP0PwUB076-gVavPHQhHY9v63Y-_haX2Y4r3dDi43fO9hG_x4_fpsg3ABEVJE1qn","width":1284}],"place_id":"ChIJV6ZHCnZv5kcR38K5lABIaQQ","plus_code":{"compound_code":"V8GF+64 Paris","global_code":"8FW4V8GF+64"},"rating":4.9,"reference":"ChIJV6ZHCnZv5kcR38K5lABIaQQ","types":["restaurant","food","point_of_interest","establishment"],"user_ratings_total":38},{"business_status":"OPERATIONAL","formatted_address":"Carrer de Sant Pere d'Abanto, 7, 08014 Barcelona, Spain","geometry":{"location":{"lat":41.37135869999999,"lng":2.14324},"viewport":{"northeast":{"lat":41.37260547989272,"lng":2.144726679892722},"southwest":{"lat":41.36990582010728,"lng":2.142027020107278}}},"icon":"https://maps.gstatic.com/mapfiles/place_api/icons/v1/png_71/restaurant-71.png","icon_background_color":"#FF9E67","icon_mask_base_uri":"https://maps.gstatic.com/mapfiles/place_api/icons/v2/restaurant_pinlet","name":"MONGOLIAN BBQ","opening_hours":{"open_now":false},"photos":[{"height":1816,"html_attributions":["<a href=\"https://maps.google.com/maps/contrib/110683795466597162977\">A Google User</a>"],"photo_reference":"AeJbb3fJ_BfIz3AROHrbj7poEW8xNX3rn6ZAAP79zAeVHso-XyTiEJF3poDvUmsDF-yfteA2kj2GxvM7CAOhBTVb9aJ122Kcw1Bm7oBcJf62nnaUtjtGOunIVNo6I9sKSYdTPO9ncMWdIj269lFM6y8Q6-dIm0n3KQRaqqX-HnA-PURn8ikl","width":4032}],"place_id":"ChIJbcvhLoqZpBIRJ0vf4C7mqV4","plus_code":{"compound_code":"94CV+G7 Barcelona, Spain","global_code":"8FH494CV+G7"},"rating":4.8,"reference":"ChIJbcvhLoqZpBIRJ0vf4C7mqV4","types":["restaurant","food","point_of_interest","establishment"],"user_ratings_total":66},{"business_status":"OPERATIONAL","formatted_address":"11483 Chester Rd, Cincinnati, OH 45246, United States","geometry":{"location":{"lat":39.2829343,"lng":-84.44358749999999},"viewport":{"northeast":{"lat":39.28420667989272,"lng":-84.44218147010727},"southwest":{"lat":39.28150702010727,"lng":-84.44488112989272}}},"icon":"https://maps.gstatic.com/mapfiles/place_api/icons/v1/png_71/restaurant-71.png","icon_background_color":"#FF9E67","icon_mask_base_uri":"https://maps.gstatic.com/mapfiles/place_api/icons/v2/restaurant_pinlet","name":"Da Han Mongolian BBQ","opening_hours":{"open_now":false},"photos":[{"height":4032,"html_attributions":["<a href=\"https://maps.google.com/maps/contrib/105351209570375189958\">Judith Martin</a>"],"photo_reference":"AeJbb3fZo7Tr8Cb4FBaW4ggIn6GqiD1R2_vyYMJB3fWbMHkOQSlzplbJ0X7ASQ6xullTlAa57I-1nSa8oJ499ZJUTBTFVl-bof2aJ8YU4KDFy1urA3RdChMe_bxRGmyiFYJ9JcZYjmtndGIFTFbn4e4siHFzz1ahA1mChHB_QNcExjauNftP","width":3024}],"place_id":"ChIJ_3kdoBxOQIgRVq9TvVDUvvk","plus_code":{"compound_code":"7HM4+5G Cincinnati, Ohio, USA","global_code":"86FQ7HM4+5G"},"rating":4.7,"reference":"ChIJ_3kdoBxOQIgRVq9TvVDUvvk","types":["restaurant","food","point_of_interest","establishment"],"user_ratings_total":143},{"business_status":"OPERATIONAL","formatted_address":"Alte Aarauerstrasse 4, 5734 Reinach, Switzerland","geometry":{"location":{"lat":47.2662144,"lng":8.1755859},"viewport":{"northeast":{"lat":47.26754682989273,"lng":8.176820979892723},"southwest":{"lat":47.26484717010728,"lng":8.174121320107279}}},"icon":"https://maps.gstatic.com/mapfiles/place_api/icons/v1/png_71/restaurant-71.png","icon_background_color":"#FF9E67","icon_mask_base_uri":"https://maps.gstatic.com/mapfiles/place_api/icons/v2/restaurant_pinlet","name":"The Khan Mongolian Restaurant","opening_hours":{"open_now":false},"photos":[{"height":1080,"html_attributions":["<a href=\"https://maps.google.com/maps/contrib/113430639369371904026\">A Google User</a>"],"photo_reference":"AeJbb3c34M65f13bF4jPUjqY1J-JN0ETafG1yqg2LLK3FIQ2DoW4u5jThxTUrCSyiDidHT31WvRJj7rlf9XbXtrHE-S-yiNTTnUue1eTtnr5WPArynFS7HNwOPDz9SR2otep47NPwlUuuShLYr5sVfINOmZOOmYB-jUwxwHpmXPgZX8twzDN","width":1080}],"place_id":"ChIJRVY4TZgZkEcRtkW30V3SWpk","plus_code":{"compound_code":"758G+F6 Reinach, Switzerland","global_code":"8FVC758G+F6"},"rating":4.7,"reference":"ChIJRVY4TZgZkEcRtkW30V3SWpk","types":["restaurant","food","point_of_interest","establishment"],"user_ratings_total":23},{"business_status":"OPERATIONAL","formatted_address":"206 Rue Saint-Jacques, 75005 Paris","geometry":{"location":{"lat":48.8455409,"lng":2.3425822},"viewport":{"northeast":{"lat":48.84688687989271,"lng":2.343943929892722},"southwest":{"lat":48.84418722010727,"lng":2.341244270107277}}},"icon":"https://maps.gstatic.com/mapfiles/place_api/icons/v1/png_71/restaurant-71.png","icon_background_color":"#FF9E67","icon_mask_base_uri":"https://maps.gstatic.com/mapfiles/place_api/icons/v2/restaurant_pinlet","name":"Kokonor","opening_hours":{"open_now":false},"photos":[{"height":3474,"html_attributions":["<a href=\"https://maps.google.com/maps/contrib/115086575130570288056\">dard matthieu</a>"],"photo_reference":"AeJbb3eifCtNq81VVvR1n2Ya6Uv3LQ-pLLAJSeiwB-O_I_Kbrt_uYeqn_JybdU17HMWLOU_rakiHpI5g0mcZN_apJfXkc32xXa5bcW3fBgyXEfhnMpumG_FfuFYdo1ZGrQphCg9Fd_byjBzinbLWHsDCCfAkIwhHBMXTx065UvyDBL1rhtJj","width":4604}],"place_id":"ChIJYdsRusJx5kcRIWybhF8s4kI","plus_code":{"compound_code":"R8WV+62 Paris","global_code":"8FW4R8WV+62"},"price_level":2,"rating":4.6,"reference":"ChIJYdsRusJx5kcRIWybhF8s4kI","types":["restaurant","food","point_of_interest","establishment"],"user_ratings_total":275},{"business_status":"OPERATIONAL","formatted_address":"7 Anglesea St, Temple Bar, Dublin, D02 K376, Ireland","geometry":{"location":{"lat":53.3449778,"lng":-6.2619472},"viewport":{"northeast":{"lat":53.34628557989272,"lng":-6.260543170107277},"southwest":{"lat":53.34358592010727,"lng":-6.263242829892721}}},"icon":"https://maps.gstatic.com/mapfiles/place_api/icons/v1/png_71/restaurant-71.png","icon_background_color":"#FF9E67","icon_mask_base_uri":"https://maps.gstatic.com/mapfiles/place_api/icons/v2/restaurant_pinlet","name":"Mongolian Barbeque","opening_hours":{"open_now":false},"photos":[{"height":3480,"html_attributions":["<a href=\"https://maps.google.com/maps/contrib/116553357918182951594\">Roeland Watteeuw</a>"],"photo_reference":"AeJbb3dnHMCYyHBZ9C2wnwIJfShQ4f7uEqcYEk7DHfnjoSP8j35UdenkUk2jyXTJtAWTpcX5FRHhrkGz8TTNKAEtIinAj8wR7LWr7EvYSwDuWFQo5sBxocfBrdSxNzeXqbyRLrkS2biz3PjNL9JDoQIZABNb1-TM6ORJndeS3Oi_mJg0nRA8","width":4640}],"place_id":"ChIJmwT4rpwOZ0gRODNIA5Wrng8","plus_code":{"compound_code":"8PVQ+X6 Dublin, Ireland","global_code":"9C5M8PVQ+X6"},"price_level":1,"rating":4.5,"reference":"ChIJmwT4rpwOZ0gRODNIA5Wrng8","types":["restaurant","food","point_of_interest","establishment"],"user_ratings_total":2329},{"business_status":"OPERATIONAL","formatted_address":"Altendorfer Str. 3a, 45127 Essen, Germany","geometry":{"location":{"lat":51.45869889999999,"lng":7.001242},"viewport":{"northeast":{"lat":51.46012177989272,"lng":7.002539079892721},"southwest":{"lat":51.45742212010727,"lng":6.999839420107278}}},"icon":"https://maps.gstatic.com/mapfiles/place_api/icons/v1/png_71/restaurant-71.png","icon_background_color":"#FF9E67","icon_mask_base_uri":"https://maps.gstatic.com/mapfiles/place_api/icons/v2/restaurant_pinlet","name":"Mongo's Restaurant Essen","opening_hours":{"open_now":false},"photos":[{"height":1536,"html_attributions":["<a href=\"https://maps.google.com/maps/contrib/103819965142360016765\">Donald Polak</a>"],"photo_reference":"AeJbb3f0PQ_l9blGbUsXZhbcjQ23N4mFqebHiPeWEgEn2xr4nkx_Ys_vHqEj-DLxCQX1fF7QQq2-qE3-AFR_tpbkoTXQ_pa3XzgwdthWv4dRKu6pKVwmMY5uCUx5XzSl1K2kJHkObxNAXrfB13X5eZMV7kbT6f_X2vQ8FOKVVD7ngrvCqG_U","width":2048}],"place_id":"ChIJharlVLnCuEcRsSqXktNiEG4","plus_code":{"compound_code":"F252+FF Essen, Germany","global_code":"9F39F252+FF"},"price_level":2,"rating":4.5,"reference":"ChIJharlVLnCuEcRsSqXktNiEG4","types":["restaurant","food","point_of_interest","establishment"],"user_ratings_total":1181},{"business_status":"OPERATIONAL","formatted_address":"1415 N Lacrosse St #1, Rapid City, SD 57701, United States","geometry":{"location":{"lat":44.0995442,"lng":-103.2023092},"viewport":{"northeast":{"lat":44.10095942989273,"lng":-103.2007742701073},"southwest":{"lat":44.09825977010728,"lng":-103.2034739298927}}},"icon":"https://maps.gstatic.com/mapfiles/place_api/icons/v1/png_71/restaurant-71.png","icon_background_color":"#FF9E67","icon_mask_base_uri":"https://maps.gstatic.com/mapfiles/place_api/icons/v2/restaurant_pinlet","name":"Mongolian Grill","opening_hours":{"open_now":false},"photos":[{"height":1358,"html_attributions":["<a href=\"https://maps.google.com/maps/contrib/111256558658600171443\">Jason Strickland</a>"],"photo_reference":"AeJbb3c3dTDl57Y63jc5ILwB3dUr6twBRwLt9eeabPNbPPUY_q0m5WnJldnA1AY15XzyNywIpxhYVtJu_PZQX2QXmGBYTkJ85tqbraFPTUMnMbKVtlM2dTx410crIVGXdSU7KRFl05Je9ZZbD4gySEYbfTL9iiIqUrLvCG7J27P54hXxguIK","width":1965}],"place_id":"ChIJVWArgT5dfYcRuYQEhxAO-b8","plus_code":{"compound_code":"3QXX+R2 Rapid City, South Dakota, USA","global_code":"85PR3QXX+R2"},"price_level":1,"rating":4.5,"reference":"ChIJVWArgT5dfYcRuYQEhxAO-b8","types":["bar","restaurant","food","point_of_interest","establishment"],"user_ratings_total":1140},{"business_status":"OPERATIONAL","formatted_address":"11334 Fourth St Ste 103, Rancho Cucamonga, CA 91730, United States","geometry":{"location":{"lat":34.0777695,"lng":-117.5574488},"viewport":{"northeast":{"lat":34.07912257989272,"lng":-117.5560432701073},"southwest":{"lat":34.07642292010728,"lng":-117.5587429298927}}},"icon":"https://maps.gstatic.com/mapfiles/place_api/icons/v1/png_71/restaurant-71.png","icon_background_color":"#FF9E67","icon_mask_base_uri":"https://maps.gstatic.com/mapfiles/place_api/icons/v2/restaurant_pinlet","name":"Big Wok Mongolian Grill BWRC","opening_hours":{"open_now":false},"photos":[{"height":3024,"html_attributions":["<a href=\"https://maps.google.com/maps/contrib/104041238139837595378\">James Westley</a>"],"photo_reference":"AeJbb3flVtbnRQq5A9WCzVA6L0miCc-0_QrteiUINLHADdzoJafix0X1eKvC4Ggl6pH0OCKFijK9mKJA6WEF7PrifBCoG9lrtfOMxqWqZQU1ryRAWAGGtyFf9keWyDzqr7DInRU-Zm1YrNs_vfPJ09RqZip2IFYFwn9Pto3Nzz1ZTv_Aeoh_","width":4032}],"place_id":"ChIJsaLQdoQ1w4ARxf9oC0n0agw","plus_code":{"compound_code":"3CHV+32 Rancho Cucamonga, California, USA","global_code":"85643CHV+32"},"price_level":1,"rating":4.5,"reference":"ChIJsaLQdoQ1w4ARxf9oC0n0agw","types":["restaurant","food","point_of_interest","establishment"],"user_ratings_total":1037},{"business_status":"OPERATIONAL","formatted_address":"17440 W Grand Pkwy S, Sugar Land, TX 77479, United States","geometry":{"location":{"lat":29.564164,"lng":-95.68749079999999},"viewport":{"northeast":{"lat":29.56554607989273,"lng":-95.68618472010729},"southwest":{"lat":29.56284642010729,"lng":-95.68888437989273}}},"icon":"https://maps.gstatic.com/mapfiles/place_api/icons/v1/png_71/restaurant-71.png","icon_background_color":"#FF9E67","icon_mask_base_uri":"https://maps.gstatic.com/mapfiles/place_api/icons/v2/restaurant_pinlet","name":"Hot Bowl Mongolian Grill","opening_hours":{"open_now":false},"photos":[{"height":1440,"html_attributions":["<a href=\"https://maps.google.com/maps/contrib/100112757252994921681\">Bitarius B</a>"],"photo_reference":"AeJbb3fF1DqjLr3YVNqklT8mf7tki4MaHmZFZvxbUzRrvkyk2AwUdSv5Sr9TR6QUolcHFlHDKk7YAuODmoo22nsq9q0YpIBSI8y5Ls9pFbLZL5U5MMabkzdUQL-Njmi5djQL5obfMlUMbMPC-W_lSIddEOnNWF5z153CI34KrhfpnCGwBMfZ","width":2560}],"place_id":"ChIJIxi2wtLjQIYREFo7NbqQfeQ","plus_code":{"compound_code":"H877+M2 Sugar Land, Texas, USA","global_code":"76X6H877+M2"},"price_level":1,"rating":4.5,"reference":"ChIJIxi2wtLjQIYREFo7NbqQfeQ","types":["restaurant","food","point_of_interest","establishment"],"user_ratings_total":522},{"business_status":"OPERATIONAL","formatted_address":"33 Rue François Miron, 75004 Paris","geometry":{"location":{"lat":48.85556829999999,"lng":2.3582543},"viewport":{"northeast":{"lat":48.85689827989273,"lng":2.359578479892722},"southwest":{"lat":48.85419862010728,"lng":2.356878820107277}}},"icon":"https://maps.gstatic.com/mapfiles/place_api/icons/v1/png_71/restaurant-71.png","icon_background_color":"#FF9E67","icon_mask_base_uri":"https://maps.gstatic.com/mapfiles/place_api/icons/v2/restaurant_pinlet","name":"Tamarind Thai Restaurant","opening_hours":{"open_now":false},"photos":[{"height":681,"html_attributions":["<a href=\"https://maps.google.com/maps/contrib/103119284925775976954\">Benoit Labarre</a>"],"photo_reference":"AeJbb3f-OabQKnUL3U0aoWgJ4SZcI3n5zEjZPidC9eEfoWKMJxF39hz92lam8VTx_oKXY8biAYp_oTWRC9A5_DioXmlhBSiQWR59eUVUpYATW0waNrOGQjWQtocaK7x4eNYl020e2z_zyKYUkiXRz7ACVOtp37IKhfGKXK9zDjUOGW3dPULY","width":1024}],"place_id":"ChIJiQ4Cef1x5kcR7EA1H8zkUyQ","plus_code":{"compound_code":"V945+68 Paris","global_code":"8FW4V945+68"},"price_level":2,"rating":4.5,"reference":"ChIJiQ4Cef1x5kcR7EA1H8zkUyQ","types":["restaurant","food","point_of_interest","establishment"],"user_ratings_total":389},{"business_status":"OPERATIONAL","formatted_address":"12710 W I-10, San Antonio, TX 78230, United States","geometry":{"location":{"lat":29.5613164,"lng":-98.5919775},"viewport":{"northeast":{"lat":29.56278742989272,"lng":-98.59046772010727},"southwest":{"lat":29.56008777010727,"lng":-98.59316737989272}}},"icon":"https://maps.gstatic.com/mapfiles/place_api/icons/v1/png_71/restaurant-71.png","icon_background_color":"#FF9E67","icon_mask_base_uri":"https://maps.gstatic.com/mapfiles/place_api/icons/v2/restaurant_pinlet","name":"HuHot Mongolian Grill","opening_hours":{"open_now":false},"photos":[{"height":2304,"html_attributions":["<a href=\"https://maps.google.com/maps/contrib/109835819928915923783\">Ajesh J S</a>"],"photo_reference":"AeJbb3fs8gG1BdlCEUCQzVVowsRewANdvpOhC2Uclb3ag_v8zDDG1lei98pDjpfvWcuFHi8xro1v6x4MtMFRL-Zl8mymIBGjcaLvpGQ7pPgFCbc14PsmcPM7meiUJnoIFkZoGZ2UEWnHnSoB6Xt-pD2TCdwwsZQGnCgA5dso9QRyYFM5EZd8","width":4608}],"place_id":"ChIJ3cDbYN5mXIYRjm0A_5_qwhQ","plus_code":{"compound_code":"HC65+G6 San Antonio, Texas, USA","global_code":"76X3HC65+G6"},"price_level":2,"rating":4.4,"reference":"ChIJ3cDbYN5mXIYRjm0A_5_qwhQ","types":["restaurant","food","point_of_interest","establishment"],"user_ratings_total":2581},{"business_status":"OPERATIONAL","formatted_address":"5843 Constitution Ave, Colorado Springs, CO 80915, United States","geometry":{"location":{"lat":38.8695995,"lng":-104.7191745},"viewport":{"northeast":{"lat":38.87109752989272,"lng":-104.7178819201073},"southwest":{"lat":38.86839787010728,"lng":-104.7205815798927}}},"icon":"https://maps.gstatic.com/mapfiles/place_api/icons/v1/png_71/restaurant-71.png","icon_background_color":"#FF9E67","icon_mask_base_uri":"https://maps.gstatic.com/mapfiles/place_api/icons/v2/restaurant_pinlet","name":"HuHot Mongolian Grill","opening_hours":{"open_now":false},"photos":[{"height":2268,"html_attributions":["<a href=\"https://maps.google.com/maps/contrib/115303944816977142772\">Jacques van Zyl</a>"],"photo_reference":"AeJbb3d2RbrYOdh_YmIRUXj4kur8BgE0rEeilEim43bz0cAoBR0ImrN4ZDrT0-7CKtzE9sKEFJrBhAsgoV1KuzwQ_Fw4wKeBBbRFI0AYjy7WDtU7L3TwreIPaJXbu4UMOvwNho82uCOYFARpx1qK00Y7OeBrv8eGaVFZQHnZE8SHyrPwGhaZ","width":4032}],"place_id":"ChIJkx6KpiVGE4cRqU_Zw2yafhI","plus_code":{"compound_code":"V79J+R8 Colorado Springs, Colorado, USA","global_code":"85CQV79J+R8"},"price_level":2,"rating":4.4,"reference":"ChIJkx6KpiVGE4cRqU_Zw2yafhI","types":["restaurant","food","point_of_interest","establishment"],"user_ratings_total":2103},{"business_status":"OPERATIONAL","formatted_address":"11836 W 95th St, Overland Park, KS 66214, United States","geometry":{"location":{"lat":38.956971,"lng":-94.7229016},"viewport":{"northeast":{"lat":38.95823482989272,"lng":-94.72155387010727},"southwest":{"lat":38.95553517010728,"lng":-94.72425352989272}}},"icon":"https://maps.gstatic.com/mapfiles/place_api/icons/v1/png_71/restaurant-71.png","icon_background_color":"#FF9E67","icon_mask_base_uri":"https://maps.gstatic.com/mapfiles/place_api/icons/v2/restaurant_pinlet","name":"BD's Mongolian Grill","opening_hours":{"open_now":false},"photos":[{"height":2560,"html_attributions":["<a href=\"https://maps.google.com/maps/contrib/106388338978165867884\">Joshua Davis</a>"],"photo_reference":"AeJbb3cwleEnmXTO2yYLK3f-Xu5EdJR9qTN1Uosrilu_kblJVZzjJP6nFAyBm1Fh6SfHvU8I6HVtr8iLJD2O0xCA3XQSXGTtKCUxPQeBVZVpVYkT5k1F4Aw0R-NPvIJlxFZiKZHEnNgRa-PghiMnbxOxbccK3_YYcmAuK7VCpd4iY4UMEgmJ","width":1920}],"place_id":"ChIJSzWeL0rrwIcRjrm0McYmusE","plus_code":{"compound_code":"X74G+QR Overland Park, Kansas, USA","global_code":"86C7X74G+QR"},"price_level":2,"rating":4.4,"reference":"ChIJSzWeL0rrwIcRjrm0McYmusE","types":["restaurant","food","point_of_interest","establishment"],"user_ratings_total":1940},{"business_status":"OPERATIONAL","formatted_address":"12675 Olive Blvd, St. Louis, MO 63141, United States","geometry":{"location":{"lat":38.6794446,"lng":-90.46907279999999},"viewport":{"northeast":{"lat":38.68069567989272,"lng":-90.46781757010729},"southwest":{"lat":38.67799602010728,"lng":-90.47051722989272}}},"icon":"https://maps.gstatic.com/mapfiles/place_api/icons/v1/png_71/restaurant-71.png","icon_background_color":"#FF9E67","icon_mask_base_uri":"https://maps.gstatic.com/mapfiles/place_api/icons/v2/restaurant_pinlet","name":"HuHot Mongolian Grill","opening_hours":{"open_now":false},"photos":[{"height":3024,"html_attributions":["<a href=\"https://maps.google.com/maps/contrib/108018417411653459884\">Julie Vaughn</a>"],"photo_reference":"AeJbb3frhbruOJb_LEyg3psg6zxNTMd-sNokEdV62ft8hTiI8wmT0ucQ4rZ41Ngpd_R_jesmks-HuWGUWz_O0vh32I_PK3g0a2xN-JfkdoVLDuDihqV9Bq_tSxzTbkPGfHKIvmkDCajpos1rs3A-a4ckEaG-MXDnFnk7vp_dRIok2AFf6Y4T","width":4032}],"place_id":"ChIJgeNivBMt34cRbM8Opf-VBTQ","plus_code":{"compound_code":"MGHJ+Q9 St. Louis, Missouri, USA","global_code":"86CFMGHJ+Q9"},"price_level":2,"rating":4.4,"reference":"ChIJgeNivBMt34cRbM8Opf-VBTQ","types":["restaurant","food","point_of_interest","establishment"],"user_ratings_total":1683},{"business_status":"OPERATIONAL","formatted_address":"110 Wisconsin Dells Pkwy, Lake Delton, WI 53940, United States","geometry":{"location":{"lat":43.5905031,"lng":-89.7935342},"viewport":{"northeast":{"lat":43.59180257989271,"lng":-89.79218562010728},"southwest":{"lat":43.58910292010727,"lng":-89.79488527989272}}},"icon":"https://maps.gstatic.com/mapfiles/place_api/icons/v1/png_71/restaurant-71.png","icon_background_color":"#FF9E67","icon_mask_base_uri":"https://maps.gstatic.com/mapfiles/place_api/icons/v2/restaurant_pinlet","name":"HuHot Mongolian Grill","opening_hours":{"open_now":false},"photos":[{"height":1960,"html_attributions":["<a href=\"https://maps.google.com/maps/contrib/115782952800118031412\">Jennifer Masch</a>"],"photo_reference":"AeJbb3e7zeJHBI_d1mePKvwbALkWsAiDdCwLYsyPlzgeIAkTVDIx74O9iaQFzZsKnDehlyHxQH0fsybJ9qCBTi4YKKPsQPEGtTWaChBO20W3ugYcC8DjDuBieVI-FRUC6WAB4I7dn2iVmc4aDiagJDK4YaWxs32ei1VvsXroKiDssurzTadh","width":4032}],"place_id":"ChIJ87rQ6TdEB4gR6HIz4OIUbc8","plus_code":{"compound_code":"H6R4+6H Lake Delton, Wisconsin, USA","global_code":"86MGH6R4+6H"},"price_level":2,"rating":4.4,"reference":"ChIJ87rQ6TdEB4gR6HIz4OIUbc8","types":["restaurant","food","point_of_interest","establishment"],"user_ratings_total":1676},{"business_status":"OPERATIONAL","formatted_address":"11324 N Community House Rd #10, Charlotte, NC 28277, United States","geometry":{"location":{"lat":35.0553918,"lng":-80.8350931},"viewport":{"northeast":{"lat":35.05682062989272,"lng":-80.83367922010727},"southwest":{"lat":35.05412097010728,"lng":-80.83637887989272}}},"icon":"https://maps.gstatic.com/mapfiles/place_api/icons/v1/png_71/restaurant-71.png","icon_background_color":"#FF9E67","icon_mask_base_uri":"https://maps.gstatic.com/mapfiles/place_api/icons/v2/restaurant_pinlet","name":"Genghis Grill","opening_hours":{"open_now":false},"photos":[{"height":5312,"html_attributions":["<a href=\"https://maps.google.com/maps/contrib/112264876645314765192\">Twan Thurman</a>"],"photo_reference":"AeJbb3dejQjpQQwO9dqzTeER23qIXdA3kYrUIL-PZxyM_0utJVRVjvS6CmiRdFiaza-B0RnAIlWze96o8Yb-vf_Rf8P-jz1lRbzfzZLxSyO79WoHtwjY0iFqkPKfTWyY90g8j3Nrzz_4wtog0d1DD_2BCzCt8nN9wmY3oaiY2Gfajws2rKhL","width":2988}],"place_id":"ChIJbQSrMzidVogRnsPiph3ZlPA","plus_code":{"compound_code":"3547+4X Charlotte, North Carolina, USA","global_code":"867X3547+4X"},"price_level":2,"rating":4.4,"reference":"ChIJbQSrMzidVogRnsPiph3ZlPA","types":["bar","restaurant","food","point_of_interest","establishment"],"user_ratings_total":1434},{"business_status":"OPERATIONAL","formatted_address":"3906 Bell St, Kansas City, MO 64111, United States","geometry":{"location":{"lat":39.0568709,"lng":-94.60626069999999},"viewport":{"northeast":{"lat":39.05821957989272,"lng":-94.60488387010729},"southwest":{"lat":39.05551992010728,"lng":-94.60758352989272}}},"icon":"https://maps.gstatic.com/mapfiles/place_api/icons/v1/png_71/restaurant-71.png","icon_background_color":"#FF9E67","icon_mask_base_uri":"https://maps.gstatic.com/mapfiles/place_api/icons/v2/restaurant_pinlet","name":"Genghis Khan Mongolian Grill","opening_hours":{"open_now":false},"photos":[{"height":3024,"html_attributions":["<a href=\"https://maps.google.com/maps/contrib/113506157071710737213\">Benton Boice</a>"],"photo_reference":"AeJbb3fFkqRcULwb7ibtW0--M2hWqlSrZFAmOKnq1o0JHldWZIvPiz0kSJjjXKAvYNxKA_9-HvjAuMqFkxIV3kPN_ThhQ9z5ItKr4-2P8tisTAA7aKagayMJLQUVYt9Gucnf7zHiJOlSHpLz4my0BjMC5ZFRAU_rV7I9Szj7FKub22822SYf","width":4032}],"place_id":"ChIJqQ4n9SzuwIcRkXuoLLgQhFI","plus_code":{"compound_code":"394V+PF Kansas City, Missouri, USA","global_code":"86F7394V+PF"},"price_level":2,"rating":4.4,"reference":"ChIJqQ4n9SzuwIcRkXuoLLgQhFI","types":["restaurant","food","point_of_interest","establishment"],"user_ratings_total":1325},{"business_status":"OPERATIONAL","formatted_address":"18925 SE McLoughlin Blvd, Portland, OR 97267, United States","geometry":{"location":{"lat":45.3857186,"lng":-122.6090061},"viewport":{"northeast":{"lat":45.38712967989272,"lng":-122.6075690201073},"southwest":{"lat":45.38443002010728,"lng":-122.6102686798927}}},"icon":"https://maps.gstatic.com/mapfiles/place_api/icons/v1/png_71/restaurant-71.png","icon_background_color":"#FF9E67","icon_mask_base_uri":"https://maps.gstatic.com/mapfiles/place_api/icons/v2/restaurant_pinlet","name":"Chang's Mongolian Grill","opening_hours":{"open_now":false},"photos":[{"height":1920,"html_attributions":["<a href=\"https://maps.google.com/maps/contrib/101860558587457973006\">desha eaves</a>"],"photo_reference":"AeJbb3d89BhFJ0zdcx1C5InzpOomsEfT13ytQ9SbNdwtZo9pwyD4tuFPUfAuBaspNjOrqBoYFUL9PM4nEJ4X0J9kA0ySjPMEHLBiYXUwzX2HtpdAqxDkS6EkbKeRS9V3sC7i9Je-7VQUX3RUaR43AcXsaBLnk-R3t72YNGW2dCcTJmaBM1-e","width":960}],"place_id":"ChIJBdqeuB50lVQRvR_vl6UqLHQ","plus_code":{"compound_code":"99PR+79 Portland, Oregon, USA","global_code":"84QV99PR+79"},"price_level":2,"rating":4.4,"reference":"ChIJBdqeuB50lVQRvR_vl6UqLHQ","types":["restaurant","food","point_of_interest","establishment"],"user_ratings_total":1174},{"business_status":"OPERATIONAL","formatted_address":"2059 Witzel Ave, Oshkosh, WI 54904, United States","geometry":{"location":{"lat":44.01741639999999,"lng":-88.58581009999999},"viewport":{"northeast":{"lat":44.01882497989272,"lng":-88.58430742010728},"southwest":{"lat":44.01612532010728,"lng":-88.58700707989271}}},"icon":"https://maps.gstatic.com/mapfiles/place_api/icons/v1/png_71/restaurant-71.png","icon_background_color":"#FF9E67","icon_mask_base_uri":"https://maps.gstatic.com/mapfiles/place_api/icons/v2/restaurant_pinlet","name":"HuHot Mongolian Grill","opening_hours":{"open_now":false},"photos":[{"height":3024,"html_attributions":["<a href=\"https://maps.google.com/maps/contrib/114985606850724359564\">Lesley Hoffman</a>"],"photo_reference":"AeJbb3d1IqS4mgHQShmwnHoSm_GOFCo5_alVtWikkm2MWGYM7vkISwaWbCG764Z6dUAPzF4QK05ww-oEPqNDvlO6Qr-xc9kvneD6md7tlyXWBesXEV6OCXlRivCJ8ApOAx2QpjGKgifGaP8dbysglZaAOMHT4fiV90__Bbn9nBy0k-2LSnA3","width":4032}],"place_id":"ChIJX1hWIS7pA4gRFqQ0BY-0VpU","plus_code":{"compound_code":"2C87+XM Oshkosh, Wisconsin, USA","global_code":"86PH2C87+XM"},"price_level":2,"rating":4.4,"reference":"ChIJX1hWIS7pA4gRFqQ0BY-0VpU","types":["restaurant","food","point_of_interest","establishment"],"user_ratings_total":1069},{"business_status":"OPERATIONAL","formatted_address":"7001 Manchester Blvd, Alexandria, VA 22310, United States","geometry":{"location":{"lat":38.7668257,"lng":-77.1545793},"viewport":{"northeast":{"lat":38.76819157989272,"lng":-77.15337367010727},"southwest":{"lat":38.76549192010727,"lng":-77.15607332989272}}},"icon":"https://maps.gstatic.com/mapfiles/place_api/icons/v1/png_71/restaurant-71.png","icon_background_color":"#FF9E67","icon_mask_base_uri":"https://maps.gstatic.com/mapfiles/place_api/icons/v2/restaurant_pinlet","name":"Genghis Grill","opening_hours":{"open_now":false},"photos":[{"height":2988,"html_attributions":["<a href=\"https://maps.google.com/maps/contrib/105491962620880850405\">V Hok</a>"],"photo_reference":"AeJbb3d7KJTiLytLlS3v78EPPimEYcLKXTKgYKJdIYSQ_y8eIM7slwLHZ3lawtj9dGAQP_6UYfJBcen5JuFu2jUBE78A994Pxywp7XPwuqklotCcMfK-food4VZBmwfbJxRAn5viVMGx3cUVqxpxCtayTjKwyyY23elMS64FrEOfbsrpXMgT","width":5312}],"place_id":"ChIJc8t5UHett4kRx7LC_lIvQiU","plus_code":{"compound_code":"QR8W+P5 Alexandria, Virginia, USA","global_code":"87C4QR8W+P5"},"price_level":2,"rating":4.4,"reference":"ChIJc8t5UHett4kRx7LC_lIvQiU","types":["bar","restaurant","food","point_of_interest","establishment"],"user_ratings_total":853},{"business_status":"OPERATIONAL","formatted_address":"Av. Ámsterdam, 38650 Los Cristianos, Santa Cruz de Tenerife, Spain","geometry":{"location":{"lat":28.051141,"lng":-16.7081119},"viewport":{"northeast":{"lat":28.05242687989272,"lng":-16.70684282010728},"southwest":{"lat":28.04972722010728,"lng":-16.70954247989272}}},"icon":"https://maps.gstatic.com/mapfiles/place_api/icons/v1/png_71/restaurant-71.png","icon_background_color":"#FF9E67","icon_mask_base_uri":"https://maps.gstatic.com/mapfiles/place_api/icons/v2/restaurant_pinlet","name":"Mongolian BBQ Restaurant","opening_hours":{"open_now":false},"photos":[{"height":1365,"html_attributions":["<a href=\"https://maps.google.com/maps/contrib/107725138044480551511\">Paul Lakin</a>"],"photo_reference":"AeJbb3dHTYgrnavvV7zoE8MOT23p_Kdghx_PcIQRgPzVMF30n-zKDeXpPXXP4f4wOxsGXu1q1qHZ0qL4Iu2NwcwRCjgyB7mRw19jmHHbQ8n_94sj5Qi7An59Is_ZbcGvpkhWAPM7kcVXR92FGNlnQTPjV-Qt9su8ee8QEA9_tv5dPMHe2F-2","width":2048}],"place_id":"ChIJJ4aXrzOYagwRP24n2ldt9Zg","plus_code":{"compound_code":"372R+FQ Los Cristianos, Spain","global_code":"7CW5372R+FQ"},"price_level":2,"rating":4.4,"reference":"ChIJJ4aXrzOYagwRP24n2ldt9Zg","types":["restaurant","food","point_of_interest","establishment"],"user_ratings_total":790},{"business_status":"OPERATIONAL","formatted_address":"Store Rådhusgade 13, 6400 Sønderborg, Denmark","geometry":{"location":{"lat":54.908474,"lng":9.7882529},"viewport":{"northeast":{"lat":54.90988192989273,"lng":9.789157679892721},"southwest":{"lat":54.90718227010728,"lng":9.786458020107277}}},"icon":"https://maps.gstatic.com/mapfiles/place_api/icons/v1/png_71/restaurant-71.png","icon_background_color":"#FF9E67","icon_mask_base_uri":"https://maps.gstatic.com/mapfiles/place_api/icons/v2/restaurant_pinlet","name":"Mongolian Barbecue","opening_hours":{"open_now":false},"photos":[{"height":5312,"html_attributions":["<a href=\"https://maps.google.com/maps/contrib/112747944702078020363\">Anja Madsen</a>"],"photo_reference":"AeJbb3d_JCQFjsWk_cXh4aobQAKxhQEn2rSITYMUi53vgm2mT2UIGIpdjq7bnSudt_DoMRWbZZFUMB9XceZMzv9SI3DkbUKwr_pelu4BiV2yj2RpPvJ7FZ8Kiijjqhf-y1jr_OUBJemMuOTIK4-9hrUL7y3bMniftIjb9ExxpyACimkBWoko","width":2988}],"place_id":"ChIJr1wNxMI5s0cR0r4n3sr1sKg","plus_code":{"compound_code":"WQ5Q+98 Sønderborg, Denmark","global_code":"9F6FWQ5Q+98"},"price_level":2,"rating":4.4,"reference":"ChIJr1wNxMI5s0cR0r4n3sr1sKg","types":["restaurant","food","point_of_interest","establishment"],"user_ratings_total":703},{"business_status":"OPERATIONAL","formatted_address":"1035 E Brokaw Rd #20, San Jose, CA 95131, United States","geometry":{"location":{"lat":37.3836974,"lng":-121.8984091},"viewport":{"northeast":{"lat":37.38502577989271,"lng":-121.8969569201073},"southwest":{"lat":37.38232612010727,"lng":-121.8996565798927}}},"icon":"https://maps.gstatic.com/mapfiles/place_api/icons/v1/png_71/restaurant-71.png","icon_background_color":"#FF9E67","icon_mask_base_uri":"https://maps.gstatic.com/mapfiles/place_api/icons/v2/restaurant_pinlet","name":"Gobi Mongolian Grill","opening_hours":{"open_now":false},"photos":[{"height":3024,"html_attributions":["<a href=\"https://maps.google.com/maps/contrib/111346001528108539564\">Reed Chavez</a>"],"photo_reference":"AeJbb3ek1ODHtQaecL1kkUGuJur8pWgEZmnzGKo4fPvLdJFOcNr_KxgCCcwMbysUhFz3SYXK8m4-GgVCff-YHLMjhYx8mI_bazDXx7FZMx0Q3PSJSDdHC5nKxXkSe3NGrdMpPsV-PYG1Uk107VzZVy7yvL0JoXNwuI_0Uz8BRFzlUk81t0-R","width":4032}],"place_id":"ChIJKQRq8wjMj4ARrulnLyheRn8","plus_code":{"compound_code":"94M2+FJ San Jose, California, USA","global_code":"849W94M2+FJ"},"price_level":1,"rating":4.4,"reference":"ChIJKQRq8wjMj4ARrulnLyheRn8","types":["restaurant","food","point_of_interest","establishment"],"user_ratings_total":648},{"business_status":"OPERATIONAL","formatted_address":"1111 El Camino Real, Santa Clara, CA 95050, United States","geometry":{"location":{"lat":37.3541702,"lng":-121.948945},"viewport":{"northeast":{"lat":37.35550232989272,"lng":-121.9475628201073},"southwest":{"lat":37.35280267010727,"lng":-121.9502624798927}}},"icon":"https://maps.gstatic.com/mapfiles/place_api/icons/v1/png_71/restaurant-71.png","icon_background_color":"#FF9E67","icon_mask_base_uri":"https://maps.gstatic.com/mapfiles/place_api/icons/v2/restaurant_pinlet","name":"Su's Mongolian Barbeque","opening_hours":{"open_now":false},"photos":[{"height":3024,"html_attributions":["<a href=\"https://maps.google.com/maps/contrib/105788972461867375691\">Daniel Moran</a>"],"photo_reference":"AeJbb3eot-7G3_tiFXK3lTmlU_JEAijfxKsrwTn4MbNi23GltO2V7TdfkeOiES_2k6lO8Tf99slFrPJJk3T24a-E6fD27vU1pFpS82Bmh_-SesyB0403wFerwBFLl1j-D82AxqzLQuxKAF3-6kMiDyyymcbZffdy5Nr6H5Vjf5OW3XKItnma","width":4032}],"place_id":"ChIJ350IlUzKj4ARVWeEwKotjaA","plus_code":{"compound_code":"9332+MC Santa Clara, California, USA","global_code":"849W9332+MC"},"price_level":1,"rating":4.4,"reference":"ChIJ350IlUzKj4ARVWeEwKotjaA","types":["restaurant","food","point_of_interest","establishment"],"user_ratings_total":619},{"business_status":"OPERATIONAL","formatted_address":"Könizbergstrasse 1, 3097 Liebefeld, Switzerland","geometry":{"location":{"lat":46.92889700000001,"lng":7.415755999999999},"viewport":{"northeast":{"lat":46.93018827989273,"lng":7.417238729892722},"southwest":{"lat":46.92748862010728,"lng":7.414539070107278}}},"icon":"https://maps.gstatic.com/mapfiles/place_api/icons/v1/png_71/restaurant-71.png","icon_background_color":"#FF9E67","icon_mask_base_uri":"https://maps.gstatic.com/mapfiles/place_api/icons/v2/restaurant_pinlet","name":"Dschingis Mongolian Barbecue","opening_hours":{"open_now":false},"photos":[{"height":4032,"html_attributions":["<a href=\"https://maps.google.com/maps/contrib/112530240331631041118\">Stefan Heinze</a>"],"photo_reference":"AeJbb3fyE9o-7lEgSYQplUzYQcuASIZZu1mWuRWqSHH0FUkdGlp7wi83GT3Oouf4xOrkOl4qngjR835XmBAgSUi6Tyv6YcyWyMt0Ln5q0XoZ0taLsJ6fTo1J_EyQGIGoTql0OZHNaXu8Ne5V2Nz4Xp38NzLqoUw7lZXmQTRiAkY4zvJC5hr6","width":3024}],"place_id":"ChIJp-A5Q1Y4jkcRQr5zdMsaqyI","plus_code":{"compound_code":"WCH8+H8 Liebefeld, Switzerland","global_code":"8FR9WCH8+H8"},"price_level":2,"rating":4.4,"reference":"ChIJp-A5Q1Y4jkcRQr5zdMsaqyI","types":["restaurant","food","point_of_interest","establishment"],"user_ratings_total":617},{"business_status":"OPERATIONAL","formatted_address":"21212 Kuykendahl Rd, Spring, TX 77379, United States","geometry":{"location":{"lat":30.0773267,"lng":-95.51499799999999},"viewport":{"northeast":{"lat":30.07848772989272,"lng":-95.51350837010727},"southwest":{"lat":30.07578807010727,"lng":-95.51620802989271}}},"icon":"https://maps.gstatic.com/mapfiles/place_api/icons/v1/png_71/restaurant-71.png","icon_background_color":"#FF9E67","icon_mask_base_uri":"https://maps.gstatic.com/mapfiles/place_api/icons/v2/restaurant_pinlet","name":"Wacky Mongolian Grill","opening_hours":{"open_now":false},"photos":[{"height":3648,"html_attributions":["<a href=\"https://maps.google.com/maps/contrib/108216533644653044189\">A Google User</a>"],"photo_reference":"AeJbb3dUwUrRyjqfio3SOqunhz4ei8pPJC_evHwF8fpUZIl5T9ttbCiAi9HOLddVGX_94MBir07m_PxbPlXEUpg-GZoT3OSEDMaJzeE-vjz80zX9ORmjpp9DSm_AECTNXhc-Q-drVlvzw5jkCwc2SX9EFva77mze6HHTSYzFO8OafP4huzqs","width":2736}],"place_id":"ChIJzQB7kxwzR4YRUWzSSH0T2_0","plus_code":{"compound_code":"3FGM+WX Spring, Texas, USA","global_code":"86263FGM+WX"},"price_level":1,"rating":4.4,"reference":"ChIJzQB7kxwzR4YRUWzSSH0T2_0","types":["meal_takeaway","restaurant","food","point_of_interest","establishment"],"user_ratings_total":549},{"business_status":"OPERATIONAL","formatted_address":"Springvandspladsen 5 A, 9800 Hjørring, Denmark","geometry":{"location":{"lat":57.4599621,"lng":9.9860262},"viewport":{"northeast":{"lat":57.46131127989273,"lng":9.987586379892722},"southwest":{"lat":57.45861162010728,"lng":9.984886720107278}}},"icon":"https://maps.gstatic.com/mapfiles/place_api/icons/v1/png_71/restaurant-71.png","icon_background_color":"#FF9E67","icon_mask_base_uri":"https://maps.gstatic.com/mapfiles/place_api/icons/v2/restaurant_pinlet","name":"Djengis Khan Mongolian Barbecue","opening_hours":{"open_now":false},"photos":[{"height":3648,"html_attributions":["<a href=\"https://maps.google.com/maps/contrib/108232959216849415158\">A Google User</a>"],"photo_reference":"AeJbb3c0_qjeajSPNEv-Uub3sG7yOmKuF2DjTNzGyCi5nmaFfBZoxWDMhhJYvHS7ckHBzHiyED1Gk0ItDxM52TUhjpGwxlL-DT2O0ZePZEBEfNjn1nyTVXVU3nxpq5fenQZJnjp-6IOBegrGrik5SYTxlyYhubYwg-IgsAw8IVCu9sj1Akx4","width":5472}],"place_id":"ChIJd0QyO7ZJ6EMR37ZtZoB4nt0","plus_code":{"compound_code":"FX5P+XC Hjørring, Denmark","global_code":"9F9FFX5P+XC"},"price_level":2,"rating":4.4,"reference":"ChIJd0QyO7ZJ6EMR37ZtZoB4nt0","types":["restaurant","food","point_of_interest","establishment"],"user_ratings_total":447},{"business_status":"OPERATIONAL","formatted_address":"Via San Gian 23, 7500 St. Moritz, Switzerland","geometry":{"location":{"lat":46.484637,"lng":9.8346055},"viewport":{"northeast":{"lat":46.48604917989272,"lng":9.835972779892721},"southwest":{"lat":46.48334952010728,"lng":9.833273120107277}}},"icon":"https://maps.gstatic.com/mapfiles/place_api/icons/v1/png_71/restaurant-71.png","icon_background_color":"#FF9E67","icon_mask_base_uri":"https://maps.gstatic.com/mapfiles/place_api/icons/v2/restaurant_pinlet","name":"The Royal Mongolian Restaurant","photos":[{"height":3840,"html_attributions":["<a href=\"https://maps.google.com/maps/contrib/115703912062146902567\">A Google User</a>"],"photo_reference":"AeJbb3ej8mQgiAPdozzKzq6dtexVePaEmM2Qe8g4k6qkeVeDaapz30nmA6XTAmKNpydLIJQZQWyyRFeLWb8W0QOuBe3mXPa2HBhjk7HGabssVS2fGxH26HJKrUoZZ6uxvdDR6DUGzEjCbVDq5gpilNHZWdPNzZYIr9AQeEUvw89G5tMQH8f8","width":5760}],"place_id":"ChIJH4Bsa8N9g0cRCdhG3yQaBNw","plus_code":{"compound_code":"FRMM+VR St Moritz, Switzerland","global_code":"8FRFFRMM+VR"},"rating":4.4,"reference":"ChIJH4Bsa8N9g0cRCdhG3yQaBNw","types":["restaurant","food","point_of_interest","establishment"],"user_ratings_total":37},{"business_status":"OPERATIONAL","formatted_address":"1620 Wazee St, Denver, CO 80202, United States","geometry":{"location":{"lat":39.7513383,"lng":-104.9994041},"viewport":{"northeast":{"lat":39.75276792989272,"lng":-104.9981893701073},"southwest":{"lat":39.75006827010728,"lng":-105.0008890298927}}},"icon":"https://maps.gstatic.com/mapfiles/place_api/icons/v1/png_71/restaurant-71.png","icon_background_color":"#FF9E67","icon_mask_base_uri":"https://maps.gstatic.com/mapfiles/place_api/icons/v2/restaurant_pinlet","name":"BD's Mongolian Grill","opening_hours":{"open_now":false},"photos":[{"height":3456,"html_attributions":["<a href=\"https://maps.google.com/maps/contrib/100599838125723054234\">BD&#39;s Mongolian Grill</a>"],"photo_reference":"AeJbb3f9mhO4MmLPMlx77vuhUP_VHDr4ceeP6-RqYaSnT1K23G_vsWXe1e3kbq9BhlCj0__eDVQFHsr2a-jLRShVdQCDtIWpwp5fGp3JxJ6Gy8LytnQUWs0Q701FIjxJ6zZBChEwjh5-mjTfmezJL_l-F47ko5yKi73SSvI4mctwtdxT2tKG","width":5184}],"place_id":"ChIJIwwzg8R4bIcR0k02y28L3is","plus_code":{"compound_code":"Q222+G6 Denver, Colorado, USA","global_code":"85FQQ222+G6"},"price_level":2,"rating":4.3,"reference":"ChIJIwwzg8R4bIcR0k02y28L3is","types":["restaurant","food","point_of_interest","establishment"],"user_ratings_total":1948},{"business_status":"OPERATIONAL","formatted_address":"1474 Town Center Dr, Lakeland, FL 33803, United States","geometry":{"location":{"lat":28.0002113,"lng":-81.9792624},"viewport":{"northeast":{"lat":28.00162677989272,"lng":-81.97800417010727},"southwest":{"lat":27.99892712010728,"lng":-81.98070382989272}}},"icon":"https://maps.gstatic.com/mapfiles/place_api/icons/v1/png_71/restaurant-71.png","icon_background_color":"#FF9E67","icon_mask_base_uri":"https://maps.gstatic.com/mapfiles/place_api/icons/v2/restaurant_pinlet","name":"BD's Mongolian Grill","opening_hours":{"open_now":false},"photos":[{"height":1536,"html_attributions":["<a href=\"https://maps.google.com/maps/contrib/118119762456703078831\">Rhapsaptoad</a>"],"photo_reference":"AeJbb3dq_tWjUuQjKnCXIbBVpAouEVau5XgxBWyKemRDbS0lCfay5ZfmsCDauQB15bzBJeBp7GKXZ0QXlt2GiFCbOS_DyJPGqx9_N2NV40Lls8TgGs_408OZgRzB6N8kBFm7KGaIA-ADximKo1iTHAIwcxZJKM-w0l2HK4y_ozF_m_Ro5hYK","width":2048}],"place_id":"ChIJY8h8PRQ53YgR0PrztPOxVzM","plus_code":{"compound_code":"222C+37 Lakeland, Florida, USA","global_code":"76WW222C+37"},"price_level":2,"rating":4.3,"reference":"ChIJY8h8PRQ53YgR0PrztPOxVzM","types":["restaurant","food","point_of_interest","establishment"],"user_ratings_total":1602},{"business_status":"OPERATIONAL","formatted_address":"249 S College Ave, Fort Collins, CO 80524, United States","geometry":{"location":{"lat":40.58455,"lng":-105.0773123},"viewport":{"northeast":{"lat":40.58591962989272,"lng":-105.0758824201073},"southwest":{"lat":40.58321997010727,"lng":-105.0785820798927}}},"icon":"https://maps.gstatic.com/mapfiles/place_api/icons/v1/png_71/restaurant-71.png","icon_background_color":"#FF9E67","icon_mask_base_uri":"https://maps.gstatic.com/mapfiles/place_api/icons/v2/restaurant_pinlet","name":"HuHot Mongolian Grill","opening_hours":{"open_now":false},"photos":[{"height":2988,"html_attributions":["<a href=\"https://maps.google.com/maps/contrib/105724758319776487329\">KARAN MANHAS</a>"],"photo_reference":"AeJbb3cmb5NUGZs7a5mXNgMKR7dnqVLkvu4L4ImaPMiLBZY9BElPlz8Cn8fSXuzcgxvxTJ22h51prSlXGwn4N6bKjosi1FVrouB9NTSj0lFrqWH4UgFeBqMopOZl2cu9eeMtGG6DaFQ30pggtrDpnx-GG3VYSZaglxMf4mL16kRx2T0MG3EO","width":5312}],"place_id":"ChIJQ8SoCfVKaYcR-96CVDvdoXQ","plus_code":{"compound_code":"HWMF+R3 Fort Collins, Colorado, USA","global_code":"85GPHWMF+R3"},"price_level":2,"rating":4.3,"reference":"ChIJQ8SoCfVKaYcR-96CVDvdoXQ","types":["restaurant","food","point_of_interest","establishment"],"user_ratings_total":1320},{"business_status":"OPERATIONAL","formatted_address":"3698 S Natches Ct, Sheridan, CO 80110, United States","geometry":{"location":{"lat":39.6498291,"lng":-105.0036479},"viewport":{"northeast":{"lat":39.65122952989272,"lng":-105.0026466701073},"southwest":{"lat":39.64852987010728,"lng":-105.0053463298927}}},"icon":"https://maps.gstatic.com/mapfiles/place_api/icons/v1/png_71/restaurant-71.png","icon_background_color":"#FF9E67","icon_mask_base_uri":"https://maps.gstatic.com/mapfiles/place_api/icons/v2/restaurant_pinlet","name":"HuHot Mongolian Grill","opening_hours":{"open_now":false},"photos":[{"height":4032,"html_attributions":["<a href=\"https://maps.google.com/maps/contrib/105239848806570506363\">Kimber Workman</a>"],"photo_reference":"AeJbb3e-1obb1Ud54aiW13VeEDI5FMrmA8DVledUa6rwpE6rFQdqe7XLM24BKG1KC0zIGSD9Em3clUe8QSR1MPhpgRYAVXa3dkVM4uGv9sekpwC5QQWM6hs5Acbr2FYu_ITLWHf7XBvkU1vtFwuy213hFs7orthesxOypHr3V5d3nSfkJ2zs","width":3024}],"place_id":"ChIJSXuUF3SAbIcRhY8fohJ33n4","plus_code":{"compound_code":"JXXW+WG Sheridan, Colorado, USA","global_code":"85FPJXXW+WG"},"price_level":2,"rating":4.3,"reference":"ChIJSXuUF3SAbIcRhY8fohJ33n4","types":["restaurant","food","point_of_interest","establishment"],"user_ratings_total":1298},{"business_status":"OPERATIONAL","formatted_address":"1767 Wilma Rudolph Blvd suite A, Clarksville, TN 37040, United States","geometry":{"location":{"lat":36.5523796,"lng":-87.3254601},"viewport":{"northeast":{"lat":36.55399717989272,"lng":-87.32437892010726},"southwest":{"lat":36.55129752010728,"lng":-87.32707857989271}}},"icon":"https://maps.gstatic.com/mapfiles/place_api/icons/v1/png_71/restaurant-71.png","icon_background_color":"#FF9E67","icon_mask_base_uri":"https://maps.gstatic.com/mapfiles/place_api/icons/v2/restaurant_pinlet","name":"Bonfire mongolian grill","opening_hours":{"open_now":false},"photos":[{"height":4128,"html_attributions":["<a href=\"https://maps.google.com/maps/contrib/112752443095285605345\">Steve Roque</a>"],"photo_reference":"AeJbb3cFZYEyDiCriby-Y5TawbVggDMxa4KB8HXLO5mvW7SbDhNeUUm9bjZZKewqdwrEl9jkAm1K7NVnB0tBKQcCSUhRdZeO6z1qakoQpxjbc5sQ1o2w0JLg0y3hof_wM0LhBh5AhKIt02JMxWS3z15bnhHCmm6mwMQYKug9B7pg62rIRnjI","width":2322}],"place_id":"ChIJIQMjX-nYZIgRPEXV89CSzbU","plus_code":{"compound_code":"HM2F+XR Clarksville, Tennessee, USA","global_code":"868JHM2F+XR"},"price_level":2,"rating":4.3,"reference":"ChIJIQMjX-nYZIgRPEXV89CSzbU","types":["restaurant","food","point_of_interest","establishment"],"user_ratings_total":1297},{"business_status":"OPERATIONAL","formatted_address":"4136 S Carrier Pkwy, Grand Prairie, TX 75052, United States","geometry":{"location":{"lat":32.6717006,"lng":-97.007763},"viewport":{"northeast":{"lat":32.67304952989273,"lng":-97.00631247010729},"southwest":{"lat":32.67034987010729,"lng":-97.00901212989272}}},"icon":"https://maps.gstatic.com/mapfiles/place_api/icons/v1/png_71/restaurant-71.png","icon_background_color":"#FF9E67","icon_mask_base_uri":"https://maps.gstatic.com/mapfiles/place_api/icons/v2/restaurant_pinlet","name":"Ton's Mongolian Grill BBQ","opening_hours":{"open_now":false},"photos":[{"height":2988,"html_attributions":["<a href=\"https://maps.google.com/maps/contrib/112896888631450266478\">O S</a>"],"photo_reference":"AeJbb3ftnWhdWK8doOEGV_7G362CDEG5BH-49ySAkT-NiL_sOCfEihTTw-tuqD-uULH7WeR7Ra-rzYOqOzvQ5I8OVifRUsgaFlXEMQZZPyY-7QhOoqvFJ7XamtLQ8Eo1FbugtNKcOytFbjZT8KdXNiQio7PuICH5lCjh4IccPf7t_CO4zfCo","width":5312}],"place_id":"ChIJhZAkI82IToYRyTvb0H8dq9I","plus_code":{"compound_code":"MXCR+MV Grand Prairie, Texas, USA","global_code":"8644MXCR+MV"},"price_level":1,"rating":4.3,"reference":"ChIJhZAkI82IToYRyTvb0H8dq9I","types":["restaurant","food","point_of_interest","establishment"],"user_ratings_total":950},{"business_status":"OPERATIONAL","formatted_address":"7214 Green Bay Rd, 100 Southport Plaza, Kenosha, WI 53142, United States","geometry":{"location":{"lat":42.569157,"lng":-87.88772809999999},"viewport":{"northeast":{"lat":42.57052357989272,"lng":-87.88621557010728},"southwest":{"lat":42.56782392010728,"lng":-87.88891522989272}}},"icon":"https://maps.gstatic.com/mapfiles/place_api/icons/v1/png_71/restaurant-71.png","icon_background_color":"#FF9E67","icon_mask_base_uri":"https://maps.gstatic.com/mapfiles/place_api/icons/v2/restaurant_pinlet","name":"HuHot Mongolian Grill","opening_hours":{"open_now":false},"photos":[{"height":2988,"html_attributions":["<a href=\"https://maps.google.com/maps/contrib/107425338042006451335\">Eric Larkey</a>"],"photo_reference":"AeJbb3e3tsiQF1BD7jye9MmwAC4RsiniohhOV9XquAEnxyNT-A5MWn73WmUYE_yrx1MIfHWCZFJ9iyRAe5Zuuu6wdP50pHJmMagJEyWH4q0rMCEJx9mNbBb2a3ocQl3Y1djM91mNbfxqhSpYrfcNmDM7CGX3rCaLNh-ynkN3OHO5wou05eiS","width":5312}],"place_id":"ChIJORRpSFZgBYgRH5elI7Lp6vY","plus_code":{"compound_code":"H496+MW Kenosha, Wisconsin, USA","global_code":"86JJH496+MW"},"price_level":2,"rating":4.3,"reference":"ChIJORRpSFZgBYgRH5elI7Lp6vY","types":["restaurant","food","point_of_interest","establishment"],"user_ratings_total":932},{"business_status":"OPERATIONAL","formatted_address":"Zentralstrasse 2, 2502 Biel, Switzerland","geometry":{"location":{"lat":47.1396755,"lng":7.2434235},"viewport":{"northeast":{"lat":47.14111072989272,"lng":7.24488882989272},"southwest":{"lat":47.13841107010727,"lng":7.242189170107276}}},"icon":"https://maps.gstatic.com/mapfiles/place_api/icons/v1/png_71/restaurant-71.png","icon_background_color":"#FF9E67","icon_mask_base_uri":"https://maps.gstatic.com/mapfiles/place_api/icons/v2/restaurant_pinlet","name":"Han","opening_hours":{"open_now":false},"photos":[{"height":4032,"html_attributions":["<a href=\"https://maps.google.com/maps/contrib/104032927816286201783\">Marcel Steiner</a>"],"photo_reference":"AeJbb3fBbfNLptxw0yUy-V7nq988FNEO3hYI8DteXjNhyZChHY_DSvZ24XUky-XsQmxg1UVLaSv1T4fel4-95lKiev0_hxVsUrmbnAjEcW7dejjCVyx_NqUPNI_ykLYQJa6WQK45ZDiZ2XmM6hr-Guk0SI6KHDOtvrQcJbrlOGuNnIp0HWUJ","width":3024}],"place_id":"ChIJSauWjlIZjkcRZFwDkEdMVww","plus_code":{"compound_code":"46QV+V9 Biel/Bienne, Switzerland","global_code":"8FV946QV+V9"},"price_level":2,"rating":4.3,"reference":"ChIJSauWjlIZjkcRZFwDkEdMVww","types":["restaurant","food","point_of_interest","establishment"],"user_ratings_total":467},{"business_status":"OPERATIONAL","formatted_address":"Industriestrasse 10, 8610 Uster, Switzerland","geometry":{"location":{"lat":47.3518427,"lng":8.718481299999999},"viewport":{"northeast":{"lat":47.35304252989272,"lng":8.719644079892722},"southwest":{"lat":47.35034287010728,"lng":8.716944420107279}}},"icon":"https://maps.gstatic.com/mapfiles/place_api/icons/v1/png_71/restaurant-71.png","icon_background_color":"#FF9E67","icon_mask_base_uri":"https://maps.gstatic.com/mapfiles/place_api/icons/v2/restaurant_pinlet","name":"Restaurant HAN Mongolian Barbecue","opening_hours":{"open_now":false},"photos":[{"height":3024,"html_attributions":["<a href=\"https://maps.google.com/maps/contrib/101663858170805496915\">Michel Latch</a>"],"photo_reference":"AeJbb3ctH08gjxNUbmLc4cEKuXpA0n3xgj71kLezj8pHsWirGMJgJOceka5lsHEvQ9LGvwDzTgN8bl67tf1d5rdAl-oxygvUZvKOtI6yY1PqzcLpENSWnZ0Ei0YCdsghSrs--A0wBQ9N0NbzETo6icetmM5ZX3akvLf4q5lWiZa7UphP2BDT","width":4032}],"place_id":"ChIJCzIYL6elmkcR84V2feyZXCQ","plus_code":{"compound_code":"9P29+P9 Uster, Switzerland","global_code":"8FVC9P29+P9"},"price_level":2,"rating":4.3,"reference":"ChIJCzIYL6elmkcR84V2feyZXCQ","types":["restaurant","meal_takeaway","food","point_of_interest","establishment"],"user_ratings_total":407},{"business_status":"OPERATIONAL","formatted_address":"Bälliz 10, 3600 Thun, Switzerland","geometry":{"location":{"lat":46.75982330000001,"lng":7.626363899999999},"viewport":{"northeast":{"lat":46.76115447989272,"lng":7.627780279892722},"southwest":{"lat":46.75845482010727,"lng":7.625080620107278}}},"icon":"https://maps.gstatic.com/mapfiles/place_api/icons/v1/png_71/restaurant-71.png","icon_background_color":"#FF9E67","icon_mask_base_uri":"https://maps.gstatic.com/mapfiles/place_api/icons/v2/restaurant_pinlet","name":"Han Mongolian Barbecue","opening_hours":{"open_now":false},"photos":[{"height":5312,"html_attributions":["<a href=\"https://maps.google.com/maps/contrib/103215546137005873741\">Andi W</a>"],"photo_reference":"AeJbb3fHVBhgc6q81IHh4666dKTQFgTJt1d5cghJGyZH62WcPIgi8lEXTmePKYaVZAjG0k7UyAwaCjyjSxAkoepnZr501XXAJg2HY6yYdMtG7A_Q4njxYLv-WiF8_Fm7fbOQ49ZXj-gO-EdZJSsAKcW_kxLChfoEEvsaK5JEDM3Krratf-je","width":2988}],"place_id":"ChIJ24oz8N2yj0cRDb8uk_smj2g","plus_code":{"compound_code":"QJ5G+WG Thun, Switzerland","global_code":"8FR9QJ5G+WG"},"price_level":2,"rating":4.3,"reference":"ChIJ24oz8N2yj0cRDb8uk_smj2g","types":["restaurant","food","point_of_interest","establishment"],"user_ratings_total":363},{"business_status":"OPERATIONAL","formatted_address":"13150 Hall Rd, Sterling Heights, MI 48313, United States","geometry":{"location":{"lat":42.6261604,"lng":-82.9972469},"viewport":{"northeast":{"lat":42.62759037989272,"lng":-82.99580382010727},"southwest":{"lat":42.62489072010728,"lng":-82.99850347989272}}},"icon":"https://maps.gstatic.com/mapfiles/place_api/icons/v1/png_71/restaurant-71.png","icon_background_color":"#FF9E67","icon_mask_base_uri":"https://maps.gstatic.com/mapfiles/place_api/icons/v2/restaurant_pinlet","name":"BD's Mongolian Grill","opening_hours":{"open_now":false},"photos":[{"height":2988,"html_attributions":["<a href=\"https://maps.google.com/maps/contrib/106207828489995216248\">Alina G</a>"],"photo_reference":"AeJbb3fe13EWw-cSQYMRpO1bCVixTlEezjxFenC1BVVPWRycmL6xhyCUH6oF6J0zhacRV2u2fzgu7W2XS21GiNpMzTYUlmGQwexWUbPfFCkSW6Nds6cEq8hZZjbnRNG6Vav9C4DSMNPS0-xNz14MYfhGdrGzvKZl-dSyKFH8mwbk3w_ud5vx","width":5312}],"place_id":"ChIJn3bCx97dJIgRc0yI7WiJZNo","plus_code":{"compound_code":"J2G3+F4 Sterling Heights, Michigan, USA","global_code":"86JVJ2G3+F4"},"price_level":2,"rating":4.2,"reference":"ChIJn3bCx97dJIgRc0yI7WiJZNo","types":["restaurant","food","point_of_interest","establishment"],"user_ratings_total":1863},{"business_status":"OPERATIONAL","formatted_address":"6746 S Memorial Dr, Tulsa, OK 74133, United States","geometry":{"location":{"lat":36.0643612,"lng":-95.8868993},"viewport":{"northeast":{"lat":36.06577297989273,"lng":-95.88548317010728},"southwest":{"lat":36.06307332010729,"lng":-95.88818282989273}}},"icon":"https://maps.gstatic.com/mapfiles/place_api/icons/v1/png_71/restaurant-71.png","icon_background_color":"#FF9E67","icon_mask_base_uri":"https://maps.gstatic.com/mapfiles/place_api/icons/v2/restaurant_pinlet","name":"HuHot Mongolian Grill","opening_hours":{"open_now":false},"photos":[{"height":1024,"html_attributions":["<a href=\"https://maps.google.com/maps/contrib/107437882325513769521\">Jeff P</a>"],"photo_reference":"AeJbb3ciPulWMN-ewJvF4EVGuI0MBmfZeyzcHNs4lqwlll7hOu81uAWpaGdZLb8aUGROFiWFq5OJpeA4EkA_vv6HDSsXiw3ksoDga702fU61T7XbQlvT0QYcle_5Ta5U4kyMLB7v4AUGAaeUrfgt5ljOpYkwC8PRIzl0F2xfbWZQUnCvSZse","width":768}],"place_id":"ChIJMz6NCpCNtocRift6eO7tunw","plus_code":{"compound_code":"3477+P6 Tulsa, Oklahoma, USA","global_code":"86863477+P6"},"price_level":2,"rating":4.2,"reference":"ChIJMz6NCpCNtocRift6eO7tunw","types":["restaurant","food","point_of_interest","establishment"],"user_ratings_total":1572},{"business_status":"OPERATIONAL","formatted_address":"619 E Boughton Rd #150, Bolingbrook, IL 60440, United States","geometry":{"location":{"lat":41.7169908,"lng":-88.0418077},"viewport":{"northeast":{"lat":41.71839212989272,"lng":-88.04031642010727},"southwest":{"lat":41.71569247010727,"lng":-88.04301607989272}}},"icon":"https://maps.gstatic.com/mapfiles/place_api/icons/v1/png_71/restaurant-71.png","icon_background_color":"#FF9E67","icon_mask_base_uri":"https://maps.gstatic.com/mapfiles/place_api/icons/v2/restaurant_pinlet","name":"BD's Mongolian Grill","opening_hours":{"open_now":false},"photos":[{"height":1080,"html_attributions":["<a href=\"https://maps.google.com/maps/contrib/101639668780919188119\">Rachel Downs</a>"],"photo_reference":"AeJbb3fuJL5xOYQIx69qHiRca8sApRdkvt-RzUvcS3OaUoIQQ9crDup5X4mClN6GmGBODMq6jAjqpGk7xyHL0vssw5kI0QIJUvAyliE6MaYEMkgsaIZxu88KiNvoxlQL_B2Ir57GD4wcg99229Y7F6IOxjwEQn5VZ-CEOy-JI0KAe_48rYmv","width":1920}],"place_id":"ChIJo76CwfNaDogRo7Q75Iqkm7s","plus_code":{"compound_code":"PX85+Q7 Bolingbrook, Illinois, USA","global_code":"86HHPX85+Q7"},"price_level":2,"rating":4.2,"reference":"ChIJo76CwfNaDogRo7Q75Iqkm7s","types":["restaurant","food","point_of_interest","establishment"],"user_ratings_total":1484},{"business_status":"OPERATIONAL","formatted_address":"3021 S 108th St, West Allis, WI 53227, United States","geometry":{"location":{"lat":42.9893484,"lng":-88.0479172},"viewport":{"northeast":{"lat":42.99069422989272,"lng":-88.04652092010727},"southwest":{"lat":42.98799457010728,"lng":-88.04922057989272}}},"icon":"https://maps.gstatic.com/mapfiles/place_api/icons/v1/png_71/restaurant-71.png","icon_background_color":"#FF9E67","icon_mask_base_uri":"https://maps.gstatic.com/mapfiles/place_api/icons/v2/restaurant_pinlet","name":"HuHot Mongolian Grill","opening_hours":{"open_now":false},"photos":[{"height":1836,"html_attributions":["<a href=\"https://maps.google.com/maps/contrib/114243685709263968344\">sandra rollins</a>"],"photo_reference":"AeJbb3fX9-rCfYwlJie_NbrjQH00OIMu2YXy3V3KFLmhsmSswXzHfzcYzg6A7-BPs6lqSuSIjjT1TGffH2aZ5JuKxsQkteWc0JvgT8evC25UnGiClXtkE-m1UAN57NeE6-6fuvrECIwEOPQ9CWWFoM28ofJUGSK8W9IFQHzGjCGU1Z-MZkAi","width":3264}],"place_id":"ChIJTYcwSJwPBYgRTUYlWchjLNo","plus_code":{"compound_code":"XXQ2+PQ West Allis, Wisconsin, USA","global_code":"86JHXXQ2+PQ"},"price_level":2,"rating":4.2,"reference":"ChIJTYcwSJwPBYgRTUYlWchjLNo","types":["restaurant","food","point_of_interest","establishment"],"user_ratings_total":1287},{"business_status":"OPERATIONAL","formatted_address":"Otto-Wels-Straße 15, 52477 Alsdorf, Germany","geometry":{"location":{"lat":50.8747965,"lng":6.1641584},"viewport":{"northeast":{"lat":50.87613507989271,"lng":6.165642029892721},"southwest":{"lat":50.87343542010727,"lng":6.162942370107277}}},"icon":"https://maps.gstatic.com/mapfiles/place_api/icons/v1/png_71/restaurant-71.png","icon_background_color":"#FF9E67","icon_mask_base_uri":"https://maps.gstatic.com/mapfiles/place_api/icons/v2/restaurant_pinlet","name":"Mengu Buffet Alsdorf","opening_hours":{"open_now":false},"photos":[{"height":3492,"html_attributions":["<a href=\"https://maps.google.com/maps/contrib/103384664723349441703\">Der Chris</a>"],"photo_reference":"AeJbb3dh54VC-xtqq_-3yrKbDDH5O2Ql_C3i0aEystiDEFvghIyYNgaa8ROEy3w0jX41ZKLDCuEr--vPK0bUW_-78H5LuZibyq11WAmRaU7WN8DjMuWfRQ9HhJF0PQ1c_XmlaxDzQdxDWd1zIdZ0nKkwvyNrYkvbuTYkV1G8QDpgGdaXzAyd","width":4656}],"place_id":"ChIJv49W7ZOhwEcR8ebgy26pGgA","plus_code":{"compound_code":"V5F7+WM Alsdorf, Germany","global_code":"9F28V5F7+WM"},"price_level":1,"rating":4.2,"reference":"ChIJv49W7ZOhwEcR8ebgy26pGgA","types":["restaurant","food","point_of_interest","establishment"],"user_ratings_total":1243},{"business_status":"OPERATIONAL","formatted_address":"921 N US 75-Central Expy 1000, Plano, TX 75075, United States","geometry":{"location":{"lat":33.0133928,"lng":-96.70948829999999},"viewport":{"northeast":{"lat":33.01469122989272,"lng":-96.70797157010729},"southwest":{"lat":33.01199157010728,"lng":-96.71067122989272}}},"icon":"https://maps.gstatic.com/mapfiles/place_api/icons/v1/png_71/restaurant-71.png","icon_background_color":"#FF9E67","icon_mask_base_uri":"https://maps.gstatic.com/mapfiles/place_api/icons/v2/restaurant_pinlet","name":"Genghis Grill","opening_hours":{"open_now":false},"photos":[{"height":3024,"html_attributions":["<a href=\"https://maps.google.com/maps/contrib/115173313013247240503\">venkatesan thanulingam</a>"],"photo_reference":"AeJbb3ez8cviPI-ZcDmQbxSz1pCJyrLb8ps_gEs_6h9CSFLjSLI1d-foWS87MzqwmHkNE1gQPXAOo0DQraFhDeFAVg2VdPSp-9sxD3CaDC_2GIqKbyFdmyPEBxPfWTzdPZtd1ARzFdIqCuc8Djk0wN9gCXBxwSAaRK9wmjf0s9wRkL_dE5L_","width":4032}],"place_id":"ChIJAWN7UOAYTIYR80RxrqUecX0","plus_code":{"compound_code":"277R+96 Plano, Texas, USA","global_code":"8655277R+96"},"price_level":2,"rating":4.2,"reference":"ChIJAWN7UOAYTIYR80RxrqUecX0","types":["bar","restaurant","food","point_of_interest","establishment"],"user_ratings_total":1185},{"business_status":"OPERATIONAL","formatted_address":"9617 E County Line Rd Suite B, Centennial, CO 80112, United States","geometry":{"location":{"lat":39.5674054,"lng":-104.8760648},"viewport":{"northeast":{"lat":39.56865047989272,"lng":-104.8747219201073},"southwest":{"lat":39.56595082010728,"lng":-104.8774215798927}}},"icon":"https://maps.gstatic.com/mapfiles/place_api/icons/v1/png_71/restaurant-71.png","icon_background_color":"#FF9E67","icon_mask_base_uri":"https://maps.gstatic.com/mapfiles/place_api/icons/v2/restaurant_pinlet","name":"Genghis Grill","opening_hours":{"open_now":false},"photos":[{"height":3024,"html_attributions":["<a href=\"https://maps.google.com/maps/contrib/100876844225316906697\">Chris Moore</a>"],"photo_reference":"AeJbb3eOBGlVPVl31tnHagdbtV8dYkSQlnkGeZ2BcURJ2BdLNjM3tLCZwoafihtNYh6bJwTzTbMNaASkkHCo_1PR0dLoi0of4MaeZ_18W4l2fofAJU2yET9i4PrVAnzupehZarNp2owT6Zg3fPIHBNkygsQs7Yv2pp1jszc0NisWY-QY3-QZ","width":4032}],"place_id":"ChIJc_hgp76FbIcRbqLYbxYund8","plus_code":{"compound_code":"H48F+XH Centennial, Colorado, USA","global_code":"85FQH48F+XH"},"price_level":2,"rating":4.2,"reference":"ChIJc_hgp76FbIcRbqLYbxYund8","types":["bar","restaurant","food","point_of_interest","establishment"],"user_ratings_total":1131},{"business_status":"OPERATIONAL","formatted_address":"Centerplace Shopping Center, 7450 W 52nd Ave, Arvada, CO 80002, United States","geometry":{"location":{"lat":39.7900986,"lng":-105.0807501},"viewport":{"northeast":{"lat":39.79146757989272,"lng":-105.0792704701073},"southwest":{"lat":39.78876792010728,"lng":-105.0819701298927}}},"icon":"https://maps.gstatic.com/mapfiles/place_api/icons/v1/png_71/restaurant-71.png","icon_background_color":"#FF9E67","icon_mask_base_uri":"https://maps.gstatic.com/mapfiles/place_api/icons/v2/restaurant_pinlet","name":"HuHot Mongolian Grill","opening_hours":{"open_now":false},"photos":[{"height":2988,"html_attributions":["<a href=\"https://maps.google.com/maps/contrib/103758483932786150898\">Jesse Hearndon</a>"],"photo_reference":"AeJbb3cLYBawQcjTBmXe1772PP3n0-lH-pszAPlw9LPrshWWEayBww8hefdfO5Yufr9Ken6oh2L7uNouuxpslLMvzimxNVzQfxJVfWrh0aEEEoaAafBsYG3_0y4JKXhbgpkQt8-n0LiZ5P0AL9sjlY8XuOeoxJwqsVF2h_VQlUzJ4rl01TfH","width":5312}],"place_id":"ChIJoYTRpTSGa4cRbOvgKNuDOHU","plus_code":{"compound_code":"QWR9+2M Arvada, Colorado, USA","global_code":"85FPQWR9+2M"},"price_level":2,"rating":4.2,"reference":"ChIJoYTRpTSGa4cRbOvgKNuDOHU","types":["restaurant","food","point_of_interest","establishment"],"user_ratings_total":1004},{"business_status":"OPERATIONAL","formatted_address":"Baarerstrasse 63, 6300 Zug, Switzerland","geometry":{"location":{"lat":47.1757402,"lng":8.5172885},"viewport":{"northeast":{"lat":47.17707707989273,"lng":8.518728179892722},"southwest":{"lat":47.17437742010728,"lng":8.516028520107279}}},"icon":"https://maps.gstatic.com/mapfiles/place_api/icons/v1/png_71/restaurant-71.png","icon_background_color":"#FF9E67","icon_mask_base_uri":"https://maps.gstatic.com/mapfiles/place_api/icons/v2/restaurant_pinlet","name":"Han","opening_hours":{"open_now":false},"photos":[{"height":2988,"html_attributions":["<a href=\"https://maps.google.com/maps/contrib/104238873509558368407\">Nabil Bisig</a>"],"photo_reference":"AeJbb3cqiah-RxXKd8AsIlAgPBd308VLekvK78r999DLrvm0vMCfv8m_SAS1zd2s2VG2NiWqM7EhbNmpERTT49cims_DY0bHtHPJcQatHkCQmm3zmALSIFeA9IElfWKwdhP9h3tt8eJp4S2uQzng2yixXwTiEXAlJNIvO0rxFcdIlwTsAED2","width":5312}],"place_id":"ChIJpfeGkFmqmkcRJ8iWOfleQT8","plus_code":{"compound_code":"5GG8+7W Zug, Switzerland","global_code":"8FVC5GG8+7W"},"price_level":2,"rating":4.2,"reference":"ChIJpfeGkFmqmkcRJ8iWOfleQT8","types":["restaurant","food","point_of_interest","establishment"],"user_ratings_total":696},{"business_status":"OPERATIONAL","formatted_address":"27 Rue d'Enghien, 75010 Paris","geometry":{"location":{"lat":48.87193329999999,"lng":2.3506556},"viewport":{"northeast":{"lat":48.87333597989272,"lng":2.352024729892722},"southwest":{"lat":48.87063632010728,"lng":2.349325070107278}}},"icon":"https://maps.gstatic.com/mapfiles/place_api/icons/v1/png_71/restaurant-71.png","icon_background_color":"#FF9E67","icon_mask_base_uri":"https://maps.gstatic.com/mapfiles/place_api/icons/v2/restaurant_pinlet","name":"Liuyishou Hotpot Paris","opening_hours":{"open_now":false},"photos":[{"height":4032,"html_attributions":["<a href=\"https://maps.google.com/maps/contrib/105740416080082621333\">A Google User</a>"],"photo_reference":"AeJbb3eFn2jhHxdtV26oJGSo8zHHPvLDGCieuOkIH1FiP5BFmUXxdJJ2D2rsfpqNrq9v0E2geHPEaFDx7Npx_TgGEMEU_4yr1-xEKW-oTaYCvIxtp-n5QSAuZOWPpmLduylzJafOmAibtLXWwIstdcXp0P9tZEMsVRxCmSbHboXtnEBx3yTd","width":3024}],"place_id":"ChIJR7UIEBRu5kcRSOkjuFAbEho","plus_code":{"compound_code":"V9C2+Q7 Paris","global_code":"8FW4V9C2+Q7"},"price_level":2,"rating":4.2,"reference":"ChIJR7UIEBRu5kcRSOkjuFAbEho","types":["restaurant","food","point_of_interest","establishment"],"user_ratings_total":632},{"business_status":"OPERATIONAL","formatted_address":"72 Beveley Rd, Telford TF2 6SD, United Kingdom","geometry":{"location":{"lat":52.69556,"lng":-2.466699},"viewport":{"northeast":{"lat":52.69691127989272,"lng":-2.465387620107278},"southwest":{"lat":52.69421162010727,"lng":-2.468087279892722}}},"icon":"https://maps.gstatic.com/mapfiles/place_api/icons/v1/png_71/restaurant-71.png","icon_background_color":"#FF9E67","icon_mask_base_uri":"https://maps.gstatic.com/mapfiles/place_api/icons/v2/restaurant_pinlet","name":"Jenko's Brazilian & Mongolian BBQ","opening_hours":{"open_now":false},"photos":[{"height":655,"html_attributions":["<a href=\"https://maps.google.com/maps/contrib/117244853050115356412\">Compasses Inn</a>"],"photo_reference":"AeJbb3fun0U3E-W5pym0hdhtkj-JV--qenHnlDQJpMka5AlEaBcPiPrTXJJim1KRg8lcs1TIfBqaJy6DLy3LCCq484x4pv5pLrzV2bU4WsjriYcsXF6I99ED0ti6hLNClUk9J7i7M9bXVWBInxtS--8Lf4pmz2J0AO5uw8OD0xYjEln1FGEP","width":960}],"place_id":"ChIJxXIgAsmBekgRM36KkDQ-dNk","plus_code":{"compound_code":"MGWM+68 Telford, United Kingdom","global_code":"9C4VMGWM+68"},"rating":4.2,"reference":"ChIJxXIgAsmBekgRM36KkDQ-dNk","types":["bar","restaurant","food","point_of_interest","establishment"],"user_ratings_total":461},{"business_status":"OPERATIONAL","formatted_address":"9 Rue Gérando, 75009 Paris","geometry":{"location":{"lat":48.88251109999999,"lng":2.3457499},"viewport":{"northeast":{"lat":48.88384207989272,"lng":2.347133779892722},"southwest":{"lat":48.88114242010727,"lng":2.344434120107278}}},"icon":"https://maps.gstatic.com/mapfiles/place_api/icons/v1/png_71/restaurant-71.png","icon_background_color":"#FF9E67","icon_mask_base_uri":"https://maps.gstatic.com/mapfiles/place_api/icons/v2/restaurant_pinlet","name":"Au Palais du Grand Moghol","opening_hours":{"open_now":false},"photos":[{"height":3024,"html_attributions":["<a href=\"https://maps.google.com/maps/contrib/114408713837443106155\">Alice W</a>"],"photo_reference":"AeJbb3fOd2BOuzs2QogfvcZ5tbvDtOlp-sASURPCKsnsuVp4UH4wwlIl-ci5Tha1HqQ0wNtfsk98aAqdPkruI9eK5CtjiPB73URVgrhF-B71DByEsdQ-7ox4Lk0X7J9etFfgzOuLLrJeIEtk7fsCd-iisuMDKTaEogXYJX4ULvwpsB4Oz7gT","width":4032}],"place_id":"ChIJP31VEkJu5kcRVUw0bMDBHHE","plus_code":{"compound_code":"V8MW+27 Paris","global_code":"8FW4V8MW+27"},"price_level":2,"rating":4.2,"reference":"ChIJP31VEkJu5kcRVUw0bMDBHHE","types":["meal_takeaway","meal_delivery","restaurant","food","point_of_interest","establishment"],"user_ratings_total":282},{"business_status":"OPERATIONAL","formatted_address":"22115 Michigan Ave, Dearborn, MI 48124, United States","geometry":{"location":{"lat":42.3054283,"lng":-83.2463472},"viewport":{"northeast":{"lat":42.30671832989272,"lng":-83.24513782010727},"southwest":{"lat":42.30401867010728,"lng":-83.24783747989272}}},"icon":"https://maps.gstatic.com/mapfiles/place_api/icons/v1/png_71/restaurant-71.png","icon_background_color":"#FF9E67","icon_mask_base_uri":"https://maps.gstatic.com/mapfiles/place_api/icons/v2/restaurant_pinlet","name":"BD's Mongolian Grill","opening_hours":{"open_now":false},"photos":[{"height":3456,"html_attributions":["<a href=\"https://maps.google.com/maps/contrib/115623835047308796261\">bd&#39;s Mongolian Grill</a>"],"photo_reference":"AeJbb3frI7L2ZRH_hcY80LlDM0nLuzDrOoYjA6oO317U5kWS9nBbudupIFyRgPux-_6htCxV4NP5ha1bpUEubp9KsevStA06g5NFg0RnjoEGAib8EXir7QBmtP9yowWbOw7kmSwyImvSsZ1TTtGzf3077XLPcBKYSrUuEQtTzDOzWGctgciY","width":5184}],"place_id":"ChIJbbw8XoY1O4gRHfpZCw9Z4rA","plus_code":{"compound_code":"8Q43+5F Dearborn, Michigan, USA","global_code":"86JR8Q43+5F"},"price_level":2,"rating":4.1,"reference":"ChIJbbw8XoY1O4gRHfpZCw9Z4rA","types":["restaurant","food","point_of_interest","establishment"],"user_ratings_total":2160},{"business_status":"OPERATIONAL","formatted_address":"9766 Katy Fwy, Houston, TX 77055, United States","geometry":{"location":{"lat":29.7857156,"lng":-95.5350077},"viewport":{"northeast":{"lat":29.78696672989272,"lng":-95.53363707010728},"southwest":{"lat":29.78426707010728,"lng":-95.53633672989272}}},"icon":"https://maps.gstatic.com/mapfiles/place_api/icons/v1/png_71/restaurant-71.png","icon_background_color":"#FF9E67","icon_mask_base_uri":"https://maps.gstatic.com/mapfiles/place_api/icons/v2/restaurant_pinlet","name":"Genghis Grill","opening_hours":{"open_now":false},"photos":[{"height":1152,"html_attributions":["<a href=\"https://maps.google.com/maps/contrib/102104489731093614595\">Jeff Paduano</a>"],"photo_reference":"AeJbb3fshWJg9rWUKMDvK5NJ9w_VrRJXqT6vB11vLxM387WeO3gQHUrVrEQiZ5pr2gbxDiLh1Yr0Iv58e7oYBSZbS5g1PbACNH_oMDw2dIYYy7leUi2a2ino1FoAzL5xL56QTcoDalzasy0KY38z4BPx1xQQMVfNKPY7LAocal16TPSnew8D","width":2048}],"place_id":"ChIJh_edhpPEQIYR4IJCWdkAYGk","plus_code":{"compound_code":"QFP7+7X Memorial City, Houston, TX, USA","global_code":"76X6QFP7+7X"},"price_level":2,"rating":4.1,"reference":"ChIJh_edhpPEQIYR4IJCWdkAYGk","types":["bar","restaurant","food","point_of_interest","establishment"],"user_ratings_total":1547},{"business_status":"OPERATIONAL","formatted_address":"3611 Spring Forest Rd #100, Raleigh, NC 27616, United States","geometry":{"location":{"lat":35.85567,"lng":-78.5797182},"viewport":{"northeast":{"lat":35.85699542989272,"lng":-78.57842137010726},"southwest":{"lat":35.85429577010727,"lng":-78.58112102989271}}},"icon":"https://maps.gstatic.com/mapfiles/place_api/icons/v1/png_71/restaurant-71.png","icon_background_color":"#FF9E67","icon_mask_base_uri":"https://maps.gstatic.com/mapfiles/place_api/icons/v2/restaurant_pinlet","name":"CrazyFire Mongolian Grill","opening_hours":{"open_now":false},"photos":[{"height":1440,"html_attributions":["<a href=\"https://maps.google.com/maps/contrib/105180074512700612717\">trina desgouttes</a>"],"photo_reference":"AeJbb3dM7OI5iFZnLioijsDzCwUEaY8cwz4336NLsfBF5ZzqIBcxhmNY9i3AHoXi4MQhJmx_BGsWNRifkJ0eOra7nXoSc6rRjNQ1d6MIQWjIoAptrj2O039yrjpLy6NY8wTq7Pn-lXwA1Yr2U1f5TjsDo4MTVPco4G03grjE9h2eU3ir6G-O","width":2560}],"place_id":"ChIJM1tp_JpZrIkRTUpkLKSqjNA","plus_code":{"compound_code":"VC4C+74 Raleigh, North Carolina, USA","global_code":"8773VC4C+74"},"price_level":2,"rating":4.1,"reference":"ChIJM1tp_JpZrIkRTUpkLKSqjNA","types":["bar","restaurant","food","point_of_interest","establishment"],"user_ratings_total":1088},{"business_status":"OPERATIONAL","formatted_address":"Wittener Str. 65, 45711 Datteln, Germany","geometry":{"location":{"lat":51.6188841,"lng":7.3195576},"viewport":{"northeast":{"lat":51.62024542989273,"lng":7.320864129892723},"southwest":{"lat":51.61754577010728,"lng":7.318164470107279}}},"icon":"https://maps.gstatic.com/mapfiles/place_api/icons/v1/png_71/restaurant-71.png","icon_background_color":"#FF9E67","icon_mask_base_uri":"https://maps.gstatic.com/mapfiles/place_api/icons/v2/restaurant_pinlet","name":"Mongolia","opening_hours":{"open_now":false},"photos":[{"height":1520,"html_attributions":["<a href=\"https://maps.google.com/maps/contrib/111084082451573206585\">Tina poserkiller</a>"],"photo_reference":"AeJbb3cpalOq1Kiw25R9Ba1CWM2DEnvLpMB0PcA-BtfX3PlcQviNxpT5SJE8waRc0geLC6yBopxx1zuQ260sG49Y56VjhpVcLyZs9svcr50PFkErA-J8-6Nua0755Gq1QZMMvcKJo_SpTZLObs5cisVO7R2mcR4qutYZX16B-rI2fpxdEBl9","width":2688}],"place_id":"ChIJU6EwDy4duUcRwxZ2UmLAqSo","plus_code":{"compound_code":"J899+GV Datteln, Germany","global_code":"9F39J899+GV"},"price_level":1,"rating":4.1,"reference":"ChIJU6EwDy4duUcRwxZ2UmLAqSo","types":["restaurant","food","point_of_interest","establishment"],"user_ratings_total":776},{"business_status":"OPERATIONAL","formatted_address":"Vasagatan 8, 111 20 Stockholm, Sweden","geometry":{"location":{"lat":59.32940749999999,"lng":18.0607328},"viewport":{"northeast":{"lat":59.33076392989273,"lng":18.06195677989272},"southwest":{"lat":59.32806427010728,"lng":18.05925712010728}}},"icon":"https://maps.gstatic.com/mapfiles/place_api/icons/v1/png_71/restaurant-71.png","icon_background_color":"#FF9E67","icon_mask_base_uri":"https://maps.gstatic.com/mapfiles/place_api/icons/v2/restaurant_pinlet","name":"MBQ","opening_hours":{"open_now":false},"photos":[{"height":3024,"html_attributions":["<a href=\"https://maps.google.com/maps/contrib/101406954678611387577\">Rimoun</a>"],"photo_reference":"AeJbb3cGNGZi1VLiCEv3do5ec9YhzmiSHIfe2M3Ryo4hJsdY7aJpSr9_UpUzPR402rt8pKK4x-GB9Q1y_UQBZ58Ei-pCLAP53DmD4rv5cEFG0DO0mAnEu_oabPfh8QcMCnePVLU8rNg5-zAZlHDKYiq5GBhM6enm3JFWAJ6aLpw9GAAaF64z","width":4032}],"place_id":"ChIJzbgJxV-dX0YRo1pe_fra7zA","plus_code":{"compound_code":"83H6+Q7 Stockholm, Sweden","global_code":"9FFW83H6+Q7"},"price_level":2,"rating":4,"reference":"ChIJzbgJxV-dX0YRo1pe_fra7zA","types":["restaurant","food","point_of_interest","establishment"],"user_ratings_total":1279},{"business_status":"OPERATIONAL","formatted_address":"8336 Northfield Blvd, Denver, CO 80238, United States","geometry":{"location":{"lat":39.7811887,"lng":-104.8908621},"viewport":{"northeast":{"lat":39.78242982989272,"lng":-104.8894650701073},"southwest":{"lat":39.77973017010727,"lng":-104.8921647298927}}},"icon":"https://maps.gstatic.com/mapfiles/place_api/icons/v1/png_71/restaurant-71.png","icon_background_color":"#FF9E67","icon_mask_base_uri":"https://maps.gstatic.com/mapfiles/place_api/icons/v2/restaurant_pinlet","name":"HuHot Mongolian Grill","opening_hours":{"open_now":false},"photos":[{"height":2988,"html_attributions":["<a href=\"https://maps.google.com/maps/contrib/114741885224169383322\">Antonio Tinoco</a>"],"photo_reference":"AeJbb3cFiK_UjasoSOB-mjG7SK25JXyuXJN2esG79jOgDQB6aQmwG9QeYodRFJ6_fa9D9Rr6URzgIqZXmZIAy-ZIIFFRa5-1JWnfDTY0HKH6m0fkFfvsw5M9aN5d93SsgMfj5osaMH7QRgsVplQfz5h4tHC1ehX4QthLtT2SFUh0oPoaRZxL","width":5312}],"place_id":"ChIJcfCH-gd7bIcRNgi1pdi-nAE","plus_code":{"compound_code":"Q4J5+FM Denver, Colorado, USA","global_code":"85FQQ4J5+FM"},"price_level":2,"rating":4,"reference":"ChIJcfCH-gd7bIcRNgi1pdi-nAE","types":["restaurant","food","point_of_interest","establishment"],"user_ratings_total":1003},{"business_status":"OPERATIONAL","formatted_address":"52 Rue Lauriston, 75116 Paris","geometry":{"location":{"lat":48.8699879,"lng":2.2904278},"viewport":{"northeast":{"lat":48.87130697989272,"lng":2.291845229892723},"southwest":{"lat":48.86860732010728,"lng":2.289145570107278}}},"icon":"https://maps.gstatic.com/mapfiles/place_api/icons/v1/png_71/restaurant-71.png","icon_background_color":"#FF9E67","icon_mask_base_uri":"https://maps.gstatic.com/mapfiles/place_api/icons/v2/restaurant_pinlet","name":"Mandarin De Paris","opening_hours":{"open_now":false},"photos":[{"height":1152,"html_attributions":["<a href=\"https://maps.google.com/maps/contrib/101424043599725258417\">Colin Petrie</a>"],"photo_reference":"AeJbb3fawWom-h1hRI28LsV-gaydlyCWgRm_MOKuM8Jlj4_i0lWPmy9IyTk-Emg3XFRP2koe6q0oPjhI-13ZOtalAm30nsZE9PUvsAeYfWEqE60Gqf4Jz5iqA42wRJfzXuqMQoVHMMYylWYlOhexaxW9KFwAgyNOqAYK0N7I6XH416CqqaQ8","width":864}],"place_id":"ChIJ2XXHNO5v5kcRhc7w3SZpoxQ","plus_code":{"compound_code":"V7CR+25 Paris","global_code":"8FW4V7CR+25"},"rating":4,"reference":"ChIJ2XXHNO5v5kcRhc7w3SZpoxQ","types":["restaurant","food","point_of_interest","establishment"],"user_ratings_total":51},{"business_status":"OPERATIONAL","formatted_address":"Sveavägen 36, 111 34 Stockholm, Sweden","geometry":{"location":{"lat":59.3364517,"lng":18.0630081},"viewport":{"northeast":{"lat":59.33777522989272,"lng":18.06419947989272},"southwest":{"lat":59.33507557010728,"lng":18.06149982010728}}},"icon":"https://maps.gstatic.com/mapfiles/place_api/icons/v1/png_71/restaurant-71.png","icon_background_color":"#FF9E67","icon_mask_base_uri":"https://maps.gstatic.com/mapfiles/place_api/icons/v2/restaurant_pinlet","name":"Mongolia Djingis Khan Barbecue","opening_hours":{"open_now":false},"photos":[{"height":3120,"html_attributions":["<a href=\"https://maps.google.com/maps/contrib/101796864661695565297\">Sivakumar Ravi</a>"],"photo_reference":"AeJbb3e3ibNAEyUW6dJTQNymITVbJNZP9FgE0YgGhPEzXfpo8KgonogQdbKYS3xbAwva9nXrUIKDq3GllPNjYi8TvvQ2CQa-bsgI8rYejk3KV6-Ng7NgscmbYzIxw5bpABBOc7CcbPxK0GJbLYmn2NorAubQp5ttqtH2Q-KGlA-IiT2SmalO","width":4160}],"place_id":"ChIJWXAbgmedX0YR2MT4QeYLRvI","plus_code":{"compound_code":"83P7+H5 Stockholm, Sweden","global_code":"9FFW83P7+H5"},"price_level":2,"rating":3.9,"reference":"ChIJWXAbgmedX0YR2MT4QeYLRvI","types":["restaurant","food","point_of_interest","establishment"],"user_ratings_total":1382},{"business_status":"OPERATIONAL","formatted_address":"41 Av. Montaigne, 75008 Paris","geometry":{"location":{"lat":48.86727339999999,"lng":2.3063081},"viewport":{"northeast":{"lat":48.86861027989273,"lng":2.307622079892722},"southwest":{"lat":48.86591062010728,"lng":2.304922420107278}}},"icon":"https://maps.gstatic.com/mapfiles/place_api/icons/v1/png_71/restaurant-71.png","icon_background_color":"#FF9E67","icon_mask_base_uri":"https://maps.gstatic.com/mapfiles/place_api/icons/v2/restaurant_pinlet","name":"L'Avenue","opening_hours":{"open_now":true},"photos":[{"height":1152,"html_attributions":["<a href=\"https://maps.google.com/maps/contrib/108428936239091806119\">Sam Wakim</a>"],"photo_reference":"AeJbb3dLGWtWA4ECml_sfOo7AIOKfmfoE0SUFXtNwK5tVE2uKrwp8nCj7f7De46b-z_SrJb4WH5Mj-eLTGOqMVeQDySsfYF_5Ra-hwxEoAOYB6dJWcZJt5pcHsjsxbLEJBz_0PrwHMyGUVSotU_WSdxjaN8q9AZU6JQs-x6FU6UvJPBtFa2J","width":2048}],"place_id":"ChIJ39Tjq8Rv5kcR1w6f5hIjLc8","plus_code":{"compound_code":"V884+WG Paris","global_code":"8FW4V884+WG"},"rating":3.6,"reference":"ChIJ39Tjq8Rv5kcR1w6f5hIjLc8","types":["restaurant","food","point_of_interest","establishment"],"user_ratings_total":2633}]