[{"business_status":"OPERATIONAL","formatted_address":"5 Rue Joseph Sansboeuf, 75008 Paris","geometry":{"location":{"lat":48.8755472,"lng":2.32283},"viewport":{"northeast":{"lat":48.87674217989272,"lng":2.324239329892722},"southwest":{"lat":48.87404252010727,"lng":2.321539670107277}}},"icon":"https://maps.gstatic.com/mapfiles/place_api/icons/v1/png_71/restaurant-71.png","icon_background_color":"#FF9E67","icon_mask_base_uri":"https://maps.gstatic.com/mapfiles/place_api/icons/v2/restaurant_pinlet","name":"Sukhi Asie","opening_hours":{"open_now":true},"photos":[{"height":723,"html_attributions":["<a href=\"https://maps.google.com/maps/contrib/102774277401054126433\">A Google User</a>"],"photo_reference":"AeJbb3exuhHJxYjEH7ReW-X2YQzicTGYzkseH2r9KO5l2aDNPQrlrcoGIeOPX0VEL7vz9XtKjPzZawsBfortL5czJZ4C_BFEZyETP_96XNDLEInCvD1JnmizLm2Ahb7VRKqFh9JzE-a2D4QaN0SVqwra9yKdvOF8wGlWWJtUfG45h7TL1H-l","width":1284}],"place_id":"ChIJV6ZHCnZv5kcR38K5lABIaQQ","plus_code":{"compound_code":"V8GF+64 Paris","global_code":"8FW4V8GF+64"},"rating":4.9,"reference":"ChIJV6ZHCnZv5kcR38K5lABIaQQ","types":["restaurant","food","point_of_interest","establishment"],"user_ratings_total":38},{"business_status":"OPERATIONAL","formatted_address":"206 Rue Saint-Jacques, 75005 Paris","geometry":{"location":{"lat":48.8455409,"lng":2.3425822},"viewport":{"northeast":{"lat":48.84688687989271,"lng":2.343943929892722},"southwest":{"lat":48.84418722010727,"lng":2.341244270107277}}},"icon":"https://maps.gstatic.com/mapfiles/place_api/icons/v1/png_71/restaurant-71.png","icon_background_color":"#FF9E67","icon_mask_base_uri":"https://maps.gstatic.com/mapfiles/place_api/icons/v2/restaurant_pinlet","name":"Kokonor","opening_hours":{"open_now":false},"photos":[{"height":3474,"html_attributions":["<a href=\"https://maps.google.com/maps/contrib/115086575130570288056\">dard matthieu</a>"],"photo_reference":"AeJbb3c0089qrD8-TUjegp4l4HrydmQUX6QKjcf11XYHvr6kN2SzvmeZ66XMj3bzV_PHEW1vZ_qGXqRVcMxzj_pgjEuRj1yxvrnnIxv8FXrxrd9q4gfvX6tNtSBWtdc5mQMCe_234VGg70oBbqjXRjxNZfvxJw51Za8U4NR59qrluIyal8oe","width":4604}],"place_id":"ChIJYdsRusJx5kcRIWybhF8s4kI","plus_code":{"compound_code":"R8WV+62 Paris","global_code":"8FW4R8WV+62"},"price_level":2,"rating":4.6,"reference":"ChIJYdsRusJx5kcRIWybhF8s4kI","types":["restaurant","food","point_of_interest","establishment"],"user_ratings_total":276},{"business_status":"OPERATIONAL","formatted_address":"33 Rue François Miron, 75004 Paris","geometry":{"location":{"lat":48.85556829999999,"lng":2.3582543},"viewport":{"northeast":{"lat":48.85689827989273,"lng":2.359578479892722},"southwest":{"lat":48.85419862010728,"lng":2.356878820107277}}},"icon":"https://maps.gstatic.com/mapfiles/place_api/icons/v1/png_71/restaurant-71.png","icon_background_color":"#FF9E67","icon_mask_base_uri":"https://maps.gstatic.com/mapfiles/place_api/icons/v2/restaurant_pinlet","name":"Tamarind Thai Restaurant","opening_hours":{"open_now":false},"photos":[{"height":681,"html_attributions":["<a href=\"https://maps.google.com/maps/contrib/103119284925775976954\">Benoit Labarre</a>"],"photo_reference":"AeJbb3fEuAIiK7DvAUCP-AL85-Cjyk3SNE7ITVt3fiqQARpYpiDe6NAT0xEqkR5zOHTjwZ_A4g6duRcwRdAYaJrKVE2e0bTsa-9FIWWDWWiu5x4v1M1ebrA0s63NcvBvIyJAZAR714rxeCgTzjvRZf5jAQXM0LLGBM7_5VX5N5Zjc8HKUOW-","width":1024}],"place_id":"ChIJiQ4Cef1x5kcR7EA1H8zkUyQ","plus_code":{"compound_code":"V945+68 Paris","global_code":"8FW4V945+68"},"price_level":2,"rating":4.5,"reference":"ChIJiQ4Cef1x5kcR7EA1H8zkUyQ","types":["restaurant","food","point_of_interest","establishment"],"user_ratings_total":389},{"business_status":"OPERATIONAL","formatted_address":"27 Rue d'Enghien, 75010 Paris","geometry":{"location":{"lat":48.87193329999999,"lng":2.3506556},"viewport":{"northeast":{"lat":48.87333597989272,"lng":2.352024729892722},"southwest":{"lat":48.87063632010728,"lng":2.349325070107278}}},"icon":"https://maps.gstatic.com/mapfiles/place_api/icons/v1/png_71/restaurant-71.png","icon_background_color":"#FF9E67","icon_mask_base_uri":"https://maps.gstatic.com/mapfiles/place_api/icons/v2/restaurant_pinlet","name":"Liuyishou Hotpot Paris","opening_hours":{"open_now":false},"photos":[{"height":4032,"html_attributions":["<a href=\"https://maps.google.com/maps/contrib/105740416080082621333\">A Google User</a>"],"photo_reference":"AeJbb3fd4N-TG4LG2PRACPhmXvDSyzGFA_aUllhDsgSmd0ZD4kjHYx0sYV1tpeT6XgyXSWR-cEUZ9o9Wd_A8-iB-UtmuEs7o7FH1rmECwZMM2t0MjAitAZoy7BW6IItElFuUpj96eh70WTQ5sONnNBfB6HIbqNaFXb451qibS2o8Bdn1lAO-","width":3024}],"place_id":"ChIJR7UIEBRu5kcRSOkjuFAbEho","plus_code":{"compound_code":"V9C2+Q7 Paris","global_code":"8FW4V9C2+Q7"},"price_level":2,"rating":4.3,"reference":"ChIJR7UIEBRu5kcRSOkjuFAbEho","types":["restaurant","food","point_of_interest","establishment"],"user_ratings_total":640},{"business_status":"OPERATIONAL","formatted_address":"9 Rue Gérando, 75009 Paris","geometry":{"location":{"lat":48.88251109999999,"lng":2.3457499},"viewport":{"northeast":{"lat":48.88384207989272,"lng":2.347133779892722},"southwest":{"lat":48.88114242010727,"lng":2.344434120107278}}},"icon":"https://maps.gstatic.com/mapfiles/place_api/icons/v1/png_71/restaurant-71.png","icon_background_color":"#FF9E67","icon_mask_base_uri":"https://maps.gstatic.com/mapfiles/place_api/icons/v2/restaurant_pinlet","name":"Au Palais du Grand Moghol","opening_hours":{"open_now":false},"photos":[{"height":3024,"html_attributions":["<a href=\"https://maps.google.com/maps/contrib/114408713837443106155\">Alice W</a>"],"photo_reference":"AeJbb3fdOCWAmoXNGNqy1UYlbJ_QEP-vpJ8g24c2t7xv-KhLWQtWpGalFcX9COdRdKZPtLZb_2zQE6GfI8m0tLHW4O5gVjkJFzzK80B50F3ojbj2-vXHmNCBHl-b_LD0Pw2W1UNQm1oHh7bAOqIkX8WesbSvTjtrspdj-rgxCgbpJHwYsiSh","width":4032}],"place_id":"ChIJP31VEkJu5kcRVUw0bMDBHHE","plus_code":{"compound_code":"V8MW+27 Paris","global_code":"8FW4V8MW+27"},"price_level":2,"rating":4.2,"reference":"ChIJP31VEkJu5kcRVUw0bMDBHHE","types":["meal_takeaway","meal_delivery","restaurant","food","point_of_interest","establishment"],"user_ratings_total":282},{"business_status":"OPERATIONAL","formatted_address":"52 Rue Lauriston, 75116 Paris","geometry":{"location":{"lat":48.8699879,"lng":2.2904278},"viewport":{"northeast":{"lat":48.87130697989272,"lng":2.291845229892723},"southwest":{"lat":48.86860732010728,"lng":2.289145570107278}}},"icon":"https://maps.gstatic.com/mapfiles/place_api/icons/v1/png_71/restaurant-71.png","icon_background_color":"#FF9E67","icon_mask_base_uri":"https://maps.gstatic.com/mapfiles/place_api/icons/v2/restaurant_pinlet","name":"Mandarin De Paris","opening_hours":{"open_now":false},"photos":[{"height":1152,"html_attributions":["<a href=\"https://maps.google.com/maps/contrib/101424043599725258417\">Colin Petrie</a>"],"photo_reference":"AeJbb3cDboIWNURdO8E1MfwXHeUtJYUIlV5DhuUlM94FZ8GXWscHFKTjtL5GKVWPiqhbJgh3r6KrSjLMTTLuiSjFHb7xJdnKSaBCH5XUWbCeLGZnPrmJvIscXIntPu6CJIpzrNb4tLi9odqpcKBoIwvKjEDat6V8v0F4VmUGWk_Nv6TJU76S","width":864}],"place_id":"ChIJ2XXHNO5v5kcRhc7w3SZpoxQ","plus_code":{"compound_code":"V7CR+25 Paris","global_code":"8FW4V7CR+25"},"rating":4,"reference":"ChIJ2XXHNO5v5kcRhc7w3SZpoxQ","types":["restaurant","food","point_of_interest","establishment"],"user_ratings_total":51},{"business_status":"OPERATIONAL","formatted_address":"41 Av. Montaigne, 75008 Paris","geometry":{"location":{"lat":48.86727339999999,"lng":2.3063081},"viewport":{"northeast":{"lat":48.86861027989273,"lng":2.307622079892722},"southwest":{"lat":48.86591062010728,"lng":2.304922420107278}}},"icon":"https://maps.gstatic.com/mapfiles/place_api/icons/v1/png_71/restaurant-71.png","icon_background_color":"#FF9E67","icon_mask_base_uri":"https://maps.gstatic.com/mapfiles/place_api/icons/v2/restaurant_pinlet","name":"L'Avenue","opening_hours":{"open_now":true},"photos":[{"height":1366,"html_attributions":["<a href=\"https://maps.google.com/maps/contrib/104111246635874032234\">ZAGAT</a>"],"photo_reference":"AeJbb3flRX0tiqjJ_AQQyjv0_XDIMN1QyUHH-TJZBBtJKDqFqlJutawZlY5j44n5u_hnd5aPexiw2XLVEo7mFltEWn2qxOfOJSyVf_h8vR90YGB99KvdYr9rPLbLaoA9owouWg15fTI8k09nneMOapXiGiHjGkQAELmvKXu3p52Bcftou_GH","width":2048}],"place_id":"ChIJ39Tjq8Rv5kcR1w6f5hIjLc8","plus_code":{"compound_code":"V884+WG Paris","global_code":"8FW4V884+WG"},"rating":3.6,"reference":"ChIJ39Tjq8Rv5kcR1w6f5hIjLc8","types":["restaurant","food","point_of_interest","establishment"],"user_ratings_total":2662}]