[{"business_status":"OPERATIONAL","formatted_address":"Vilniaus g. 47, Vilnius 01132","geometry":{"location":{"lat":54.6808121,"lng":25.2821103},"viewport":{"northeast":{"lat":54.68215262989272,"lng":25.28344272989272},"southwest":{"lat":54.67945297010728,"lng":25.28074307010728}}},"icon":"https://maps.gstatic.com/mapfiles/place_api/icons/v1/png_71/restaurant-71.png","icon_background_color":"#FF9E67","icon_mask_base_uri":"https://maps.gstatic.com/mapfiles/place_api/icons/v2/restaurant_pinlet","name":"Snatch (Vilniaus g.)","opening_hours":{"open_now":true},"photos":[{"height":3024,"html_attributions":["<a href=\"https://maps.google.com/maps/contrib/106343268534886430640\">oleksiy.naumov</a>"],"photo_reference":"AeJbb3chyOlrzsVFYt_iRPup43hj-pTRHbNi4vddnBDBFcQPbZO7kN4DzG_oEpvCOxLdSIbqI1oNLOL0UEUzO4vFGX1VUg65tJVyMqDvP1kBrmAVlQdnJ4kthoTPRqsAn8iLuzKCWkPexF4ss5QlD4SAqZNnYi4-sVMaGF-ZtaDn5K1PVPAz","width":4032}],"place_id":"ChIJWaLpaGeV3UYR_N-tVaPckgY","plus_code":{"compound_code":"M7JJ+8R Vilnius","global_code":"9G67M7JJ+8R"},"rating":5,"reference":"ChIJWaLpaGeV3UYR_N-tVaPckgY","types":["restaurant","food","point_of_interest","establishment"],"user_ratings_total":15},{"business_status":"OPERATIONAL","formatted_address":"Pylimo g. 58, Halės turgavietė, 46A paviljonas, Vilnius 01136","geometry":{"location":{"lat":54.67366999999999,"lng":25.2860799},"viewport":{"northeast":{"lat":54.67508142989273,"lng":25.28759412989272},"southwest":{"lat":54.67238177010728,"lng":25.28489447010728}}},"icon":"https://maps.gstatic.com/mapfiles/place_api/icons/v1/png_71/restaurant-71.png","icon_background_color":"#FF9E67","icon_mask_base_uri":"https://maps.gstatic.com/mapfiles/place_api/icons/v2/restaurant_pinlet","name":"Graikai","opening_hours":{"open_now":true},"photos":[{"height":730,"html_attributions":["<a href=\"https://maps.google.com/maps/contrib/100371444739498262495\">A Google User</a>"],"photo_reference":"AeJbb3cRjZbNTtHl1Xg6ZL02QCxL0TS_8PCl6yzl2hf_iK3kHfbdZ3R5wnc0sk-mD-K2ghZm9ZyKx3X12ckb_E_JpFymaNf5r0hNwoGrEEGN-wMjAsaWCCOy2cdDjC8Sags1ogt537VBsd_T4pnJLzAZjWxY6pJ_1wr8hAjWBhrijQsKEUF5","width":1300}],"place_id":"ChIJn_1NB2SV3UYRWWSmi4MzWr8","plus_code":{"compound_code":"M7FP+FC Vilnius","global_code":"9G67M7FP+FC"},"rating":5,"reference":"ChIJn_1NB2SV3UYRWWSmi4MzWr8","types":["bar","restaurant","food","point_of_interest","establishment"],"user_ratings_total":12},{"business_status":"OPERATIONAL","formatted_address":"A. Smetonos g. 5, Vilnius 01115","geometry":{"location":{"lat":54.68641299999999,"lng":25.2761243},"viewport":{"northeast":{"lat":54.68771032989272,"lng":25.27738512989272},"southwest":{"lat":54.68501067010727,"lng":25.27468547010728}}},"icon":"https://maps.gstatic.com/mapfiles/place_api/icons/v1/png_71/restaurant-71.png","icon_background_color":"#FF9E67","icon_mask_base_uri":"https://maps.gstatic.com/mapfiles/place_api/icons/v2/restaurant_pinlet","name":"Georgian Puri","opening_hours":{"open_now":true},"photos":[{"height":2016,"html_attributions":["<a href=\"https://maps.google.com/maps/contrib/102269301451890908895\">A Google User</a>"],"photo_reference":"AeJbb3cQpU4hdJsxZJrZgAvXa_tDt6TBN6vn_KaBS1rCtX4Bi_c7cG0btIA789kQBzQ9SEnIrGHq2kONKnBJafOaursXZ5WoLQFSTcNXNY0oKnU1UtexSIkozYynVXxKVYfeH_Er9HjAUIN6OOHOlxJ_X-i3RlhImBpuYVNSxJiRPFmt_7lq","width":2015}],"place_id":"ChIJ13eHo9SV3UYRYav6tY4z-xY","plus_code":{"compound_code":"M7PG+HC Vilnius","global_code":"9G67M7PG+HC"},"rating":5,"reference":"ChIJ13eHo9SV3UYRYav6tY4z-xY","types":["restaurant","food","point_of_interest","establishment"],"user_ratings_total":9},{"business_status":"OPERATIONAL","formatted_address":"Vilnius 04343","geometry":{"location":{"lat":54.6930809,"lng":25.2223501},"viewport":{"northeast":{"lat":54.69448107989272,"lng":25.22351422989272},"southwest":{"lat":54.69178142010728,"lng":25.22081457010728}}},"icon":"https://maps.gstatic.com/mapfiles/place_api/icons/v1/png_71/restaurant-71.png","icon_background_color":"#FF9E67","icon_mask_base_uri":"https://maps.gstatic.com/mapfiles/place_api/icons/v2/restaurant_pinlet","name":"Classic grill vilnius","photos":[{"height":6000,"html_attributions":["<a href=\"https://maps.google.com/maps/contrib/104605653153033395164\">Dmitrij Beliakov</a>"],"photo_reference":"AeJbb3eCr3K9vPTrg29gSL30-xSiWDwf8wf0gUTo33BQTR-RVKsQsLiD3N4zzqBIYkCb6F_6m5fbdRkb8BYHgd7HHY9js0CmGLohuWI7a0f_JRcy-u_zCPiQMuPfHj3AKh_XOfJnuF3JSHdCNqR7RPgDsghP_DagkIsR0vbK09UZHG3HFUw-","width":8000}],"place_id":"ChIJ8coRS72T3UYRJMxx5W9PQFo","plus_code":{"compound_code":"M6VC+6W Vilnius","global_code":"9G67M6VC+6W"},"rating":5,"reference":"ChIJ8coRS72T3UYRJMxx5W9PQFo","types":["restaurant","food","point_of_interest","establishment"],"user_ratings_total":3},{"business_status":"OPERATIONAL","formatted_address":"Jeruzalės g. 38, Vilnius 08420","geometry":{"location":{"lat":54.74375029999999,"lng":25.2783479},"viewport":{"northeast":{"lat":54.74511172989271,"lng":25.27959892989272},"southwest":{"lat":54.74241207010727,"lng":25.27689927010728}}},"icon":"https://maps.gstatic.com/mapfiles/place_api/icons/v1/png_71/restaurant-71.png","icon_background_color":"#FF9E67","icon_mask_base_uri":"https://maps.gstatic.com/mapfiles/place_api/icons/v2/restaurant_pinlet","name":"Market cafe","opening_hours":{"open_now":true},"photos":[{"height":1728,"html_attributions":["<a href=\"https://maps.google.com/maps/contrib/112932782498658998421\">Sigitas Brazinskas</a>"],"photo_reference":"AeJbb3cXqEqWNFzeXciOdn7MSDVWU9CTI-H1D4zxzVq5Q-yXXgJOAjkqfnnYjnjT1bUOKvvarhsgEBQHl-LxsdnG9Y58N-xLOzhUrs3R33QTfaOOgi8E2tUbgE95JmxDSridQ0VvNrm0iZNcAM2Ow0Gcjpmu3wfLoJQlzMk2TELAay2oKpFh","width":4032}],"place_id":"ChIJNwQm47OR3UYRqra0X_a8zT4","plus_code":{"compound_code":"P7VH+G8 Vilnius","global_code":"9G67P7VH+G8"},"rating":5,"reference":"ChIJNwQm47OR3UYRqra0X_a8zT4","types":["restaurant","point_of_interest","food","establishment"],"user_ratings_total":2},{"business_status":"OPERATIONAL","formatted_address":"Erfurto g. 25, Vilnius 04220","geometry":{"location":{"lat":54.675872,"lng":25.2029102},"viewport":{"northeast":{"lat":54.67727902989273,"lng":25.20418712989272},"southwest":{"lat":54.67457937010729,"lng":25.20148747010727}}},"icon":"https://maps.gstatic.com/mapfiles/place_api/icons/v1/png_71/restaurant-71.png","icon_background_color":"#FF9E67","icon_mask_base_uri":"https://maps.gstatic.com/mapfiles/place_api/icons/v2/restaurant_pinlet","name":"keptas viščiukas","place_id":"ChIJQTw06oOT3UYRrzjm5lnqu6M","plus_code":{"compound_code":"M6G3+85 Vilnius","global_code":"9G67M6G3+85"},"rating":5,"reference":"ChIJQTw06oOT3UYRrzjm5lnqu6M","types":["restaurant","food","point_of_interest","establishment"],"user_ratings_total":1},{"business_status":"OPERATIONAL","formatted_address":"J. Balčikonio g. 3, Vilnius 08200","geometry":{"location":{"lat":54.71906269999999,"lng":25.2844715},"viewport":{"northeast":{"lat":54.72041882989271,"lng":25.28599022989272},"southwest":{"lat":54.71771917010727,"lng":25.28329057010728}}},"icon":"https://maps.gstatic.com/mapfiles/place_api/icons/v1/png_71/restaurant-71.png","icon_background_color":"#FF9E67","icon_mask_base_uri":"https://maps.gstatic.com/mapfiles/place_api/icons/v2/restaurant_pinlet","name":"Bite My Truck","opening_hours":{"open_now":true},"photos":[{"height":646,"html_attributions":["<a href=\"https://maps.google.com/maps/contrib/117005706032696969865\">A Google User</a>"],"photo_reference":"AeJbb3eueBOkpxtIUazRE4I9L4lxOAo_29h_VM5NH0Vfacl-GpSPk85xTleDsuFgBrQZ-WgeTNm4eaTTRTLUFcfm59YsEdb-I0Rwuo9X3pAivsi0GaOO5FPUmkDMSOGwP5ShylcxzTnwUhZE5DWTsKwTrWxoj3dpaV34ySj5q4s5sKFoJ5w4","width":1200}],"place_id":"ChIJBcbSP6mR3UYRwjpfNmfFLZU","plus_code":{"compound_code":"P79M+JQ Vilnius","global_code":"9G67P79M+JQ"},"rating":4.8,"reference":"ChIJBcbSP6mR3UYRwjpfNmfFLZU","types":["restaurant","point_of_interest","food","establishment"],"user_ratings_total":28},{"business_status":"OPERATIONAL","formatted_address":"Ukmergės g. 259a, Vilnius 07100","geometry":{"location":{"lat":54.7278247,"lng":25.2409831},"viewport":{"northeast":{"lat":54.72917277989271,"lng":25.24232462989272},"southwest":{"lat":54.72647312010727,"lng":25.23962497010728}}},"icon":"https://maps.gstatic.com/mapfiles/place_api/icons/v1/png_71/restaurant-71.png","icon_background_color":"#FF9E67","icon_mask_base_uri":"https://maps.gstatic.com/mapfiles/place_api/icons/v2/restaurant_pinlet","name":"Burger street","opening_hours":{"open_now":true},"photos":[{"height":3840,"html_attributions":["<a href=\"https://maps.google.com/maps/contrib/107543512896045245355\">A Google User</a>"],"photo_reference":"AeJbb3eqaG_wY517-bOs4NrW-59baX34OHSbV6RwlAxbd1-0dwq9tkzSULm5qspv5OCrtBtypB9V-SuRi3PCC4LXnXgWfGzHEO5BbGeqFHDkh1gs0jCdcR1vrTsrPqMA6FKle9JaFeOuUtGdT6NFU6digKlANt-NPppBqaZdHABt1CwGBRjn","width":5760}],"place_id":"ChIJS-P5522R3UYRrVk2kTMfEO4","plus_code":{"compound_code":"P6HR+49 Vilnius","global_code":"9G67P6HR+49"},"price_level":1,"rating":4.6,"reference":"ChIJS-P5522R3UYRrVk2kTMfEO4","types":["restaurant","point_of_interest","food","establishment"],"user_ratings_total":469},{"business_status":"OPERATIONAL","formatted_address":"Logistikos g. 4, Sausiai 21401","geometry":{"location":{"lat":54.7022366,"lng":25.0058342},"viewport":{"northeast":{"lat":54.70365387989272,"lng":25.00729272989273},"southwest":{"lat":54.70095422010728,"lng":25.00459307010728}}},"icon":"https://maps.gstatic.com/mapfiles/place_api/icons/v1/png_71/restaurant-71.png","icon_background_color":"#FF9E67","icon_mask_base_uri":"https://maps.gstatic.com/mapfiles/place_api/icons/v2/restaurant_pinlet","name":"Kibin Drive","opening_hours":{"open_now":true},"photos":[{"height":1365,"html_attributions":["<a href=\"https://maps.google.com/maps/contrib/114862883764422893612\">A Google User</a>"],"photo_reference":"AeJbb3e7M4d_qhEcB6Vcr54Ao8hzNkjh0r1Vft2PID8ZqEKgjLB_bSctvBWUKBAhw5Y3OYoxduhhqBh63w_IzJxR71YJXoJ4SK3sEp-LXtS6KViCRqbr-M7ZBLEK4pZi80Xus1jRV_ibF7-DVkm3bTi3GC4oXhcewYX-P28nn4Nz0tR9d_e1","width":2048}],"place_id":"ChIJNdHv6SiN3UYR0W3-CSEGFFs","plus_code":{"compound_code":"P224+W9 Sausiai","global_code":"9G67P224+W9"},"price_level":2,"rating":4.6,"reference":"ChIJNdHv6SiN3UYR0W3-CSEGFFs","types":["restaurant","food","point_of_interest","establishment"],"user_ratings_total":249},{"business_status":"OPERATIONAL","formatted_address":"Šiltnamių g. 9, Vilnius 04131","geometry":{"location":{"lat":54.6681472,"lng":25.222855},"viewport":{"northeast":{"lat":54.66950147989273,"lng":25.22413107989272},"southwest":{"lat":54.66680182010728,"lng":25.22143142010728}}},"icon":"https://maps.gstatic.com/mapfiles/place_api/icons/v1/png_71/restaurant-71.png","icon_background_color":"#FF9E67","icon_mask_base_uri":"https://maps.gstatic.com/mapfiles/place_api/icons/v2/restaurant_pinlet","name":"Barbeque Burgers","opening_hours":{"open_now":true},"photos":[{"height":3024,"html_attributions":["<a href=\"https://maps.google.com/maps/contrib/100709167110334445925\">Haroldas Bacius</a>"],"photo_reference":"AeJbb3eQzMJ6scO0C2afhsNQ9UbPjpgNaN2L7xftHAB7P5FN70Ix9XNrg5U6hFLvrPCUS7jYYvm7zGrh2AAsHNlZtlODzFpsVv5wVhN21EeoYAgAPwVc1zT_EbWfOBHeCsJObDp65gQNrMNZic2migjgpTHppxQxdAj4yG4J-OHxZXNIOfpz","width":4032}],"place_id":"ChIJZxPukLKW3UYRZeiJSKuRh0I","plus_code":{"compound_code":"M69F+74 Vilnius","global_code":"9G67M69F+74"},"rating":4.6,"reference":"ChIJZxPukLKW3UYRZeiJSKuRh0I","types":["restaurant","food","point_of_interest","establishment"],"user_ratings_total":229},{"business_status":"OPERATIONAL","formatted_address":"Geležinio Vilko g. 41, Vilnius 09300","geometry":{"location":{"lat":54.7041577,"lng":25.2670451},"viewport":{"northeast":{"lat":54.70548027989272,"lng":25.26843102989272},"southwest":{"lat":54.70278062010728,"lng":25.26573137010728}}},"icon":"https://maps.gstatic.com/mapfiles/place_api/icons/v1/png_71/restaurant-71.png","icon_background_color":"#FF9E67","icon_mask_base_uri":"https://maps.gstatic.com/mapfiles/place_api/icons/v2/restaurant_pinlet","name":"KEBAB inn","opening_hours":{"open_now":true},"photos":[{"height":3472,"html_attributions":["<a href=\"https://maps.google.com/maps/contrib/115389971856894286101\">Gintaras Kasperionis</a>"],"photo_reference":"AeJbb3fW-rVzLYdsCuRfyFbmJrmcGajF2c6l9dmh5JfR-ajaonNLcwOzhC7JD2UD4yCLxcIQC8E6_XRPfZgU_pNtNFUoL5Tp3x1kusT21DG3pXohUTLFyrY6wuvvZwnm_qBpEmijaHP0hX2xvBzUhvsZSEcHxF3_eC5zYQYlrlAPejsgJ-77","width":4624}],"place_id":"ChIJl0bYTayR3UYR5U-yPbaYmVU","plus_code":{"compound_code":"P738+MR Vilnius","global_code":"9G67P738+MR"},"rating":4.6,"reference":"ChIJl0bYTayR3UYR5U-yPbaYmVU","types":["restaurant","point_of_interest","food","establishment"],"user_ratings_total":12},{"business_status":"OPERATIONAL","formatted_address":"Pilkalnio g. 3, Vilnius 06229","geometry":{"location":{"lat":54.70972339999999,"lng":25.1633601},"viewport":{"northeast":{"lat":54.71105362989272,"lng":25.16543099999999},"southwest":{"lat":54.70835397010728,"lng":25.1626698}}},"icon":"https://maps.gstatic.com/mapfiles/place_api/icons/v1/png_71/restaurant-71.png","icon_background_color":"#FF9E67","icon_mask_base_uri":"https://maps.gstatic.com/mapfiles/place_api/icons/v2/restaurant_pinlet","name":"Jammi","opening_hours":{"open_now":true},"photos":[{"height":960,"html_attributions":["<a href=\"https://maps.google.com/maps/contrib/116905446844204746504\">Rasa P</a>"],"photo_reference":"AeJbb3f7dE86SFCOj3n3szqL8-YyHuFeRzLrUuChbKh4cUDMrhBo1s85x93c9NqRD_nx9d1pGXrFdCj9JFwMAQlGlPuwWcM5e7n3HPw95ohYRBNQAGdg1_lkDVPjwv3LJVPDPat_XzeYvBg8chyPmKcOeTpTcmFXtTNTRAgaEY8OKxB-bcl5","width":720}],"place_id":"ChIJcS-PY2uT3UYRbxp7DOQbSF0","plus_code":{"compound_code":"P557+V8 Vilnius","global_code":"9G67P557+V8"},"rating":4.5,"reference":"ChIJcS-PY2uT3UYRbxp7DOQbSF0","types":["restaurant","point_of_interest","food","establishment"],"user_ratings_total":46},{"business_status":"OPERATIONAL","formatted_address":"S. Stanevičiaus g. 44, Vilnius 07125","geometry":{"location":{"lat":54.7247421,"lng":25.2496497},"viewport":{"northeast":{"lat":54.72593592989272,"lng":25.25140627989272},"southwest":{"lat":54.72323627010728,"lng":25.24870662010728}}},"icon":"https://maps.gstatic.com/mapfiles/place_api/icons/v1/png_71/restaurant-71.png","icon_background_color":"#FF9E67","icon_mask_base_uri":"https://maps.gstatic.com/mapfiles/place_api/icons/v2/restaurant_pinlet","name":"Güzel by Sinan","opening_hours":{"open_now":true},"photos":[{"height":1896,"html_attributions":["<a href=\"https://maps.google.com/maps/contrib/114988987512385629916\">A Google User</a>"],"photo_reference":"AeJbb3fzXuAJw3UrsTMv5AGqPTmwgc-n--s9dr6CfOXmK5No7UKLLZ2lSvkRfRV3rzXsOwCs3fP4sXuzhGMzgunOlo_SFSRWkyQgDPhO7tUs4L9arqS7x6hmMWsppAUyWjQdU_l0WL1NpIIhlTEtD-cHIV-m2GRw76Or7ex7YaTUUYuYD0PD","width":3361}],"place_id":"ChIJmUcUyhGR3UYRjCtnwZ_7jQY","plus_code":{"compound_code":"P6FX+VV Vilnius","global_code":"9G67P6FX+VV"},"rating":4.5,"reference":"ChIJmUcUyhGR3UYRjCtnwZ_7jQY","types":["restaurant","point_of_interest","food","establishment"],"user_ratings_total":2},{"business_status":"OPERATIONAL","formatted_address":"Lentvario g. 13, Vilnius 02300","geometry":{"location":{"lat":54.6460865,"lng":25.1403484},"viewport":{"northeast":{"lat":54.64743087989272,"lng":25.14184152989272},"southwest":{"lat":54.64473122010727,"lng":25.13914187010727}}},"icon":"https://maps.gstatic.com/mapfiles/place_api/icons/v1/png_71/restaurant-71.png","icon_background_color":"#FF9E67","icon_mask_base_uri":"https://maps.gstatic.com/mapfiles/place_api/icons/v2/restaurant_pinlet","name":"Labas kebabas","opening_hours":{"open_now":true},"photos":[{"height":2375,"html_attributions":["<a href=\"https://maps.google.com/maps/contrib/104014149555990951402\">A Google User</a>"],"photo_reference":"AeJbb3eF4vsDXFTM8g4Dk2lhEk_UggutogLIb_O8f4_BWs8SPW_wce9uF8OBlgQFGD9oqKvAmrfHyKBGnCO8ao0ajtbM5wamED9OZV88uQZLwJsw4SIguQiZdE_v-NXZIMRMqonB5EHaBEXdVqE9iQIAXgeFn5eTft6IzjxIYK_alkTLclm2","width":2760}],"place_id":"ChIJKfRKtSmT3UYRxzgX7PJSTm4","plus_code":{"compound_code":"J4WR+C5 Vilnius","global_code":"9G67J4WR+C5"},"price_level":1,"rating":4.4,"reference":"ChIJKfRKtSmT3UYRxzgX7PJSTm4","types":["restaurant","point_of_interest","food","establishment"],"user_ratings_total":123},{"business_status":"OPERATIONAL","formatted_address":"Tauro g. 3, Vilnius 03106","geometry":{"location":{"lat":54.6841947,"lng":25.2732775},"viewport":{"northeast":{"lat":54.68553312989272,"lng":25.27460667989272},"southwest":{"lat":54.68283347010728,"lng":25.27190702010727}}},"icon":"https://maps.gstatic.com/mapfiles/place_api/icons/v1/png_71/restaurant-71.png","icon_background_color":"#FF9E67","icon_mask_base_uri":"https://maps.gstatic.com/mapfiles/place_api/icons/v2/restaurant_pinlet","name":"Jammi","opening_hours":{"open_now":true},"photos":[{"height":1365,"html_attributions":["<a href=\"https://maps.google.com/maps/contrib/116635689364452141224\">A Google User</a>"],"photo_reference":"AeJbb3eMPAjfHIMKN9a-VPVIZXAMNjfM9c62DHULv8DHu3G3jELNgQKRi9-oArVcrYZ7DdH5orrPQae0idKjwt_Ay--kc84j7WC0QV4Iz4XOXN3lJvvym-GxQB-6FfHCmohLejYvFwA8qe3GPRlnm4rXLLSwbPeZyqtGdp81vqER2gIMgT-l","width":1365}],"place_id":"ChIJTwtqAr_s3UYRKmUzTtPTb-Q","plus_code":{"compound_code":"M7MF+M8 Vilnius","global_code":"9G67M7MF+M8"},"price_level":1,"rating":4.3,"reference":"ChIJTwtqAr_s3UYRKmUzTtPTb-Q","types":["restaurant","point_of_interest","food","establishment"],"user_ratings_total":3090},{"business_status":"OPERATIONAL","formatted_address":"J. Jasinskio g. 16, Vilnius 01112","geometry":{"location":{"lat":54.68784729999999,"lng":25.2609317},"viewport":{"northeast":{"lat":54.68924462989273,"lng":25.26229672989272},"southwest":{"lat":54.68654497010728,"lng":25.25959707010728}}},"icon":"https://maps.gstatic.com/mapfiles/place_api/icons/v1/png_71/restaurant-71.png","icon_background_color":"#FF9E67","icon_mask_base_uri":"https://maps.gstatic.com/mapfiles/place_api/icons/v2/restaurant_pinlet","name":"Trapeza","opening_hours":{"open_now":false},"photos":[{"height":2160,"html_attributions":["<a href=\"https://maps.google.com/maps/contrib/101928435901845840470\">Romas Quicker</a>"],"photo_reference":"AeJbb3fcSq-ArxsD98VhUIq3fdFPIPdpiI4004QYV6pupMElgoMl20K8DfhDciqR1FkBCdoDxLBSLez1-l36DyZYMyOP902B0u-yVMzFo5Su3idJzQHrvoUxTDWhFiYF2tYjAkWGkQ4glILqJVN7WldfIH8_CAC6-d1o11SpiqeJWHBRA_3U","width":3840}],"place_id":"ChIJj69U9AmU3UYR1RUSe7Zf4DY","plus_code":{"compound_code":"M7Q6+49 Vilnius","global_code":"9G67M7Q6+49"},"price_level":1,"rating":4.3,"reference":"ChIJj69U9AmU3UYR1RUSe7Zf4DY","types":["restaurant","food","point_of_interest","establishment"],"user_ratings_total":207},{"business_status":"OPERATIONAL","formatted_address":"Mokslininkų g. 6a, Vilnius 08412","geometry":{"location":{"lat":54.7522727,"lng":25.2648837},"viewport":{"northeast":{"lat":54.75366662989273,"lng":25.26626657989272},"southwest":{"lat":54.75096697010728,"lng":25.26356692010728}}},"icon":"https://maps.gstatic.com/mapfiles/place_api/icons/v1/png_71/restaurant-71.png","icon_background_color":"#FF9E67","icon_mask_base_uri":"https://maps.gstatic.com/mapfiles/place_api/icons/v2/restaurant_pinlet","name":"Snatch (Mokslininkų g.)","opening_hours":{"open_now":true},"photos":[{"height":4403,"html_attributions":["<a href=\"https://maps.google.com/maps/contrib/110055456569192206559\">A Google User</a>"],"photo_reference":"AeJbb3daYrxuRd4G3sLhjGDEYCp01qfIYSmJ6NzgAk_4krGMOlYgAaG12wC5LcKQiRQzVcwvHdI3Oe8oDLbDuHtacVrxGFLuTxueu99CXwDZNfVw31zYRRCIXVY1z-1QxrLEe974bnmXGZVBbIxNDNOXJTFgxMfjJgJ1-bZEjMOPiZPsGxLw","width":6530}],"place_id":"ChIJvcEMqiaR3UYRQJhwyM82su4","plus_code":{"compound_code":"Q727+WX Vilnius","global_code":"9G67Q727+WX"},"rating":4.3,"reference":"ChIJvcEMqiaR3UYRQJhwyM82su4","types":["restaurant","point_of_interest","food","establishment"],"user_ratings_total":72},{"business_status":"OPERATIONAL","formatted_address":"Ukmergės g. 229, Vilnius 07160","geometry":{"location":{"lat":54.7200322,"lng":25.2469099},"viewport":{"northeast":{"lat":54.72142632989272,"lng":25.24831167989272},"southwest":{"lat":54.71872667010727,"lng":25.24561202010728}}},"icon":"https://maps.gstatic.com/mapfiles/place_api/icons/v1/png_71/restaurant-71.png","icon_background_color":"#FF9E67","icon_mask_base_uri":"https://maps.gstatic.com/mapfiles/place_api/icons/v2/restaurant_pinlet","name":"McDonald's","opening_hours":{"open_now":true},"photos":[{"height":1936,"html_attributions":["<a href=\"https://maps.google.com/maps/contrib/101548813389219521201\">McDonald`s, restoranas, Premier restaurants</a>"],"photo_reference":"AeJbb3cBDShPLw7gdD15RZAYlQM9pF9wkmhuqCMkT5newC1D_PNBNTJDwSBTt3tq-o_ryse38CBfpFanqWn2pDlYlDNlUUvmsQ2C_vBNp6xrRMGORG7MW3DZyTsREEu9tWUlz10vpWEfqOga1xshuOBIjQqvgS_hCiMUnFtxoLD8KygcrnQh","width":2592}],"place_id":"ChIJ74_fPf2T3UYRkSnwVjFb-fY","plus_code":{"compound_code":"P6CW+2Q Vilnius","global_code":"9G67P6CW+2Q"},"price_level":2,"rating":4.2,"reference":"ChIJ74_fPf2T3UYRkSnwVjFb-fY","types":["restaurant","food","point_of_interest","establishment"],"user_ratings_total":5305},{"business_status":"OPERATIONAL","formatted_address":"Vikingų g. 3, Vilnius 02182","geometry":{"location":{"lat":54.6539982,"lng":25.2777071},"viewport":{"northeast":{"lat":54.65534252989272,"lng":25.27920607989272},"southwest":{"lat":54.65264287010728,"lng":25.27650642010728}}},"icon":"https://maps.gstatic.com/mapfiles/place_api/icons/v1/png_71/restaurant-71.png","icon_background_color":"#FF9E67","icon_mask_base_uri":"https://maps.gstatic.com/mapfiles/place_api/icons/v2/restaurant_pinlet","name":"McDonald's","opening_hours":{"open_now":true},"photos":[{"height":683,"html_attributions":["<a href=\"https://maps.google.com/maps/contrib/108680421402098923930\">McDonald&#39;s</a>"],"photo_reference":"AeJbb3dhM7ySM6zaIovM7s3gwUwSCzFL1pNFuAq7cNiONRLjpLN4C61OCNFYhP8Uo4RYa98mK3dHjw-XgGzwjEPo-nwiFvh2V-vdFNC0ERxO7ePUD0upsjBK92_i0Gx3D-bjLHgKeOA2SXBrn2NYfso568XdRDvqtf39fKYi8wBZeZT8iP6A","width":1024}],"place_id":"ChIJx4N8rfeU3UYRiAXe7ZQdSEo","plus_code":{"compound_code":"M73H+H3 Vilnius","global_code":"9G67M73H+H3"},"price_level":2,"rating":4.2,"reference":"ChIJx4N8rfeU3UYRiAXe7ZQdSEo","types":["restaurant","food","point_of_interest","establishment"],"user_ratings_total":3263},{"business_status":"OPERATIONAL","formatted_address":"Kedrų g. 2A, Vilnius 03159","geometry":{"location":{"lat":54.6764484,"lng":25.2565888},"viewport":{"northeast":{"lat":54.67784652989272,"lng":25.25801467989272},"southwest":{"lat":54.67514687010728,"lng":25.25531502010728}}},"icon":"https://maps.gstatic.com/mapfiles/place_api/icons/v1/png_71/restaurant-71.png","icon_background_color":"#FF9E67","icon_mask_base_uri":"https://maps.gstatic.com/mapfiles/place_api/icons/v2/restaurant_pinlet","name":"McDonald's","opening_hours":{"open_now":true},"photos":[{"height":3024,"html_attributions":["<a href=\"https://maps.google.com/maps/contrib/103401881607237656604\">Sigitas Rokas</a>"],"photo_reference":"AeJbb3dwHhd2VaXjtDvJjeZhNI9OpsB7u7GKldY1axMPfXD-Ehjo7KUcpc9R2zyQqbLVs_xSaCN6bYLHqxs0-6f4G_wIdSv5H6RyEN4bsz8QhfFGqFYKxLyGARpdU1bss8fvz0AWhUM8t-uaMCPwv7CbnbNmP-2sJ641U66chbtLdQFzO9bE","width":4032}],"place_id":"ChIJQwJCrHaU3UYR6Tv71ySbMsE","plus_code":{"compound_code":"M7G4+HJ Vilnius","global_code":"9G67M7G4+HJ"},"price_level":2,"rating":4.2,"reference":"ChIJQwJCrHaU3UYR6Tv71ySbMsE","types":["restaurant","food","point_of_interest","establishment"],"user_ratings_total":2600},{"business_status":"OPERATIONAL","formatted_address":"Ozo g. 25, Vilnius 08217","geometry":{"location":{"lat":54.7105279,"lng":25.2639228},"viewport":{"northeast":{"lat":54.71162797989273,"lng":25.26552362989273},"southwest":{"lat":54.70892832010728,"lng":25.26282397010728}}},"icon":"https://maps.gstatic.com/mapfiles/place_api/icons/v1/png_71/restaurant-71.png","icon_background_color":"#FF9E67","icon_mask_base_uri":"https://maps.gstatic.com/mapfiles/place_api/icons/v2/restaurant_pinlet","name":"McDonald's","opening_hours":{"open_now":true},"photos":[{"height":1555,"html_attributions":["<a href=\"https://maps.google.com/maps/contrib/114457805371415662038\">McDonald&#39;s Restaurants</a>"],"photo_reference":"AeJbb3fYVqoOYuq7CD6oKT6y-RFlqzhK-l2j4lGLVEFzYegneIbAfuqqttW2FtL1ClrQxdP0cUN0gYiouP3U1r1YxnseXawPx52TvYhtwtv8-_Zr2uZTWcq1AiLH-ds7GWhZiUWXghZJz0uIeYpv9wPrIi4hoavCR_kcIfyieoAyenafCWVB","width":2048}],"place_id":"ChIJxQN5WleR3UYRvyf92Vy678I","plus_code":{"compound_code":"P767+6H Vilnius","global_code":"9G67P767+6H"},"price_level":2,"rating":4.2,"reference":"ChIJxQN5WleR3UYRvyf92Vy678I","types":["cafe","store","restaurant","food","point_of_interest","establishment"],"user_ratings_total":2540},{"business_status":"OPERATIONAL","formatted_address":"Saltoniškių g. 9, Vilnius 08105","geometry":{"location":{"lat":54.7004849,"lng":25.2567763},"viewport":{"northeast":{"lat":54.70186552989272,"lng":25.25794357989272},"southwest":{"lat":54.69916587010728,"lng":25.25524392010728}}},"icon":"https://maps.gstatic.com/mapfiles/place_api/icons/v1/png_71/restaurant-71.png","icon_background_color":"#FF9E67","icon_mask_base_uri":"https://maps.gstatic.com/mapfiles/place_api/icons/v2/restaurant_pinlet","name":"McDonald's","opening_hours":{"open_now":true},"photos":[{"height":1365,"html_attributions":["<a href=\"https://maps.google.com/maps/contrib/113706264068023136312\">McDonald&#39;s &quot;Panorama&quot;</a>"],"photo_reference":"AeJbb3fceSaDmc05iTWpAJF91Pw-9e5LQAsWwEapFPiguaFzcJjD-iZA_lRDU34MWEKLrScnPzp-7RJZJsGI5wCL1AAcGDeo5zkUR1XBGaaES4xAHQvVrY2kBWmEhRtResBD-jpzzFZsx55LevPZO91xV2oyzuZ3Di41QvLrgp9Wkb0OV8-n","width":2048}],"place_id":"ChIJneD59fuT3UYRaS9LAAIXC8E","plus_code":{"compound_code":"P724+5P Vilnius","global_code":"9G67P724+5P"},"price_level":2,"rating":4.2,"reference":"ChIJneD59fuT3UYRaS9LAAIXC8E","types":["cafe","restaurant","food","point_of_interest","store","establishment"],"user_ratings_total":1020},{"business_status":"OPERATIONAL","formatted_address":"J. Tiškevičiaus g. 19, Vilnius 02231","geometry":{"location":{"lat":54.6243923,"lng":25.1119105},"viewport":{"northeast":{"lat":54.62568262989272,"lng":25.11373242989272},"southwest":{"lat":54.62298297010728,"lng":25.11103277010728}}},"icon":"https://maps.gstatic.com/mapfiles/place_api/icons/v1/png_71/restaurant-71.png","icon_background_color":"#FF9E67","icon_mask_base_uri":"https://maps.gstatic.com/mapfiles/place_api/icons/v2/restaurant_pinlet","name":"Hesburger","opening_hours":{"open_now":true},"photos":[{"height":3000,"html_attributions":["<a href=\"https://maps.google.com/maps/contrib/113191852589108584198\">Viktoras Galumbauskas</a>"],"photo_reference":"AeJbb3eAMAm0FggLaFDESh7zNHfK57V8DVIR2FN3_gIedjEV9swnMVZpxoZH8LHVysndgryeZ7kkYz-_8_ppbt1JzNl3QBmBqHO7MaOgjP2Dmstq_heBfQq04JW0CzR3y9tS24T3eEUnnR6FNZymm0BGsYIzz43HZy-Oce3faaXxmCEXPu_y","width":4000}],"place_id":"ChIJ68Ox8yDt3UYRhy3G0ZTrvy0","plus_code":{"compound_code":"J4F6+QQ Vilnius","global_code":"9G67J4F6+QQ"},"price_level":1,"rating":4.2,"reference":"ChIJ68Ox8yDt3UYRhy3G0ZTrvy0","types":["restaurant","food","point_of_interest","establishment"],"user_ratings_total":849},{"business_status":"OPERATIONAL","formatted_address":"P. Lukšio g. 11, Vilnius 09108","geometry":{"location":{"lat":54.7128445,"lng":25.2911682},"viewport":{"northeast":{"lat":54.71412387989272,"lng":25.29246427989272},"southwest":{"lat":54.71142422010728,"lng":25.28976462010728}}},"icon":"https://maps.gstatic.com/mapfiles/place_api/icons/v1/png_71/restaurant-71.png","icon_background_color":"#FF9E67","icon_mask_base_uri":"https://maps.gstatic.com/mapfiles/place_api/icons/v2/restaurant_pinlet","name":"Jammi","opening_hours":{"open_now":true},"photos":[{"height":1365,"html_attributions":["<a href=\"https://maps.google.com/maps/contrib/101594405943215558009\">A Google User</a>"],"photo_reference":"AeJbb3c6jd2lWI6bpTfP7dzIti4bpGfQGmYdp5vN_yUj6zI55A4IMSe7upo91YFTKsiIvfIKMEWBhYDfEH8twgrBh_EF3EK8Y7ctQ3exG4FBZgSL3WxMuckNi4GssYtHyS3CNBHi6rtzOYBR-cI5151wmjszbeT5cPQxzDE95PeXR6-BdqWL","width":2048}],"place_id":"ChIJK1OT8L6X3UYRjw02xOYeZjk","plus_code":{"compound_code":"P77R+4F Vilnius","global_code":"9G67P77R+4F"},"price_level":1,"rating":4.2,"reference":"ChIJK1OT8L6X3UYRjw02xOYeZjk","types":["restaurant","food","point_of_interest","establishment"],"user_ratings_total":528},{"business_status":"OPERATIONAL","formatted_address":"A. J. Povilaičio g. 16, Vilnius 04338","geometry":{"location":{"lat":54.697743,"lng":25.2220153},"viewport":{"northeast":{"lat":54.69912277989272,"lng":25.22329992989272},"southwest":{"lat":54.69642312010728,"lng":25.22060027010728}}},"icon":"https://maps.gstatic.com/mapfiles/place_api/icons/v1/png_71/restaurant-71.png","icon_background_color":"#FF9E67","icon_mask_base_uri":"https://maps.gstatic.com/mapfiles/place_api/icons/v2/restaurant_pinlet","name":"Kebabai visą parą","opening_hours":{"open_now":true},"photos":[{"height":3024,"html_attributions":["<a href=\"https://maps.google.com/maps/contrib/113458076408257118007\">Giedrius Varnas</a>"],"photo_reference":"AeJbb3d80BrEMOKsN0bWk1DRzPVeeNP4fmTZk-iUi6ElPERBEf-RL1R9SplIeILFVCjz3xE8ltFYWm_YCbylGlf6fgfX_1A_yfljRCiDQx6zSXqiBub_Ix1OkV0QRhgx3qMO6_jD4jycZItRFuifYE0TvkNm_iXyuoxhfWLMl18JAZu1CbBB","width":4032}],"place_id":"ChIJISRDLbST3UYRitXl4X7LRNg","plus_code":{"compound_code":"M6XC+3R Vilnius","global_code":"9G67M6XC+3R"},"rating":4.2,"reference":"ChIJISRDLbST3UYRitXl4X7LRNg","types":["restaurant","food","point_of_interest","establishment"],"user_ratings_total":200},{"business_status":"OPERATIONAL","formatted_address":"Savanorių pr. 218B, Vilnius 02301","geometry":{"location":{"lat":54.6444002,"lng":25.2075603},"viewport":{"northeast":{"lat":54.64573182989272,"lng":25.20885222989272},"southwest":{"lat":54.64303217010728,"lng":25.20615257010727}}},"icon":"https://maps.gstatic.com/mapfiles/place_api/icons/v1/png_71/restaurant-71.png","icon_background_color":"#FF9E67","icon_mask_base_uri":"https://maps.gstatic.com/mapfiles/place_api/icons/v2/restaurant_pinlet","name":"Hesburger","opening_hours":{"open_now":true},"photos":[{"height":1400,"html_attributions":["<a href=\"https://maps.google.com/maps/contrib/117820991531395683062\">A Google User</a>"],"photo_reference":"AeJbb3e0hJcUbFA5_5Gm0sIYADYiaCIAr2ufNH9ZdsxFhP3oYbDvK_Sfcux3_CkJUnFo1y-uJPuPX1PbFezLHFXk3K9zI4lMWyaF9-ejdUu84Nw54kimm8_FOfMwNQwXiA0KdCn5Ek4Qi0Rmszm2Hn-XdJu0aG3qgrs_iHt9d66NuxMaxZer","width":2100}],"place_id":"ChIJIxIeNMmT3UYRmHrYe1Dkrs4","plus_code":{"compound_code":"J6V5+P3 Vilnius","global_code":"9G67J6V5+P3"},"price_level":1,"rating":4.2,"reference":"ChIJIxIeNMmT3UYRmHrYe1Dkrs4","types":["restaurant","food","point_of_interest","establishment"],"user_ratings_total":131},{"business_status":"OPERATIONAL","formatted_address":"Saulėtekio al. 18-2, Vilnius 10223","geometry":{"location":{"lat":54.7258046,"lng":25.3305567},"viewport":{"northeast":{"lat":54.72711817989272,"lng":25.33159017989272},"southwest":{"lat":54.72441852010728,"lng":25.32889052010728}}},"icon":"https://maps.gstatic.com/mapfiles/place_api/icons/v1/png_71/restaurant-71.png","icon_background_color":"#FF9E67","icon_mask_base_uri":"https://maps.gstatic.com/mapfiles/place_api/icons/v2/restaurant_pinlet","name":"Yala Yala bistro","opening_hours":{"open_now":true},"photos":[{"height":3024,"html_attributions":["<a href=\"https://maps.google.com/maps/contrib/101038305899112419102\">Saulius Vasiliauskas</a>"],"photo_reference":"AeJbb3c1biv36WtaxzV23MQ1-ODcQTaZI-OybqYTm3LpR_R00xhz3MJ_8Xo3me7Hl5B37BACOTfeocsILc4Hv76VZs6S3wWiL-VFxcEoocnZPP7Nws2lO72pL_RnNLmBW1ZWwWqdFQYNb1js_CZsB2_wkmfjL5Li5ZLixT47Q4da3mdlJDYk","width":4032}],"place_id":"ChIJU9iknheX3UYRf3agn04YV_o","plus_code":{"compound_code":"P8GJ+86 Vilnius","global_code":"9G67P8GJ+86"},"rating":4.2,"reference":"ChIJU9iknheX3UYRf3agn04YV_o","types":["restaurant","point_of_interest","food","establishment"],"user_ratings_total":98},{"business_status":"OPERATIONAL","formatted_address":"Gedimino pr. 9, Vilnius 01103","geometry":{"location":{"lat":54.6872998,"lng":25.2817166},"viewport":{"northeast":{"lat":54.68842192989272,"lng":25.28291452989272},"southwest":{"lat":54.68572227010728,"lng":25.28021487010728}}},"icon":"https://maps.gstatic.com/mapfiles/place_api/icons/v1/png_71/restaurant-71.png","icon_background_color":"#FF9E67","icon_mask_base_uri":"https://maps.gstatic.com/mapfiles/place_api/icons/v2/restaurant_pinlet","name":"IT'S Corndog","opening_hours":{"open_now":true},"photos":[{"height":3024,"html_attributions":["<a href=\"https://maps.google.com/maps/contrib/106590593991393418435\">A Google User</a>"],"photo_reference":"AeJbb3eVE68V6W4aUQSlJ9RClzFk3QsTPoEEqSFZU-wCcNyXYS32149I9ADDSTQFzSl-1INXRG76DXqczQP1zwN3C48RN-T6nwfA9kKRrP4VZQ_jQxG2ZWlhTh08s5Sn-9vi8lEuky5ODPCokyMW9bhEX_ouSb9FQfYw-g_UJrSGZGb2uxBT","width":4032}],"place_id":"ChIJw6rHiBeV3UYRFcx5zQ0Lgz4","plus_code":{"compound_code":"M7PJ+WM Vilnius","global_code":"9G67M7PJ+WM"},"rating":4.2,"reference":"ChIJw6rHiBeV3UYRFcx5zQ0Lgz4","types":["restaurant","point_of_interest","food","establishment"],"user_ratings_total":30},{"business_status":"OPERATIONAL","formatted_address":"Gedimino pr. 15, Vilnius 01103","geometry":{"location":{"lat":54.6874446,"lng":25.2785418},"viewport":{"northeast":{"lat":54.68876637989273,"lng":25.27987782989272},"southwest":{"lat":54.68606672010728,"lng":25.27717817010728}}},"icon":"https://maps.gstatic.com/mapfiles/place_api/icons/v1/png_71/restaurant-71.png","icon_background_color":"#FF9E67","icon_mask_base_uri":"https://maps.gstatic.com/mapfiles/place_api/icons/v2/restaurant_pinlet","name":"McDonald's","opening_hours":{"open_now":true},"photos":[{"height":505,"html_attributions":["<a href=\"https://maps.google.com/maps/contrib/108112927148320580923\">McDonald&#39;s Restaurants</a>"],"photo_reference":"AeJbb3fSD5qxE-E_AkyTQI22wQP4AhuqKLvvQ1tbLwY7dIvmihoYewYphvVAVHQD6M_Zdjq1GBKXlacUUduJuOmC-ZNvN6r93M7edMV072mZlhRydf_4kGRJ6sf0yUZanc7-4ewOoGznUUPXptamzQYFfOJrvnBFbzDruksiAPWa_4b5s5Cm","width":1500}],"place_id":"ChIJZRZQJhCU3UYRRMKcU2izpVw","plus_code":{"compound_code":"M7PH+XC Vilnius","global_code":"9G67M7PH+XC"},"price_level":2,"rating":4.1,"reference":"ChIJZRZQJhCU3UYRRMKcU2izpVw","types":["cafe","restaurant","food","point_of_interest","store","establishment"],"user_ratings_total":6686},{"business_status":"OPERATIONAL","formatted_address":"Ukmergės g. 238, Vilnius 07160","geometry":{"location":{"lat":54.7201919,"lng":25.2438164},"viewport":{"northeast":{"lat":54.72149932989272,"lng":25.24532502989272},"southwest":{"lat":54.71879967010728,"lng":25.24262537010728}}},"icon":"https://maps.gstatic.com/mapfiles/place_api/icons/v1/png_71/restaurant-71.png","icon_background_color":"#FF9E67","icon_mask_base_uri":"https://maps.gstatic.com/mapfiles/place_api/icons/v2/restaurant_pinlet","name":"Hesburger","opening_hours":{"open_now":true},"photos":[{"height":1080,"html_attributions":["<a href=\"https://maps.google.com/maps/contrib/112010386540340880143\">Kęstas S</a>"],"photo_reference":"AeJbb3eMV-5W6oZRTILts-pPADvE2urXFgDRPVauXvMSU402QY9-ulApTDvSsPGNs34WUU6jMqbbVtLkEfG_li_xS1u5-RHtgvQcp0o10EBWKuwpgrS_F3k1bnJIrSuJp5TelTsTovi_-DvG0dOswruGChjcMiMKXUTkGJerrxpPZmXwtkJ1","width":1920}],"place_id":"ChIJQ32vJWaR3UYRxO7k7f9nti4","plus_code":{"compound_code":"P6CV+3G Vilnius","global_code":"9G67P6CV+3G"},"price_level":1,"rating":4.1,"reference":"ChIJQ32vJWaR3UYRxO7k7f9nti4","types":["restaurant","food","point_of_interest","establishment"],"user_ratings_total":2323},{"business_status":"OPERATIONAL","formatted_address":"Erfurto g. 41, Vilnius 04226","geometry":{"location":{"lat":54.6726197,"lng":25.1982895},"viewport":{"northeast":{"lat":54.67401322989272,"lng":25.19957537989272},"southwest":{"lat":54.67131357010728,"lng":25.19687572010728}}},"icon":"https://maps.gstatic.com/mapfiles/place_api/icons/v1/png_71/restaurant-71.png","icon_background_color":"#FF9E67","icon_mask_base_uri":"https://maps.gstatic.com/mapfiles/place_api/icons/v2/restaurant_pinlet","name":"Hesburger","opening_hours":{"open_now":true},"photos":[{"height":3096,"html_attributions":["<a href=\"https://maps.google.com/maps/contrib/103445710787031585584\">Laurynas Kundrotas</a>"],"photo_reference":"AeJbb3dOMTE6OIby5WqxZCYXWlJ-f1a8NvfPkVHnucCvj7PC8rKMrcsnGesIAFVd2FH2Ir71ITW_Rgkm1rHxCidcS5mt6H44jVWSpQC9dU8WhCm2gQoGuGfWqjciA3le5PjsmFXDXLMRqSe5VKQ9DZmJNu4ZWMdOTTzTlKTr0qABnz6ke6ey","width":4128}],"place_id":"ChIJU7rrfaCT3UYRapK8SuMqt6k","plus_code":{"compound_code":"M5FX+28 Vilnius","global_code":"9G67M5FX+28"},"price_level":1,"rating":4.1,"reference":"ChIJU7rrfaCT3UYRapK8SuMqt6k","types":["restaurant","point_of_interest","food","establishment"],"user_ratings_total":1731},{"business_status":"OPERATIONAL","formatted_address":"Jammi Grill Tymo Turgus, Aukštaičių g., Vilnius 01300","geometry":{"location":{"lat":54.6785648,"lng":25.2949548},"viewport":{"northeast":{"lat":54.67995882989272,"lng":25.29645857989272},"southwest":{"lat":54.67725917010728,"lng":25.29375892010728}}},"icon":"https://maps.gstatic.com/mapfiles/place_api/icons/v1/png_71/restaurant-71.png","icon_background_color":"#FF9E67","icon_mask_base_uri":"https://maps.gstatic.com/mapfiles/place_api/icons/v2/restaurant_pinlet","name":"Jammi Grill","opening_hours":{"open_now":true},"photos":[{"height":2000,"html_attributions":["<a href=\"https://maps.google.com/maps/contrib/113767581652172485487\">виталий Петруневич</a>"],"photo_reference":"AeJbb3eXUmfDRE_3vwm9bAEw9Nd2VfMioaYd16MGQiFM9kOb-91RZ-BWNDNPQDUznfn7eW2AML0-zBhWHIUkOBW4r5efbdjDmxvfxhoXtZr9sxHszZZIUXnl5BB8cDaHF4_sCsKAlRCdBkYmObDSjSRQ4r0Hluu13uMRpUG5qZutWowkYvMP","width":4000}],"place_id":"ChIJt4fHYT6U3UYR4ovZTayuOiU","plus_code":{"compound_code":"M7HV+CX Vilnius","global_code":"9G67M7HV+CX"},"rating":4.1,"reference":"ChIJt4fHYT6U3UYR4ovZTayuOiU","types":["restaurant","food","point_of_interest","establishment"],"user_ratings_total":1102},{"business_status":"OPERATIONAL","formatted_address":"Savanorių pr. 187b, Vilnius 02300","geometry":{"location":{"lat":54.6471902,"lng":25.2109896},"viewport":{"northeast":{"lat":54.64851777989272,"lng":25.21237722989272},"southwest":{"lat":54.64581812010727,"lng":25.20967757010727}}},"icon":"https://maps.gstatic.com/mapfiles/place_api/icons/v1/png_71/restaurant-71.png","icon_background_color":"#FF9E67","icon_mask_base_uri":"https://maps.gstatic.com/mapfiles/place_api/icons/v2/restaurant_pinlet","name":"Hesburger","opening_hours":{"open_now":true},"photos":[{"height":2268,"html_attributions":["<a href=\"https://maps.google.com/maps/contrib/117082609437347210955\">Alina Ziziene</a>"],"photo_reference":"AeJbb3dacLwb3fztY8N_r16eGjRIjO1aWTTxRuoT0CszWD2fUk9_xUKO0BSol2ss-cO_hqDp5AzuqxruAvNJiMl8kRDT53B1GrtAhnR91d9VRzM1R_7Z-D2QvtrXPelIYs2qffwTPf_vN_9PRIvcZ4H5VnTyIuC5ur_ZmQ6cRvMfVpYSwzXB","width":4032}],"place_id":"ChIJT_G06KuT3UYR5gIr1hCMp7k","plus_code":{"compound_code":"J6W6+V9 Vilnius","global_code":"9G67J6W6+V9"},"price_level":1,"rating":4.1,"reference":"ChIJT_G06KuT3UYR5gIr1hCMp7k","types":["restaurant","food","point_of_interest","establishment"],"user_ratings_total":995},{"business_status":"OPERATIONAL","formatted_address":"Eišiškių pl. 82, Vilnius 02200","geometry":{"location":{"lat":54.621393,"lng":25.2428157},"viewport":{"northeast":{"lat":54.62273137989272,"lng":25.24420017989272},"southwest":{"lat":54.62003172010728,"lng":25.24150052010728}}},"icon":"https://maps.gstatic.com/mapfiles/place_api/icons/v1/png_71/restaurant-71.png","icon_background_color":"#FF9E67","icon_mask_base_uri":"https://maps.gstatic.com/mapfiles/place_api/icons/v2/restaurant_pinlet","name":"Kebab inn","opening_hours":{"open_now":true},"photos":[{"height":2048,"html_attributions":["<a href=\"https://maps.google.com/maps/contrib/114467080327647894716\">Ana Aliasevic</a>"],"photo_reference":"AeJbb3f16efuFtmvHr1HxhJFrWMGoajTpej0GF49H9Gkzfjo9mkvSEz1h_aAKzBAuqMI8GsWBTKNV0oHIghd-Yhj1IkUHEKWZkblzGns4EIsixhu8tVBL9Hyg5Dmlut6Ianaa7p3sNyvC8dvZZXWYkE6UPDiHWW_LbzLbcRJpyPCe8JBNG8X","width":1536}],"place_id":"ChIJlzTv00iV3UYRWNQHVWIfIbM","plus_code":{"compound_code":"J6CV+G4 Vilnius","global_code":"9G67J6CV+G4"},"rating":4.1,"reference":"ChIJlzTv00iV3UYRWNQHVWIfIbM","types":["restaurant","food","point_of_interest","establishment"],"user_ratings_total":132},{"business_status":"OPERATIONAL","formatted_address":"Laisvės pr. 36, Vilnius 04340","geometry":{"location":{"lat":54.69461339999999,"lng":25.2169765},"viewport":{"northeast":{"lat":54.69598892989272,"lng":25.21834767989272},"southwest":{"lat":54.69328927010727,"lng":25.21564802010728}}},"icon":"https://maps.gstatic.com/mapfiles/place_api/icons/v1/png_71/restaurant-71.png","icon_background_color":"#FF9E67","icon_mask_base_uri":"https://maps.gstatic.com/mapfiles/place_api/icons/v2/restaurant_pinlet","name":"Dodo Pizza","opening_hours":{"open_now":true},"photos":[{"height":4624,"html_attributions":["<a href=\"https://maps.google.com/maps/contrib/108714290848139002821\">sherzod isaev</a>"],"photo_reference":"AeJbb3cRl7E4j9mnzVJmDosjW8zPV_5x343NH7xAYi984tCzpow0zLleQ57KeIq8T86I2_dATd7BMkJVPbpEiX2381mdJMXhTXn5yYEB3jVszwlaXfyKshWaB7nwxnYAYWdFJ06atiSDloFcu9yNEY9URasTsLtYuOtO-g-NevPjcdRslUmw","width":3468}],"place_id":"ChIJfZn7sHGT3UYRz41ZqhDr3b4","plus_code":{"compound_code":"M6V8+RQ Vilnius","global_code":"9G67M6V8+RQ"},"rating":4.1,"reference":"ChIJfZn7sHGT3UYRz41ZqhDr3b4","types":["restaurant","food","point_of_interest","establishment"],"user_ratings_total":7},{"business_status":"OPERATIONAL","formatted_address":"Kareivių g. 15, Vilnius 09109","geometry":{"location":{"lat":54.7190434,"lng":25.301537},"viewport":{"northeast":{"lat":54.72039247989272,"lng":25.30290282989272},"southwest":{"lat":54.71769282010728,"lng":25.30020317010728}}},"icon":"https://maps.gstatic.com/mapfiles/place_api/icons/v1/png_71/restaurant-71.png","icon_background_color":"#FF9E67","icon_mask_base_uri":"https://maps.gstatic.com/mapfiles/place_api/icons/v2/restaurant_pinlet","name":"McDonald's","opening_hours":{"open_now":true},"photos":[{"height":3024,"html_attributions":["<a href=\"https://maps.google.com/maps/contrib/101963402286454941240\">Giedre Slivko</a>"],"photo_reference":"AeJbb3eGKG4XEF4YAMgHwss_ZtCRgREYAy7CVGNDhaMFYi4M8M95y5biRrvdlEO0AaG5YnMDFWB18_1Br76BoMiYF8I0g0SGIBRgdLJnXoUD8hpT24kf9ezzifF4Plk6onSKVtNeBPYuL7It6i-gnmGO8rdsGd5uDwnVhlxE2ZsVB8-xf03Q","width":4032}],"place_id":"ChIJazyPEraW3UYR067Maup8E1g","plus_code":{"compound_code":"P892+JJ Vilnius","global_code":"9G67P892+JJ"},"price_level":2,"rating":4,"reference":"ChIJazyPEraW3UYR067Maup8E1g","types":["restaurant","food","point_of_interest","establishment"],"user_ratings_total":5799},{"business_status":"OPERATIONAL","formatted_address":"Ozo g. 18, PC Ozas, 08243","geometry":{"location":{"lat":54.7146504,"lng":25.2756357},"viewport":{"northeast":{"lat":54.71584057989273,"lng":25.27701802989272},"southwest":{"lat":54.71314092010728,"lng":25.27431837010728}}},"icon":"https://maps.gstatic.com/mapfiles/place_api/icons/v1/png_71/restaurant-71.png","icon_background_color":"#FF9E67","icon_mask_base_uri":"https://maps.gstatic.com/mapfiles/place_api/icons/v2/restaurant_pinlet","name":"KFC","opening_hours":{"open_now":true},"photos":[{"height":9248,"html_attributions":["<a href=\"https://maps.google.com/maps/contrib/110539078870958775932\">Virgaudas Jonušas</a>"],"photo_reference":"AeJbb3fA-uGZMMZGnX6HFcHv5VkG6vmyQ0iNTci_PzFNBWKNz_bGhRwpfzqpMHWwvb4T1rBn8HRHDxqSCda6a2CjufboVmN4HxmOdwx63JEiPL2KHWP0qqQXH5PkBBE6y1St-VkywQtzGaJs9MlyTXu7g40kOVVY3DC6qDbNjaAk9E2Pi4-d","width":6936}],"place_id":"ChIJ1_ys5VGR3UYRnHa10Z8I7BI","plus_code":{"compound_code":"P77G+V7 Vilnius","global_code":"9G67P77G+V7"},"rating":4,"reference":"ChIJ1_ys5VGR3UYRnHa10Z8I7BI","types":["meal_takeaway","restaurant","food","point_of_interest","establishment"],"user_ratings_total":2100},{"business_status":"OPERATIONAL","formatted_address":"Blindžių g. 10, Vilnius 08111","geometry":{"location":{"lat":54.698297,"lng":25.2452071},"viewport":{"northeast":{"lat":54.69963387989272,"lng":25.24658507989272},"southwest":{"lat":54.69693422010727,"lng":25.24388542010728}}},"icon":"https://maps.gstatic.com/mapfiles/place_api/icons/v1/png_71/restaurant-71.png","icon_background_color":"#FF9E67","icon_mask_base_uri":"https://maps.gstatic.com/mapfiles/place_api/icons/v2/restaurant_pinlet","name":"Jammi","opening_hours":{"open_now":true},"photos":[{"height":3024,"html_attributions":["<a href=\"https://maps.google.com/maps/contrib/105278401371338087148\">Александр Волынец</a>"],"photo_reference":"AeJbb3ePwK3utQxTzs5GWwtMRqT9ZtKzZB0Ne5b5KsKyOwrC-2tEhqzSwGJ5Z21hp045mPCBSW64PVxUHUS-D-mnJkTPBmamt4cun-Pt1dPHlTlBRCcOXxzREDmMkul9Oxi9CFMSeSNXYZ5S6DtuxhHPYVeLNu1uX3_G7NdVSHqWtOLy0bxQ","width":4032}],"place_id":"ChIJe0CtbeWT3UYRC-W4KlTJPYc","plus_code":{"compound_code":"M6XW+83 Vilnius","global_code":"9G67M6XW+83"},"price_level":1,"rating":4,"reference":"ChIJe0CtbeWT3UYRC-W4KlTJPYc","types":["restaurant","point_of_interest","food","establishment"],"user_ratings_total":1670},{"business_status":"OPERATIONAL","formatted_address":"Dariaus ir Girėno g. 19A, Vilnius 02188","geometry":{"location":{"lat":54.6543104,"lng":25.2705225},"viewport":{"northeast":{"lat":54.65563722989271,"lng":25.27171567989272},"southwest":{"lat":54.65293757010726,"lng":25.26901602010727}}},"icon":"https://maps.gstatic.com/mapfiles/place_api/icons/v1/png_71/restaurant-71.png","icon_background_color":"#FF9E67","icon_mask_base_uri":"https://maps.gstatic.com/mapfiles/place_api/icons/v2/restaurant_pinlet","name":"Hesburger","opening_hours":{"open_now":true},"photos":[{"height":1080,"html_attributions":["<a href=\"https://maps.google.com/maps/contrib/104357191049156978466\">Paulius Pocius</a>"],"photo_reference":"AeJbb3fQCtkXjF93z_L_X1QDqHM-WDUHEaD_B_S9P4QvCVTLSnbLme-m_itVdgCdR5zjlLirSbLVrho5aOSspyDsgJR3CrsPVEPZWTVwx03AjmrB5-R0zbwXZ1x7WRj8gqVcmCCMnt1c6MUha1EM0b7R3YYG2tstrHTrSN2PzZtPjgTphFkN","width":1920}],"place_id":"ChIJR8AhpPWU3UYRZFIXFwsb0mI","plus_code":{"compound_code":"M73C+P6 Vilnius","global_code":"9G67M73C+P6"},"price_level":1,"rating":4,"reference":"ChIJR8AhpPWU3UYRZFIXFwsb0mI","types":["restaurant","food","point_of_interest","establishment"],"user_ratings_total":1041},{"business_status":"OPERATIONAL","formatted_address":"Gedimino pr. 24, Vilnius 01103","geometry":{"location":{"lat":54.68737489999999,"lng":25.2768889},"viewport":{"northeast":{"lat":54.68882667989271,"lng":25.27828872989272},"southwest":{"lat":54.68612702010727,"lng":25.27558907010727}}},"icon":"https://maps.gstatic.com/mapfiles/place_api/icons/v1/png_71/restaurant-71.png","icon_background_color":"#FF9E67","icon_mask_base_uri":"https://maps.gstatic.com/mapfiles/place_api/icons/v2/restaurant_pinlet","name":"Hesburger","opening_hours":{"open_now":true},"photos":[{"height":2268,"html_attributions":["<a href=\"https://maps.google.com/maps/contrib/102193784835483678790\">Shihchuan Lin</a>"],"photo_reference":"AeJbb3d1sA8KC-VEfghW_D3SWU4jsp9oCy9_TgtcTknKt2MF-QeFVXJIsKVbCzrZP4-IPhrKMRKkD1dHNUB2qJY8xypbjNYJkoSjFOY-DBEBCpyiCUi-VNk2rAGXdkuTSdE5p_ZmWK9oS8U8phxJyEwWnI6DC3yRfChXYQo8azI1CBUF7Ei5","width":4032}],"place_id":"ChIJZabl8RCU3UYRvx2rCkcD_fU","plus_code":{"compound_code":"M7PG+WQ Vilnius","global_code":"9G67M7PG+WQ"},"price_level":1,"rating":4,"reference":"ChIJZabl8RCU3UYRvx2rCkcD_fU","types":["restaurant","food","point_of_interest","establishment"],"user_ratings_total":989},{"business_status":"OPERATIONAL","formatted_address":"Sausio 13-osios g. 2, Vilnius 04343","geometry":{"location":{"lat":54.6928058,"lng":25.2211638},"viewport":{"northeast":{"lat":54.69419512989272,"lng":25.22254092989272},"southwest":{"lat":54.69149547010728,"lng":25.21984127010728}}},"icon":"https://maps.gstatic.com/mapfiles/place_api/icons/v1/png_71/restaurant-71.png","icon_background_color":"#FF9E67","icon_mask_base_uri":"https://maps.gstatic.com/mapfiles/place_api/icons/v2/restaurant_pinlet","name":"KEBAB HOUSE - Kebabinė Vilnius","opening_hours":{"open_now":true},"photos":[{"height":3906,"html_attributions":["<a href=\"https://maps.google.com/maps/contrib/102637772466932716847\">A Google User</a>"],"photo_reference":"AeJbb3fQBpy9wsCTz_Ee-boshC_CukNb00bV0Ra355tcWNKPPc-WPpgh0WFC7oIcYsel_hhfacc3LR9xTMaADRppw-6rEzUjBsqxJoIFvnps4ADmIAZtbG7ePnv07KQM9P_yhuiWLdhFFH3URBgzsH496D5pCPz1Pyv5eK9EKAzGnsmFFriq","width":10504}],"place_id":"ChIJw14RdXyT3UYRgxqCgy7baHU","plus_code":{"compound_code":"M6VC+4C Vilnius","global_code":"9G67M6VC+4C"},"rating":4,"reference":"ChIJw14RdXyT3UYRgxqCgy7baHU","types":["restaurant","food","point_of_interest","establishment"],"user_ratings_total":45},{"business_status":"OPERATIONAL","formatted_address":"4707 12-8, Lentvaris 25121","geometry":{"location":{"lat":54.6395169,"lng":25.0561115},"viewport":{"northeast":{"lat":54.64084772989272,"lng":25.05735787989272},"southwest":{"lat":54.63814807010728,"lng":25.05465822010728}}},"icon":"https://maps.gstatic.com/mapfiles/place_api/icons/v1/png_71/restaurant-71.png","icon_background_color":"#FF9E67","icon_mask_base_uri":"https://maps.gstatic.com/mapfiles/place_api/icons/v2/restaurant_pinlet","name":"Fast food","opening_hours":{"open_now":true},"photos":[{"height":4032,"html_attributions":["<a href=\"https://maps.google.com/maps/contrib/113566026569521932456\">Aurimas Meiliunas</a>"],"photo_reference":"AeJbb3eKouH9hM-Th-UvyyExRmOaLF5tRtO2bxSE2uxvBRWojnEAtCunheTx1JTYF06ft_jwS68ub_-Lj-asrrr11TQzG9I3r8vbxgY8TicW59uYhHIRWbPhfMxPnvSD19cKv6C4FvI7dTce2g4QXz6OU2hZIS1-w2IsBC-0_zgaZvkshqic","width":3024}],"place_id":"ChIJwZKFH7bt3UYRLIiqVRArpXQ","plus_code":{"compound_code":"J3Q4+RC Lentvaris","global_code":"9G67J3Q4+RC"},"rating":4,"reference":"ChIJwZKFH7bt3UYRLIiqVRArpXQ","types":["restaurant","food","point_of_interest","establishment"],"user_ratings_total":24},{"business_status":"OPERATIONAL","formatted_address":"2 aukštas, Savanorių pr. 176, Vilnius 03154","geometry":{"location":{"lat":54.65298379999999,"lng":25.2256296},"viewport":{"northeast":{"lat":54.65438562989272,"lng":25.22689217989272},"southwest":{"lat":54.65168597010727,"lng":25.22419252010728}}},"icon":"https://maps.gstatic.com/mapfiles/place_api/icons/v1/png_71/restaurant-71.png","icon_background_color":"#FF9E67","icon_mask_base_uri":"https://maps.gstatic.com/mapfiles/place_api/icons/v2/restaurant_pinlet","name":"Buen Apetito","opening_hours":{"open_now":false},"photos":[{"height":3003,"html_attributions":["<a href=\"https://maps.google.com/maps/contrib/104179936786623226237\">Artaz Spindulys</a>"],"photo_reference":"AeJbb3eJWVe0Wiw1yrf-OsAndJtVcpkIFV1ff-N-ONeyPdPc9iDrHueCP2NYJPnP489uNMR6kVT9F-2J84L7-UVpqZ_xCxIv95lntfKKochSSE_9EF-8XUT0SFapp4sbYnik6acXaZb5gZfXb7X81xmqY7BXlx_XAtJLHGPVjGAFBys8KfhI","width":3647}],"place_id":"ChIJcyAVwIWV3UYRZq9KP15il9o","plus_code":{"compound_code":"M63G+57 Vilnius","global_code":"9G67M63G+57"},"rating":4,"reference":"ChIJcyAVwIWV3UYRZq9KP15il9o","types":["restaurant","food","point_of_interest","establishment"],"user_ratings_total":6},{"business_status":"OPERATIONAL","formatted_address":"T. Kosciuškos g. 23B, Vilnius 01100","geometry":{"location":{"lat":54.69283799999999,"lng":25.303941},"viewport":{"northeast":{"lat":54.69422667989272,"lng":25.30498782989272},"southwest":{"lat":54.69152702010727,"lng":25.30228817010727}}},"icon":"https://maps.gstatic.com/mapfiles/place_api/icons/v1/png_71/restaurant-71.png","icon_background_color":"#FF9E67","icon_mask_base_uri":"https://maps.gstatic.com/mapfiles/place_api/icons/v2/restaurant_pinlet","name":"Skonio chuliganai","opening_hours":{"open_now":true},"place_id":"ChIJQ5Ya-eKV3UYRBExO6KS0xRk","plus_code":{"compound_code":"M8V3+4H Vilnius","global_code":"9G67M8V3+4H"},"rating":4,"reference":"ChIJQ5Ya-eKV3UYRBExO6KS0xRk","types":["restaurant","point_of_interest","food","establishment"],"user_ratings_total":4},{"business_status":"OPERATIONAL","formatted_address":"Moravų g., Vilnius 11329","geometry":{"location":{"lat":54.6501892,"lng":25.3238429},"viewport":{"northeast":{"lat":54.65174327989272,"lng":25.32500252989272},"southwest":{"lat":54.64904362010727,"lng":25.32230287010728}}},"icon":"https://maps.gstatic.com/mapfiles/place_api/icons/v1/png_71/restaurant-71.png","icon_background_color":"#FF9E67","icon_mask_base_uri":"https://maps.gstatic.com/mapfiles/place_api/icons/v2/restaurant_pinlet","name":"Crisperia","opening_hours":{"open_now":true},"place_id":"ChIJdzwjJnmV3UYRv3exA2cRsQk","plus_code":{"compound_code":"M82F+3G Vilnius","global_code":"9G67M82F+3G"},"rating":4,"reference":"ChIJdzwjJnmV3UYRv3exA2cRsQk","types":["restaurant","point_of_interest","food","establishment"],"user_ratings_total":2},{"business_status":"OPERATIONAL","formatted_address":"Vokiečių g. 12, Vilnius 01130","geometry":{"location":{"lat":54.6788584,"lng":25.2840303},"viewport":{"northeast":{"lat":54.68022222989272,"lng":25.28541652989272},"southwest":{"lat":54.67752257010728,"lng":25.28271687010728}}},"icon":"https://maps.gstatic.com/mapfiles/place_api/icons/v1/png_71/restaurant-71.png","icon_background_color":"#FF9E67","icon_mask_base_uri":"https://maps.gstatic.com/mapfiles/place_api/icons/v2/restaurant_pinlet","name":"Hesburger","opening_hours":{"open_now":true},"photos":[{"height":3000,"html_attributions":["<a href=\"https://maps.google.com/maps/contrib/101832575045909613341\">Andy Martin</a>"],"photo_reference":"AeJbb3fe3Dpw5z18Uvb1tFB9Qrk_rFAlu45MTH3fXJyjrZb-UJydcvU_5-C4zud2YmqothgVWjgDkWa1qBCasx9J9iHdTaEoi0wZOXmQjhwchFCHsrbuTKg4ggU5LtqCOl0ioUH0r6jQnELeiXg-fDCFzGtyPDGBQ_SX8XLYS41VH7ANpIb_","width":5333}],"place_id":"ChIJe5Y64xSU3UYR6yrSoi41XQU","plus_code":{"compound_code":"M7HM+GJ Vilnius","global_code":"9G67M7HM+GJ"},"price_level":1,"rating":3.9,"reference":"ChIJe5Y64xSU3UYR6yrSoi41XQU","types":["restaurant","point_of_interest","food","establishment"],"user_ratings_total":1583},{"business_status":"OPERATIONAL","formatted_address":"Savanorių pr. 247A, Vilnius 02300","geometry":{"location":{"lat":54.6580271,"lng":25.1427038},"viewport":{"northeast":{"lat":54.65933447989271,"lng":25.14400937989272},"southwest":{"lat":54.65663482010727,"lng":25.14130972010728}}},"icon":"https://maps.gstatic.com/mapfiles/place_api/icons/v1/png_71/restaurant-71.png","icon_background_color":"#FF9E67","icon_mask_base_uri":"https://maps.gstatic.com/mapfiles/place_api/icons/v2/restaurant_pinlet","name":"Krims Kebabs","opening_hours":{"open_now":true},"photos":[{"height":3096,"html_attributions":["<a href=\"https://maps.google.com/maps/contrib/103445710787031585584\">Laurynas Kundrotas</a>"],"photo_reference":"AeJbb3dzvP-0ByvdTM-eszaN9GQY4okxTONO3QY_qnj1cqDF9CWhEFaS2BPCLAQUY_nr5aDa7zjG-4UM1JtxkmT0gDaLu_EzhkQTI8E0UBVyCiHMEG5WgTvHL97EsrtECcC3x8DQ8coA94GuZssBxBArNT9XoOuUV2OxhhOUgfLTRSX0xkRy","width":4128}],"place_id":"ChIJR8u2-N6S3UYRMvVwehxLMq0","plus_code":{"compound_code":"M45V+63 Vilnius","global_code":"9G67M45V+63"},"rating":3.9,"reference":"ChIJR8u2-N6S3UYRMvVwehxLMq0","types":["restaurant","food","point_of_interest","establishment"],"user_ratings_total":918},{"business_status":"OPERATIONAL","formatted_address":"Gedimino pr. 5, Vilnius 01103","geometry":{"location":{"lat":54.6865477,"lng":25.2834993},"viewport":{"northeast":{"lat":54.68785557989273,"lng":25.28482487989272},"southwest":{"lat":54.68515592010728,"lng":25.28212522010728}}},"icon":"https://maps.gstatic.com/mapfiles/place_api/icons/v1/png_71/restaurant-71.png","icon_background_color":"#FF9E67","icon_mask_base_uri":"https://maps.gstatic.com/mapfiles/place_api/icons/v2/restaurant_pinlet","name":"KFC","opening_hours":{"open_now":true},"photos":[{"height":1365,"html_attributions":["<a href=\"https://maps.google.com/maps/contrib/108745349852434966096\">A Google User</a>"],"photo_reference":"AeJbb3dtz4ytf4yk_y58TDobxvJhIOkK444N0vm03KtZiLPtfc5y4akOMlC2Cft7oyCu6b3RY8xPfQYQvEQvcMCdPMDCL6fP3ciGA_Mg5pQS3GS77my9GWkJ6Djx5EtK-AhNiB83ydqdKQCSeeum6MX6I8w9zOkF4wMiDZstNeLtJ7yt2Y4a","width":2048}],"place_id":"ChIJk1IxyRCU3UYRehXWksPIi8c","plus_code":{"compound_code":"M7PM+J9 Vilnius","global_code":"9G67M7PM+J9"},"rating":3.8,"reference":"ChIJk1IxyRCU3UYRehXWksPIi8c","types":["restaurant","food","point_of_interest","establishment"],"user_ratings_total":2716},{"business_status":"OPERATIONAL","formatted_address":"Pilaitės pr. 18, Vilnius 04352","geometry":{"location":{"lat":54.6991107,"lng":25.2122062},"viewport":{"northeast":{"lat":54.70048562989272,"lng":25.21341167989272},"southwest":{"lat":54.69778597010728,"lng":25.21071202010728}}},"icon":"https://maps.gstatic.com/mapfiles/place_api/icons/v1/png_71/restaurant-71.png","icon_background_color":"#FF9E67","icon_mask_base_uri":"https://maps.gstatic.com/mapfiles/place_api/icons/v2/restaurant_pinlet","name":"McDonald's","opening_hours":{"open_now":true},"photos":[{"height":3024,"html_attributions":["<a href=\"https://maps.google.com/maps/contrib/115224003338845292838\">Justina Vapsvaitė</a>"],"photo_reference":"AeJbb3ci_-x1e4MsykOskkPEvPELtzT1KUpexjguh6NAbvJ9MpKH_mM--6x-JH21WV-SKBKpLXsTjYYBCrg7vp3U1J1wsqM7ZHV1xM-Cnb9Pyk--lTkQ7nYsDptlM5iNKe6c9DFC48D7L8PdZDtpis6qlxSC_ANriSf9NEet3jBdQeyyV-g9","width":4032}],"place_id":"ChIJOzT16CiT3UYRsokERPbqMb4","plus_code":{"compound_code":"M6X6+JV Vilnius","global_code":"9G67M6X6+JV"},"rating":3.8,"reference":"ChIJOzT16CiT3UYRsokERPbqMb4","types":["restaurant","point_of_interest","food","establishment"],"user_ratings_total":129},{"business_status":"OPERATIONAL","formatted_address":"Aukštaičių g. 7, Vilnius 11341","geometry":{"location":{"lat":54.6787078,"lng":25.3029148},"viewport":{"northeast":{"lat":54.68026782989273,"lng":25.30426952989272},"southwest":{"lat":54.67756817010729,"lng":25.30156987010728}}},"icon":"https://maps.gstatic.com/mapfiles/place_api/icons/v1/png_71/restaurant-71.png","icon_background_color":"#FF9E67","icon_mask_base_uri":"https://maps.gstatic.com/mapfiles/place_api/icons/v2/restaurant_pinlet","name":"Wraperia Suppa Kebs","opening_hours":{"open_now":true},"photos":[{"height":3024,"html_attributions":["<a href=\"https://maps.google.com/maps/contrib/104179936786623226237\">Artaz Spindulys</a>"],"photo_reference":"AeJbb3ctosmUy9e-UAr_n2vAZXNcn9OeqZrLP4UczfDgxIS4I5sSnxW4-wc01C60UPg2qE9w01Vq7H0XgxtEHpMtSm_vlLo0vyrVdVJZcj9ssZLZBbJEIGZRTXNP4G1gq0Y6S9fmopjICj1FSoa2GGVQiEAuao5NQAwIx1EuJj3PhFE8h8rD","width":3109}],"place_id":"ChIJEdXl0eCV3UYRRLZqFE7w48I","plus_code":{"compound_code":"M8H3+F5 Vilnius","global_code":"9G67M8H3+F5"},"rating":3.8,"reference":"ChIJEdXl0eCV3UYRRLZqFE7w48I","types":["restaurant","point_of_interest","food","establishment"],"user_ratings_total":37},{"business_status":"OPERATIONAL","formatted_address":"Savanorių pr. 15A, Vilnius 03126","geometry":{"location":{"lat":54.676009,"lng":25.2514209},"viewport":{"northeast":{"lat":54.67723552989272,"lng":25.25295032989272},"southwest":{"lat":54.67453587010728,"lng":25.25025067010727}}},"icon":"https://maps.gstatic.com/mapfiles/place_api/icons/v1/png_71/restaurant-71.png","icon_background_color":"#FF9E67","icon_mask_base_uri":"https://maps.gstatic.com/mapfiles/place_api/icons/v2/restaurant_pinlet","name":"KEBAB inn","opening_hours":{"open_now":true},"photos":[{"height":3024,"html_attributions":["<a href=\"https://maps.google.com/maps/contrib/103200277566638649472\">A Google User</a>"],"photo_reference":"AeJbb3crRPoR_zDA10DUoGBX0mL4maHXNF9UUEAbp6FfI5pcRPgUtleIp5NN5j0ANwsjTK_eR5fC-rY3oYo2TpRgtz56UFh6vhfNgnvRfdyLjBXvdI8Cm4TZMdWKpYOCSqzKyGDJD5MNWSMWk2XK3gTAI3gSEFrj8WHy6EGX6k-6Gpnts21P","width":4032}],"place_id":"ChIJ_zmgpCCV3UYR3l7iCiVcWH8","plus_code":{"compound_code":"M7G2+CH Vilnius","global_code":"9G67M7G2+CH"},"rating":3.8,"reference":"ChIJ_zmgpCCV3UYR3l7iCiVcWH8","types":["restaurant","food","point_of_interest","establishment"],"user_ratings_total":19},{"business_status":"OPERATIONAL","formatted_address":"Laisvės pr. 125A, Vilnius 06118","geometry":{"location":{"lat":54.72774829999999,"lng":25.23528},"viewport":{"northeast":{"lat":54.72912387989273,"lng":25.23654857989272},"southwest":{"lat":54.72642422010728,"lng":25.23384892010728}}},"icon":"https://maps.gstatic.com/mapfiles/place_api/icons/v1/png_71/restaurant-71.png","icon_background_color":"#FF9E67","icon_mask_base_uri":"https://maps.gstatic.com/mapfiles/place_api/icons/v2/restaurant_pinlet","name":"Ponas Vaflis","opening_hours":{"open_now":true},"photos":[{"height":3447,"html_attributions":["<a href=\"https://maps.google.com/maps/contrib/112051831241810917648\">A Google User</a>"],"photo_reference":"AeJbb3cteKqT2U8dw-7aiPPf1gcP32-L5C8dIk-ifHkZ_tKYhPErGfyqjKvMdpeBu_0feevGw95hPECxiiB7fE3iMHbER00onUWCLHU6AIEFeFWwKx3-hML_T7cmZcIliFzObg0fotb-QopS6Xi1ZrCZvT_b7Gk8sCRS-iSPpASHsxRc0NOo","width":5181}],"place_id":"ChIJOR7HSi-R3UYRZ070KW6PzhI","plus_code":{"compound_code":"P6HP+34 Vilnius","global_code":"9G67P6HP+34"},"rating":3.7,"reference":"ChIJOR7HSi-R3UYRZ070KW6PzhI","types":["restaurant","food","point_of_interest","establishment"],"user_ratings_total":27},{"business_status":"OPERATIONAL","formatted_address":"Upės g. 9, Vilnius 09308","geometry":{"location":{"lat":54.6938447,"lng":25.2757346},"viewport":{"northeast":{"lat":54.69517127989272,"lng":25.27704797989272},"southwest":{"lat":54.69247162010728,"lng":25.27434832010728}}},"icon":"https://maps.gstatic.com/mapfiles/place_api/icons/v1/png_71/restaurant-71.png","icon_background_color":"#FF9E67","icon_mask_base_uri":"https://maps.gstatic.com/mapfiles/place_api/icons/v2/restaurant_pinlet","name":"Hesburger","opening_hours":{"open_now":true},"photos":[{"height":3105,"html_attributions":["<a href=\"https://maps.google.com/maps/contrib/100024759789121150597\">Konstantin K</a>"],"photo_reference":"AeJbb3dIyox5ECq1xxFElAwyfEcpk9OTrgi0Kqw7db5gkUzHRJBbe31m9DyZbiWDQ7rTvn0zjlCiyIOIc0-8SqbsVoY_UWYFdk78qSASGoahpRcJk-kHY7sdERw_a5zywVNSOVMDofJjcoULdsTA2D44jxG0_fTKwJE2608e9IjPRwYL1taO","width":5520}],"place_id":"ChIJpc7qOwSU3UYRFoT9O89M1-U","plus_code":{"compound_code":"M7VG+G7 Vilnius","global_code":"9G67M7VG+G7"},"price_level":1,"rating":3.6,"reference":"ChIJpc7qOwSU3UYRFoT9O89M1-U","types":["restaurant","food","point_of_interest","establishment"],"user_ratings_total":383},{"business_status":"OPERATIONAL","formatted_address":"Dariaus ir Girėno g. 17, Vilnius 02184","geometry":{"location":{"lat":54.6549967,"lng":25.2706566},"viewport":{"northeast":{"lat":54.65635562989272,"lng":25.27191762989272},"southwest":{"lat":54.65365597010728,"lng":25.26921797010728}}},"icon":"https://maps.gstatic.com/mapfiles/place_api/icons/v1/png_71/restaurant-71.png","icon_background_color":"#FF9E67","icon_mask_base_uri":"https://maps.gstatic.com/mapfiles/place_api/icons/v2/restaurant_pinlet","name":"Kebab Inn","opening_hours":{"open_now":true},"photos":[{"height":2014,"html_attributions":["<a href=\"https://maps.google.com/maps/contrib/105566481141266724696\">A Google User</a>"],"photo_reference":"AeJbb3ckpiVUVUza5J0XNrQrSk6NRkJuqixAsfiCPJEi1oF5kZCcIhd9qSg_MkRJRsuJ8Lj0qXFkbUWBANV5Bbyq7wvj2yVKB2ZZkmS8YKjoYTjeZKbgSzE7ah2tHysQYvty-IoR3YKJQVzV-bHF7xqepVgjRiEyBmzF77ZQ2Ne-r3wwy_mo","width":3741}],"place_id":"ChIJtczpWhWV3UYRCLd4liAwwJI","plus_code":{"compound_code":"M73C+X7 Vilnius","global_code":"9G67M73C+X7"},"rating":3.5,"reference":"ChIJtczpWhWV3UYRCLd4liAwwJI","types":["restaurant","food","point_of_interest","establishment"],"user_ratings_total":219},{"business_status":"OPERATIONAL","formatted_address":"Vytauto Pociūno g. 8, Vilnius 06231","geometry":{"location":{"lat":54.7034372,"lng":25.2059448},"viewport":{"northeast":{"lat":54.70469977989272,"lng":25.20708592989272},"southwest":{"lat":54.70200012010728,"lng":25.20438627010727}}},"icon":"https://maps.gstatic.com/mapfiles/place_api/icons/v1/png_71/restaurant-71.png","icon_background_color":"#FF9E67","icon_mask_base_uri":"https://maps.gstatic.com/mapfiles/place_api/icons/v2/restaurant_pinlet","name":"Burger King Vilnius Outlet","opening_hours":{"open_now":true},"photos":[{"height":3024,"html_attributions":["<a href=\"https://maps.google.com/maps/contrib/104179936786623226237\">Artaz Spindulys</a>"],"photo_reference":"AeJbb3cz7BYO94JxUe98GNeggho70Tk80-7W7vZQw0u9onIBxkSmr8LaOrT_enTUVMwsPYvRoisglg1V3blWrGkg719YcRt731TQZqve5AdAZk_Loblguk4PIMEt8sYOfFs1FGaBqc2xV5vwa4KVAJ9wRp7FLb0g4psLVON7WytnWVcWjeqB","width":3918}],"place_id":"ChIJQ3OENZST3UYR7sgmhCBgqQM","plus_code":{"compound_code":"P634+99 Vilnius","global_code":"9G67P634+99"},"rating":3.4,"reference":"ChIJQ3OENZST3UYR7sgmhCBgqQM","types":["restaurant","food","point_of_interest","establishment"],"user_ratings_total":88},{"business_status":"OPERATIONAL","formatted_address":"Laisvės pr. 125A, Vilnius 06118","geometry":{"location":{"lat":54.7277605,"lng":25.2354497},"viewport":{"northeast":{"lat":54.72914327989272,"lng":25.23670672989272},"southwest":{"lat":54.72644362010728,"lng":25.23400707010728}}},"icon":"https://maps.gstatic.com/mapfiles/place_api/icons/v1/png_71/restaurant-71.png","icon_background_color":"#FF9E67","icon_mask_base_uri":"https://maps.gstatic.com/mapfiles/place_api/icons/v2/restaurant_pinlet","name":"Skonio Chuliganai","opening_hours":{"open_now":true},"photos":[{"height":3447,"html_attributions":["<a href=\"https://maps.google.com/maps/contrib/104105353048511338829\">A Google User</a>"],"photo_reference":"AeJbb3e7T3BBcmKVZzsTFuNOOhQGSR7MdNpKV-XMI5ZZAcKpFN4pnVVSHM-H5SkX6Lsu9K0ZaxaHZwnWCahEV3wGTMRLXwuPqQ7QWw2cNtZ1D1mFiNQRvYy7Vbh6pndT2rvjoaRpxPlBiR3zv4aZgZ5WbPRcH9SOtAq8jAx-IsQUjprmypPT","width":5181}],"place_id":"ChIJswwYQs6R3UYRudZfvEuUKp8","plus_code":{"compound_code":"P6HP+36 Vilnius","global_code":"9G67P6HP+36"},"rating":3.4,"reference":"ChIJswwYQs6R3UYRudZfvEuUKp8","types":["restaurant","food","point_of_interest","establishment"],"user_ratings_total":14},{"business_status":"OPERATIONAL","formatted_address":"Priegliaus g. 1, Vilnius 06269","geometry":{"location":{"lat":54.7098507,"lng":25.1870575},"viewport":{"northeast":{"lat":54.71117692989272,"lng":25.18846292989272},"southwest":{"lat":54.70847727010728,"lng":25.18576327010728}}},"icon":"https://maps.gstatic.com/mapfiles/place_api/icons/v1/png_71/restaurant-71.png","icon_background_color":"#FF9E67","icon_mask_base_uri":"https://maps.gstatic.com/mapfiles/place_api/icons/v2/restaurant_pinlet","name":"Crisperia","opening_hours":{"open_now":true},"photos":[{"height":4000,"html_attributions":["<a href=\"https://maps.google.com/maps/contrib/116321954720102940731\">Andrius Morkunas</a>"],"photo_reference":"AeJbb3elP4hAi0JVDkqlRede4YjEXS3Oa1dq0yvW6Kj5Pw8sD9GYk2yfP29rWaZdoArOkJl4hK84G-9Ug2WWtzfNSGSz9mLOTcK_IYjvAyCM9dAc5ublZCXTWjuAd4DzOTpJXVW61DJ5DecBRAeD58SoRnaNZTj7hBDNbiJlvxPXRIea82yM","width":2252}],"place_id":"ChIJt-CSqTST3UYReZ9XKCOVb7c","plus_code":{"compound_code":"P55P+WW Vilnius","global_code":"9G67P55P+WW"},"rating":2.7,"reference":"ChIJt-CSqTST3UYReZ9XKCOVb7c","types":["restaurant","point_of_interest","food","establishment"],"user_ratings_total":28},{"business_status":"OPERATIONAL","formatted_address":"Gynėjų g. 4, Vilnius 01109","geometry":{"location":{"lat":54.6905452,"lng":25.2643487},"viewport":{"northeast":{"lat":54.69191672989272,"lng":25.26570892989272},"southwest":{"lat":54.68921707010727,"lng":25.26300927010728}}},"icon":"https://maps.gstatic.com/mapfiles/place_api/icons/v1/png_71/restaurant-71.png","icon_background_color":"#FF9E67","icon_mask_base_uri":"https://maps.gstatic.com/mapfiles/place_api/icons/v2/restaurant_pinlet","name":"Papa frita poutinerie","opening_hours":{},"photos":[{"height":3024,"html_attributions":["<a href=\"https://maps.google.com/maps/contrib/115129916376956291836\">ahmed mohammed</a>"],"photo_reference":"AeJbb3fEOOM5JRxb4yoGdFwC7R47MqdpKd2cfRXNPpHdiK3RydBNho8Odf18bYddF4zRehT1F8LLsJV_oM8D8oiQ5zAf-bOHy_r14CDVWLASTPew55ZWWqRtngtz7MRp3WRYhm8Yf9v38G5-KdlFlmUy4HFGiMybUZr9HI2ai3CA4-MFogHq","width":4032}],"place_id":"ChIJmzQRd_eV3UYRkQfTiAb2WM4","plus_code":{"compound_code":"M7R7+6P Vilnius","global_code":"9G67M7R7+6P"},"rating":1.9,"reference":"ChIJmzQRd_eV3UYRkQfTiAb2WM4","types":["restaurant","point_of_interest","food","establishment"],"user_ratings_total":13},{"business_status":"OPERATIONAL","formatted_address":"Kirtimų g. 47, Vilnius 02244","geometry":{"location":{"lat":54.6262735,"lng":25.1481325},"viewport":{"northeast":{"lat":54.62763637989272,"lng":25.14953297989272},"southwest":{"lat":54.62493672010727,"lng":25.14683332010728}}},"icon":"https://maps.gstatic.com/mapfiles/place_api/icons/v1/png_71/restaurant-71.png","icon_background_color":"#FF9E67","icon_mask_base_uri":"https://maps.gstatic.com/mapfiles/place_api/icons/v2/restaurant_pinlet","name":"Fast foods","place_id":"ChIJrZdzucjs3UYRRBrI1jRFNHA","plus_code":{"compound_code":"J4GX+G6 Vilnius","global_code":"9G67J4GX+G6"},"rating":0,"reference":"ChIJrZdzucjs3UYRRBrI1jRFNHA","types":["restaurant","food","point_of_interest","establishment"],"user_ratings_total":0},{"business_status":"OPERATIONAL","formatted_address":"Žirmūnų g. 106, Vilnius 09121","geometry":{"location":{"lat":54.7259456,"lng":25.2990637},"viewport":{"northeast":{"lat":54.72713117989272,"lng":25.30040117989272},"southwest":{"lat":54.72443152010728,"lng":25.29770152010728}}},"icon":"https://maps.gstatic.com/mapfiles/place_api/icons/v1/png_71/restaurant-71.png","icon_background_color":"#FF9E67","icon_mask_base_uri":"https://maps.gstatic.com/mapfiles/place_api/icons/v2/restaurant_pinlet","name":"AİLƏ","opening_hours":{"open_now":true},"place_id":"ChIJ18LvbgeX3UYRYgYw2UsHZxQ","plus_code":{"compound_code":"P7GX+9J Vilnius","global_code":"9G67P7GX+9J"},"rating":0,"reference":"ChIJ18LvbgeX3UYRYgYw2UsHZxQ","types":["restaurant","food","point_of_interest","establishment"],"user_ratings_total":0}]