[{"business_status":"OPERATIONAL","formatted_address":"Ronda de la Univ., 10, 08007 Barcelona","geometry":{"location":{"lat":41.38648269999999,"lng":2.1667641},"viewport":{"northeast":{"lat":41.38776412989272,"lng":2.168020679892723},"southwest":{"lat":41.38506447010727,"lng":2.165321020107278}}},"icon":"https://maps.gstatic.com/mapfiles/place_api/icons/v1/png_71/restaurant-71.png","icon_background_color":"#FF9E67","icon_mask_base_uri":"https://maps.gstatic.com/mapfiles/place_api/icons/v2/restaurant_pinlet","name":"Empanadas Las Muns - Ronda Universitat","opening_hours":{"open_now":true},"photos":[{"height":768,"html_attributions":["<a href=\"https://maps.google.com/maps/contrib/111860061557153376695\">A Google User</a>"],"photo_reference":"AeJbb3eQr4h6MNoac2DCHXaQa0yf9ebGv9XCAjQcdlxU9Oa7I725-UDzJtLP0KoJWDbK1dgp0QTmgsPa-Nv97EK5y3jYG9czyNvwY48DsxgP-ZrsE0xhad-1-wbYqKc9dxwC6r2jgstHBJKEjHxScJsb5NVIwkQQIdY5J6HfeEzMniyXnWTg","width":1024}],"place_id":"ChIJJYazTn-jpBIRFVJpzvdr1UQ","plus_code":{"compound_code":"95P8+HP Barcelona","global_code":"8FH495P8+HP"},"rating":4.9,"reference":"ChIJJYazTn-jpBIRFVJpzvdr1UQ","types":["restaurant","meal_delivery","food","point_of_interest","establishment"],"user_ratings_total":185},{"business_status":"OPERATIONAL","formatted_address":"Centro Comercial La Farga, Av. de Josep Tarradellas i Joan, Planta 2, 08901 L'Hospitalet de Llobregat, Barcelona","geometry":{"location":{"lat":41.3634916,"lng":2.1040272},"viewport":{"northeast":{"lat":41.36487197989272,"lng":2.105367329892722},"southwest":{"lat":41.36217232010728,"lng":2.102667670107278}}},"icon":"https://maps.gstatic.com/mapfiles/place_api/icons/v1/png_71/restaurant-71.png","icon_background_color":"#FF9E67","icon_mask_base_uri":"https://maps.gstatic.com/mapfiles/place_api/icons/v2/restaurant_pinlet","name":"Piel de Gallina","opening_hours":{"open_now":false},"photos":[{"height":4912,"html_attributions":["<a href=\"https://maps.google.com/maps/contrib/104451253712092721785\">A Google User</a>"],"photo_reference":"AeJbb3cj59u43pdu6VhP0pdy979XYFiLsqtaPwtRRI2mbF8grB9GN4Q1F7vp8l8E4PbFMwnFR2aLP-fd7xKG-fN6LwbEiuscpCQ3b7FdsAhjVjdy5MCgY1VWTJ57K-koFAg6SBqV7zLp0gyZD0Q9YwqQMvwPAZpF90CrMotsddFRWPclguuD","width":7360}],"place_id":"ChIJjcbxq_yZpBIRX_kE-NCD7kI","plus_code":{"compound_code":"9473+9J L'Hospitalet de Llobregat","global_code":"8FH49473+9J"},"rating":4.8,"reference":"ChIJjcbxq_yZpBIRX_kE-NCD7kI","types":["restaurant","food","point_of_interest","establishment"],"user_ratings_total":16},{"business_status":"OPERATIONAL","formatted_address":"Carrer de Sant Pere, 4, 08911 Badalona, Barcelona","geometry":{"location":{"lat":41.4481227,"lng":2.2496358},"viewport":{"northeast":{"lat":41.44951392989272,"lng":2.250918479892723},"southwest":{"lat":41.44681427010728,"lng":2.248218820107278}}},"icon":"https://maps.gstatic.com/mapfiles/place_api/icons/v1/png_71/restaurant-71.png","icon_background_color":"#FF9E67","icon_mask_base_uri":"https://maps.gstatic.com/mapfiles/place_api/icons/v2/restaurant_pinlet","name":"Karl's","opening_hours":{"open_now":false},"photos":[{"height":3024,"html_attributions":["<a href=\"https://maps.google.com/maps/contrib/110562303582691850076\">catalin marian</a>"],"photo_reference":"AeJbb3dJ6Tgf-R298Kmlxwl-ry7i6Q8ZxzjgCN6F5IriRzFm0B7ob4xUmKsW2GS-mwAZtYoxbRsSeHIdg6nQUF0IQWb1AOZJl9MrxQZf0eU0zuqvztveS8S4dWl4nqpY4vqZcHafGwPfAqdEIIIeq7cf0gGaD5gjPj4HJgWAZGYh0ewYjXDQ","width":4032}],"place_id":"ChIJS96Yp4-ipBIRv7l0CJVU7lw","plus_code":{"compound_code":"C6XX+6V Badalona","global_code":"8FH4C6XX+6V"},"rating":4.7,"reference":"ChIJS96Yp4-ipBIRv7l0CJVU7lw","types":["restaurant","food","point_of_interest","establishment"],"user_ratings_total":422},{"business_status":"OPERATIONAL","formatted_address":"Carrer de la Reina Cristina, 7, 08003 Barcelona","geometry":{"location":{"lat":41.3818081,"lng":2.1833708},"viewport":{"northeast":{"lat":41.38313492989272,"lng":2.184772829892722},"southwest":{"lat":41.38043527010728,"lng":2.182073170107278}}},"icon":"https://maps.gstatic.com/mapfiles/place_api/icons/v1/png_71/bar-71.png","icon_background_color":"#FF9E67","icon_mask_base_uri":"https://maps.gstatic.com/mapfiles/place_api/icons/v2/bar_pinlet","name":"Can Paixano","opening_hours":{"open_now":false},"photos":[{"height":3024,"html_attributions":["<a href=\"https://maps.google.com/maps/contrib/116449749563171869204\">Adriana Rakshana</a>"],"photo_reference":"AeJbb3fYrzomItM64GiazAQKUV3t131pv-gL02E6ualrAcGduRP2_ogr0zdyvDXMaEjo9OVO5v_eGOcUUUeLwPQTAddIA-mmmu4B3sQNcdA2qLIl-SmxeU-V0qE2oSc2emH_5BehowtCj4UT99hSnfSal5h-b52lzBdhUW0ZCQJrNd1pLvmg","width":4032}],"place_id":"ChIJI1v-6f-ipBIRTeac1KdrUcg","plus_code":{"compound_code":"95JM+P8 Barcelona","global_code":"8FH495JM+P8"},"price_level":1,"rating":4.6,"reference":"ChIJI1v-6f-ipBIRTeac1KdrUcg","types":["bar","restaurant","food","point_of_interest","establishment"],"user_ratings_total":6748},{"business_status":"OPERATIONAL","formatted_address":"Av. de Gaudí, 48, 08025 Barcelona","geometry":{"location":{"lat":41.4084746,"lng":2.1745952},"viewport":{"northeast":{"lat":41.40955387989272,"lng":2.175855579892722},"southwest":{"lat":41.40685422010728,"lng":2.173155920107277}}},"icon":"https://maps.gstatic.com/mapfiles/place_api/icons/v1/png_71/restaurant-71.png","icon_background_color":"#FF9E67","icon_mask_base_uri":"https://maps.gstatic.com/mapfiles/place_api/icons/v2/restaurant_pinlet","name":"Sagradas Tapas","opening_hours":{"open_now":true},"photos":[{"height":3840,"html_attributions":["<a href=\"https://maps.google.com/maps/contrib/106714093953499786366\">Tom Schlaghecken</a>"],"photo_reference":"AeJbb3dv6GfjjbcOklF7cNFwqfJ4-U8-IaXtwQmw2n3uIZ6kKcE1sVGMTvJB-rP3Vrx8Z_vzRPF6TSRJGBl-9Uv5EISHRFEntLiKu4Mr-1jK9x9RHURmjAYI8i4T_9CH7B1oMWGDPTGObPOgndnEJZWO8XD8U0k9kYD6jzrpELDnmt2W79Z4","width":5120}],"place_id":"ChIJwyb29iujpBIRbOhvqRmk36Q","plus_code":{"compound_code":"C55F+9R Barcelona","global_code":"8FH4C55F+9R"},"price_level":2,"rating":4.6,"reference":"ChIJwyb29iujpBIRbOhvqRmk36Q","types":["restaurant","food","point_of_interest","establishment"],"user_ratings_total":1977},{"business_status":"OPERATIONAL","formatted_address":"Passeig de Fabra i Puig, 374, 08031 Barcelona","geometry":{"location":{"lat":41.431703,"lng":2.1636465},"viewport":{"northeast":{"lat":41.43303307989272,"lng":2.164954379892722},"southwest":{"lat":41.43033342010727,"lng":2.162254720107278}}},"icon":"https://maps.gstatic.com/mapfiles/place_api/icons/v1/png_71/restaurant-71.png","icon_background_color":"#FF9E67","icon_mask_base_uri":"https://maps.gstatic.com/mapfiles/place_api/icons/v2/restaurant_pinlet","name":"Don Bratwurst L'Alemany","opening_hours":{"open_now":false},"photos":[{"height":3024,"html_attributions":["<a href=\"https://maps.google.com/maps/contrib/106149573153231658872\">DANI RIVEROLA FREDIANI</a>"],"photo_reference":"AeJbb3eZOuHkWDi6d8GIMFl4a_aQTwdRazl0cJyy8VV11sfTbGVDZs_jJ94WY4eBe2XBh9PbRUYbMrWbndwlucLf-2u2SDmKtlCBEjSVJQ7c88WRvl0LWeshufM2WwB7lTbgm1nfLadpWpn_7LwZhI39HQjLymBr1ScueiOQCCCIns-ag_DR","width":4032}],"place_id":"ChIJr9P56Ee9pBIRLAlT5ePn9UY","plus_code":{"compound_code":"C5J7+MF Barcelona","global_code":"8FH4C5J7+MF"},"price_level":1,"rating":4.6,"reference":"ChIJr9P56Ee9pBIRLAlT5ePn9UY","types":["restaurant","food","point_of_interest","establishment"],"user_ratings_total":521},{"business_status":"OPERATIONAL","formatted_address":"C/ de València, 201, local 1, 08011 Barcelona","geometry":{"location":{"lat":41.3899626,"lng":2.1593083},"viewport":{"northeast":{"lat":41.39134892989271,"lng":2.160715329892723},"southwest":{"lat":41.38864927010727,"lng":2.158015670107278}}},"icon":"https://maps.gstatic.com/mapfiles/place_api/icons/v1/png_71/restaurant-71.png","icon_background_color":"#FF9E67","icon_mask_base_uri":"https://maps.gstatic.com/mapfiles/place_api/icons/v2/restaurant_pinlet","name":"Chez Kessler","opening_hours":{"open_now":true},"photos":[{"height":4000,"html_attributions":["<a href=\"https://maps.google.com/maps/contrib/116604326132701886360\">A Google User</a>"],"photo_reference":"AeJbb3eickqejTMYJCzBKiIg1SW4jL-DmqDZlqHqcGtWHzj8P4HQ9ulG7pz30n61YT88OAljMzKV3wjJ-MVakawJ3C8mFJ_UqkaA3NQ6JrrdLqNVGm8bPOvJJMoOuXhiGFJSUUmPHFY-DVGIRqKj1RYy0j-YGJVhz4MO8hvMxLaSQIu0ZDZn","width":6000}],"place_id":"ChIJ436KhsGjpBIR7VSGBuraGwo","plus_code":{"compound_code":"95Q5+XP Barcelona","global_code":"8FH495Q5+XP"},"rating":4.6,"reference":"ChIJ436KhsGjpBIR7VSGBuraGwo","types":["restaurant","bar","food","point_of_interest","establishment"],"user_ratings_total":318},{"business_status":"OPERATIONAL","formatted_address":"Av. Electricitat, 12, 08906 L'Hospitalet de Llobregat, Barcelona","geometry":{"location":{"lat":41.3690973,"lng":2.1016663},"viewport":{"northeast":{"lat":41.37039612989272,"lng":2.103026079892722},"southwest":{"lat":41.36769647010728,"lng":2.100326420107277}}},"icon":"https://maps.gstatic.com/mapfiles/place_api/icons/v1/png_71/restaurant-71.png","icon_background_color":"#FF9E67","icon_mask_base_uri":"https://maps.gstatic.com/mapfiles/place_api/icons/v2/restaurant_pinlet","name":"Bar Cafetería Eli","opening_hours":{"open_now":true},"photos":[{"height":4032,"html_attributions":["<a href=\"https://maps.google.com/maps/contrib/116313828594976988413\">Cinia Perdomo</a>"],"photo_reference":"AeJbb3cmysn2RmsBedx9sirKSYU-PTXaKhjU7OcRWUbO94tZWzO9NwUnvvFp7VTcIeq6iM4-mj0MWZ-kf5wt2PC0bRMKvCyAjTRZP-HhFlNH-s01reRyKafJYbfNRv3bO6b86Z_-QvrBF5-jJqmRcgIHpQOqKpiJ8lohzwN2PMiU2HeNjiA","width":3024}],"place_id":"ChIJf-FVrOiZpBIRa3AIiRnw9Dg","plus_code":{"compound_code":"9492+JM L'Hospitalet de Llobregat","global_code":"8FH49492+JM"},"price_level":1,"rating":4.6,"reference":"ChIJf-FVrOiZpBIRa3AIiRnw9Dg","types":["bar","restaurant","food","point_of_interest","establishment"],"user_ratings_total":311},{"business_status":"OPERATIONAL","formatted_address":"Carrer de Joan d'Àustria, 99, 08018 Barcelona","geometry":{"location":{"lat":41.3953081,"lng":2.1883111},"viewport":{"northeast":{"lat":41.39668057989272,"lng":2.189691379892723},"southwest":{"lat":41.39398092010728,"lng":2.186991720107278}}},"icon":"https://maps.gstatic.com/mapfiles/place_api/icons/v1/png_71/restaurant-71.png","icon_background_color":"#FF9E67","icon_mask_base_uri":"https://maps.gstatic.com/mapfiles/place_api/icons/v2/restaurant_pinlet","name":"BONNA BOCA","opening_hours":{"open_now":true},"photos":[{"height":4032,"html_attributions":["<a href=\"https://maps.google.com/maps/contrib/111695181595008203438\">Elias Bitsoura</a>"],"photo_reference":"AeJbb3eKrG9TXqeOGrFDBTI6IDEFPfPNgkXBHXPCT4-a4zDeWhU2XFvsKpI9CZOdcNDzt_H4dNU7fly82JwBO30cN97HLpuA0UY0Da4wBwTJm801BQ8_W8ukfQWxbyQX-t0uT28o8XvtYXOwi3GBenmnqiuUHdp0F365TQNdMTLzeNqU4wBT","width":3024}],"place_id":"ChIJVcC7hEyjpBIR62-Pui5gsMA","plus_code":{"compound_code":"95WQ+48 Barcelona","global_code":"8FH495WQ+48"},"rating":4.6,"reference":"ChIJVcC7hEyjpBIR62-Pui5gsMA","types":["restaurant","food","point_of_interest","establishment"],"user_ratings_total":150},{"business_status":"OPERATIONAL","formatted_address":"Carrer de Joan d'Àustria, 87, 08018 Barcelona","geometry":{"location":{"lat":41.3948284,"lng":2.188879},"viewport":{"northeast":{"lat":41.39613347989273,"lng":2.190292829892722},"southwest":{"lat":41.39343382010728,"lng":2.187593170107278}}},"icon":"https://maps.gstatic.com/mapfiles/place_api/icons/v1/png_71/bar-71.png","icon_background_color":"#FF9E67","icon_mask_base_uri":"https://maps.gstatic.com/mapfiles/place_api/icons/v2/bar_pinlet","name":"Hive Barcelona","opening_hours":{"open_now":true},"photos":[{"height":3648,"html_attributions":["<a href=\"https://maps.google.com/maps/contrib/108536915046499572548\">Federico Keen</a>"],"photo_reference":"AeJbb3cE7LvqQojZHrLHfd2ymikQ5E1mIuhAbqNGIwy6ks0XGmz1YFZ8jTwoLY7i6RnSccsiRqHDT82Toih2Os7cJYACb5kyKjgY4mMvAgyeb7yUvYdwxwfYBicsWQApuXFOW8Wxl7CtLvbWbqx3YQJXb5gchJaB6G8vHq3hai-1t3BRQ3i5","width":2736}],"place_id":"ChIJE2tP1KSjpBIRangOWLpEcag","plus_code":{"compound_code":"95VQ+WH Barcelona","global_code":"8FH495VQ+WH"},"rating":4.6,"reference":"ChIJE2tP1KSjpBIRangOWLpEcag","types":["bar","restaurant","food","point_of_interest","establishment"],"user_ratings_total":58},{"business_status":"OPERATIONAL","formatted_address":"Carrer del Comte d'Urgell, 130, 08011 Barcelona","geometry":{"location":{"lat":41.38482,"lng":2.1554377},"viewport":{"northeast":{"lat":41.38622672989272,"lng":2.156706679892722},"southwest":{"lat":41.38352707010727,"lng":2.154007020107278}}},"icon":"https://maps.gstatic.com/mapfiles/place_api/icons/v1/png_71/generic_business-71.png","icon_background_color":"#7B9EB0","icon_mask_base_uri":"https://maps.gstatic.com/mapfiles/place_api/icons/v2/generic_pinlet","name":"Terracotta Ceramics Coffee & Bar","opening_hours":{"open_now":false},"photos":[{"height":4032,"html_attributions":["<a href=\"https://maps.google.com/maps/contrib/115737724747259017032\">Nestor Fernando Muñoz Idrobo</a>"],"photo_reference":"AeJbb3eBiv1qdIYfR9eIjlmFy4rlWfL29_RVroVuyYF0pWUXLTfN7SMwirarYN-RWV__FyBskfWm7sCoYs8NDIDH4QAky_bIxKA-aGhnhDYoVKmJ1MCLuCXkDD_wuDTvgxhoWjYcugg2k9MJttV24Y1rKdd_gQRzmbYIY9iJ8gPCjFRy9NUL","width":3024}],"place_id":"ChIJ-7gFF-KjpBIREDBj5NXZGiA","plus_code":{"compound_code":"95M4+W5 Barcelona","global_code":"8FH495M4+W5"},"rating":4.6,"reference":"ChIJ-7gFF-KjpBIREDBj5NXZGiA","types":["bar","restaurant","food","point_of_interest","establishment"],"user_ratings_total":25},{"business_status":"OPERATIONAL","formatted_address":"Carrer Comercial, 7, 08003 Barcelona","geometry":{"location":{"lat":41.3863348,"lng":2.1840459},"viewport":{"northeast":{"lat":41.38761082989272,"lng":2.185327979892723},"southwest":{"lat":41.38491117010728,"lng":2.182628320107278}}},"icon":"https://maps.gstatic.com/mapfiles/place_api/icons/v1/png_71/restaurant-71.png","icon_background_color":"#FF9E67","icon_mask_base_uri":"https://maps.gstatic.com/mapfiles/place_api/icons/v2/restaurant_pinlet","name":"Puertecillo Born","opening_hours":{"open_now":false},"photos":[{"height":3480,"html_attributions":["<a href=\"https://maps.google.com/maps/contrib/105050078339533761018\">Raymond Chenon</a>"],"photo_reference":"AeJbb3dnspISG1kImlYDzFivf5J-FbI2mWU6k0I5S5S5M-mq_abj4AGiBUz2_MtHpeQgf7JljvSkMb7VsRicC850vnzYiom8DNFvj3K8Nxnun1rO31jih08O4hN8oE_2RBS3pwCqC35LEYAXaQz7k0ZLnwGk855n7mO36EhtWXDe5QvtPvuZ","width":4640}],"place_id":"ChIJk8VY8P2ipBIR21eL6en-5i4","plus_code":{"compound_code":"95PM+GJ Barcelona","global_code":"8FH495PM+GJ"},"price_level":2,"rating":4.5,"reference":"ChIJk8VY8P2ipBIR21eL6en-5i4","types":["restaurant","food","point_of_interest","establishment"],"user_ratings_total":4096},{"business_status":"OPERATIONAL","formatted_address":"Passeig de Manuel Girona, 50, 08034 Barcelona","geometry":{"location":{"lat":41.3911111,"lng":2.125},"viewport":{"northeast":{"lat":41.39254922989272,"lng":2.126310429892722},"southwest":{"lat":41.38984957010727,"lng":2.123610770107278}}},"icon":"https://maps.gstatic.com/mapfiles/place_api/icons/v1/png_71/restaurant-71.png","icon_background_color":"#FF9E67","icon_mask_base_uri":"https://maps.gstatic.com/mapfiles/place_api/icons/v2/restaurant_pinlet","name":"Dhaba","opening_hours":{"open_now":false},"photos":[{"height":3456,"html_attributions":["<a href=\"https://maps.google.com/maps/contrib/102199390354092976761\">A Google User</a>"],"photo_reference":"AeJbb3dO1eADKF7MDLMPB8u0N4NpZ7OAF5j_JjCs9Vm_MqeiJA8GuTfSsYYXpM6x9roj0NwV6NEJCK4wT6F7XwitgCShr-dg1XJnV3zWOPmO4fFWcS75jlD-GqETE1cxC9rXUe68EUmHFeZZFQ85Zsj1lwYhIhAyrNWLAXlZFtODACybDy30","width":5184}],"place_id":"ChIJS-MmTl2YpBIRj0IHjEqFXsg","plus_code":{"compound_code":"94RF+CX Barcelona","global_code":"8FH494RF+CX"},"price_level":2,"rating":4.5,"reference":"ChIJS-MmTl2YpBIRj0IHjEqFXsg","types":["restaurant","food","point_of_interest","establishment"],"user_ratings_total":676},{"business_status":"OPERATIONAL","formatted_address":"C/ dels Carders, 43, 08003 Barcelona","geometry":{"location":{"lat":41.38731790000001,"lng":2.1804234},"viewport":{"northeast":{"lat":41.38867277989273,"lng":2.181793629892722},"southwest":{"lat":41.38597312010729,"lng":2.179093970107278}}},"icon":"https://maps.gstatic.com/mapfiles/place_api/icons/v1/png_71/restaurant-71.png","icon_background_color":"#FF9E67","icon_mask_base_uri":"https://maps.gstatic.com/mapfiles/place_api/icons/v2/restaurant_pinlet","name":"Ina Espai de Cafè i Piadina","opening_hours":{"open_now":false},"photos":[{"height":3268,"html_attributions":["<a href=\"https://maps.google.com/maps/contrib/115839908831414466678\">Nicola Gori</a>"],"photo_reference":"AeJbb3dUETFra34SP4neIjgGau33jXIpV9VIibK4EyP-XOqo22uu8dq_yXB0X5qc4MptdT1lXjlNgqCJIQsGCKsGBUPVjIUc-Ne8qtWBz6ZVJhNII55HqI34aAqryKq-L8uz4LY6tNeSsG9_hUUF8y4TQU5bIFOnwFCqiIxAE5uyOtMoQMGl","width":4895}],"place_id":"ChIJfy9WaPyipBIRbeE2FWjrW1E","plus_code":{"compound_code":"95PJ+W5 Barcelona","global_code":"8FH495PJ+W5"},"rating":4.5,"reference":"ChIJfy9WaPyipBIRbeE2FWjrW1E","types":["cafe","bar","restaurant","food","point_of_interest","store","establishment"],"user_ratings_total":356},{"business_status":"OPERATIONAL","formatted_address":"Carretera de la Bordeta, 52, 08014 Barcelona","geometry":{"location":{"lat":41.3736194,"lng":2.1452598},"viewport":{"northeast":{"lat":41.37491822989271,"lng":2.146627879892722},"southwest":{"lat":41.37221857010727,"lng":2.143928220107278}}},"icon":"https://maps.gstatic.com/mapfiles/place_api/icons/v1/png_71/restaurant-71.png","icon_background_color":"#FF9E67","icon_mask_base_uri":"https://maps.gstatic.com/mapfiles/place_api/icons/v2/restaurant_pinlet","name":"Devil's Kitchen","opening_hours":{"open_now":false},"photos":[{"height":4032,"html_attributions":["<a href=\"https://maps.google.com/maps/contrib/105083487670643370990\">Emanuel Adamo</a>"],"photo_reference":"AeJbb3eTN9sR1b8dYMaCtoTd3EjvdQE2EtjRcYq-0zSmu8F0HyJ58-wgp-TiZh9DBMzKaBdMD2CPCEOKIISQJ3Plt2WgwUpGXIVzIuDXnJnE-ZjaSe2RZowJIthFNLmjhUIHKUaNW780xFQ0wM6U2yNp2XwXDtMHg4FNFleZVkHnbZhyx94h","width":3024}],"place_id":"ChIJM7FYX16ipBIRBvZKJf6rAx4","plus_code":{"compound_code":"94FW+C4 Barcelona","global_code":"8FH494FW+C4"},"price_level":1,"rating":4.4,"reference":"ChIJM7FYX16ipBIRBvZKJf6rAx4","types":["restaurant","food","point_of_interest","establishment"],"user_ratings_total":331},{"business_status":"OPERATIONAL","formatted_address":"Carrer de Martí, 118, 08024 Barcelona","geometry":{"location":{"lat":41.4095618,"lng":2.1605366},"viewport":{"northeast":{"lat":41.41093687989272,"lng":2.161940929892722},"southwest":{"lat":41.40823722010727,"lng":2.159241270107278}}},"icon":"https://maps.gstatic.com/mapfiles/place_api/icons/v1/png_71/bar-71.png","icon_background_color":"#FF9E67","icon_mask_base_uri":"https://maps.gstatic.com/mapfiles/place_api/icons/v2/bar_pinlet","name":"Rosmay","opening_hours":{"open_now":false},"photos":[{"height":4032,"html_attributions":["<a href=\"https://maps.google.com/maps/contrib/103407385148635414582\">Ros May</a>"],"photo_reference":"AeJbb3d8lyjuxRq1styhfFLb3pgYNhX5FJpYLjmuLwWcy3e2PZgx_nv6QVvcgaS6SGIqvBvC9Y_uIK_TJB4pYhxFk1DtkodHZrF-2bpw6w-bJhLUpRjLFsIGboxXCRihQJAXXInckZF6lP3-y7KZdDl8yvzq1rpTrLdOCKieJuzmaW7xrIK4","width":3024}],"place_id":"ChIJITX6krmipBIRBXB248VpAqs","plus_code":{"compound_code":"C556+R6 Barcelona","global_code":"8FH4C556+R6"},"price_level":1,"rating":4.4,"reference":"ChIJITX6krmipBIRBXB248VpAqs","types":["bar","restaurant","food","point_of_interest","establishment"],"user_ratings_total":307},{"business_status":"OPERATIONAL","formatted_address":"La Rambla, 78, 08002 Barcelona","geometry":{"location":{"lat":41.3811162,"lng":2.1736107},"viewport":{"northeast":{"lat":41.38257442989272,"lng":2.174877779892722},"southwest":{"lat":41.37987477010728,"lng":2.172178120107278}}},"icon":"https://maps.gstatic.com/mapfiles/place_api/icons/v1/png_71/restaurant-71.png","icon_background_color":"#FF9E67","icon_mask_base_uri":"https://maps.gstatic.com/mapfiles/place_api/icons/v2/restaurant_pinlet","name":"Gallo Nero Ramblas Teatro Liceu","opening_hours":{"open_now":true},"photos":[{"height":1512,"html_attributions":["<a href=\"https://maps.google.com/maps/contrib/104757984796138428019\">A Google User</a>"],"photo_reference":"AeJbb3dRdlyDxl49c7SEX4tB4qrktOxeeEEVlm-wTUCR9f3W65BlkA_nVUXwIeRudWx9pS1zh9VTB2G1OX8ecUoIUCOQBb1ggQAdlnKBUk9tnHY_amWMq9jNxS4SiRN0WRcTc2eXEJvI4fKse5pspvvQmtl7f9Tw3-RN25VbR53_VDMOzJzb","width":2016}],"place_id":"ChIJjxQ3HtSjpBIROv9bQFXljE4","plus_code":{"compound_code":"95JF+CC Barcelona","global_code":"8FH495JF+CC"},"rating":4.4,"reference":"ChIJjxQ3HtSjpBIROv9bQFXljE4","types":["restaurant","food","point_of_interest","establishment"],"user_ratings_total":100},{"business_status":"OPERATIONAL","formatted_address":"Carretera de la Bordeta, 26, 08014 Barcelona","geometry":{"location":{"lat":41.3739309,"lng":2.1464155},"viewport":{"northeast":{"lat":41.37521592989272,"lng":2.147802479892722},"southwest":{"lat":41.37251627010728,"lng":2.145102820107277}}},"icon":"https://maps.gstatic.com/mapfiles/place_api/icons/v1/png_71/restaurant-71.png","icon_background_color":"#FF9E67","icon_mask_base_uri":"https://maps.gstatic.com/mapfiles/place_api/icons/v2/restaurant_pinlet","name":"Restaurante Yohemar","opening_hours":{"open_now":true},"photos":[{"height":3024,"html_attributions":["<a href=\"https://maps.google.com/maps/contrib/114193948680683359714\">Grace D Hevia R</a>"],"photo_reference":"AeJbb3df6x-QECuYOz80L1JFGFDeatdz7xpzgwNoTXNPo_7aYJYHVA9PXnCnuDOjo_yfbRwwZThZOdY_jOHK6mXgr1icbI_IeatMwaAHVBLi2c3ydRt_UVnINRPHwAGLJzH_xo28--0ZmFDZBOl6A-0Gd3V4CEGujuoNeq569gESOaeVpXOR","width":4032}],"place_id":"ChIJFWkl--WZpBIRByANxjUJKQI","plus_code":{"compound_code":"94FW+HH Barcelona","global_code":"8FH494FW+HH"},"rating":4.4,"reference":"ChIJFWkl--WZpBIRByANxjUJKQI","types":["restaurant","food","point_of_interest","establishment"],"user_ratings_total":27},{"business_status":"OPERATIONAL","formatted_address":"Pl. de Catalunya, 21, 08002 Barcelona","geometry":{"location":{"lat":41.3858942,"lng":2.1707583},"viewport":{"northeast":{"lat":41.38725077989272,"lng":2.172003679892722},"southwest":{"lat":41.38455112010728,"lng":2.169304020107277}}},"icon":"https://maps.gstatic.com/mapfiles/place_api/icons/v1/png_71/restaurant-71.png","icon_background_color":"#FF9E67","icon_mask_base_uri":"https://maps.gstatic.com/mapfiles/place_api/icons/v2/restaurant_pinlet","name":"Hard Rock Cafe","opening_hours":{"open_now":true},"photos":[{"height":1080,"html_attributions":["<a href=\"https://maps.google.com/maps/contrib/114334308050161208135\">fred arthur</a>"],"photo_reference":"AeJbb3dQpLD7lj2-JAUUlORHR1rEwDThYZ0YyJm9YP4jeEHRuPYPOj2pOTnmiaYJ7-lDTWQIKDvGtuzf4Fi2dcBnyoAv0aY86q-6CB7pmrKC6-SQUHrlDxPNeMA87dixYUS9jdiaH5D8lcKcpw-7pG6VqxcGQU9_4E07yyDH3OMsXkF5lLkd","width":1920}],"place_id":"ChIJJ-f2N_GipBIRsCpL-ijBmUA","plus_code":{"compound_code":"95PC+98 Barcelona","global_code":"8FH495PC+98"},"price_level":2,"rating":4.3,"reference":"ChIJJ-f2N_GipBIRsCpL-ijBmUA","types":["bar","restaurant","food","point_of_interest","establishment"],"user_ratings_total":16813},{"business_status":"OPERATIONAL","formatted_address":"Plaça de Joaquim Xirau, s/n, 08002 Barcelona","geometry":{"location":{"lat":41.378436,"lng":2.1767754},"viewport":{"northeast":{"lat":41.37986932989272,"lng":2.178204129892722},"southwest":{"lat":41.37716967010728,"lng":2.175504470107277}}},"icon":"https://maps.gstatic.com/mapfiles/place_api/icons/v1/png_71/bar-71.png","icon_background_color":"#FF9E67","icon_mask_base_uri":"https://maps.gstatic.com/mapfiles/place_api/icons/v2/bar_pinlet","name":"Flaherty´s Irish Pub Barcelona","opening_hours":{"open_now":true},"photos":[{"height":1080,"html_attributions":["<a href=\"https://maps.google.com/maps/contrib/101737887619414666267\">Alexandru Ganea</a>"],"photo_reference":"AeJbb3cven0wr_eysT9o7eGx1pBNYuzSGTF10P9S3xzCYG_42Hm5tvbG7gt_aN4UOF6ZXmhUxl2fKcHYIODuJPUkX0Ag1ym1axyqBN2hJMKurD4q2e6uruVKwfLCq284Ka2oM01nROfQT1ogVG5Vg6_TN5xUpyMNSHiOFgGJYrzDB6AvHS2n","width":1920}],"place_id":"ChIJbaHurleipBIRz9wQ-ob1UlA","plus_code":{"compound_code":"95HG+9P Barcelona","global_code":"8FH495HG+9P"},"price_level":2,"rating":4.3,"reference":"ChIJbaHurleipBIRz9wQ-ob1UlA","types":["bar","restaurant","food","point_of_interest","establishment"],"user_ratings_total":3063},{"business_status":"OPERATIONAL","formatted_address":"Carrer de Casanova, 69, 08011 Barcelona","geometry":{"location":{"lat":41.3857453,"lng":2.1581175},"viewport":{"northeast":{"lat":41.38706952989273,"lng":2.159525379892723},"southwest":{"lat":41.38436987010729,"lng":2.156825720107278}}},"icon":"https://maps.gstatic.com/mapfiles/place_api/icons/v1/png_71/bar-71.png","icon_background_color":"#FF9E67","icon_mask_base_uri":"https://maps.gstatic.com/mapfiles/place_api/icons/v2/bar_pinlet","name":"BrewDog Barcelona","opening_hours":{"open_now":false},"photos":[{"height":2000,"html_attributions":["<a href=\"https://maps.google.com/maps/contrib/112493170721222357313\">Rob Greeley</a>"],"photo_reference":"AeJbb3e4QuqoLixAQhzCGttZ_0EJPUTBzXKVZmwkBbDmPocIEd7tXe8Vi4K-bYojR-dc0K4nqV_sy9dc_CzcV1SIPAVMvmvZ92mXWWpo2WCTIJDAZVXq8UeIxuTIoHOif2zvW88wuJdq9ibUwdEAwGsy01_0mMfraAQJ9oXe9JwYNNKIfwCv","width":4160}],"place_id":"ChIJex7cM4mipBIRlianrJveE5Q","plus_code":{"compound_code":"95P5+76 Barcelona","global_code":"8FH495P5+76"},"price_level":2,"rating":4.3,"reference":"ChIJex7cM4mipBIRlianrJveE5Q","types":["bar","restaurant","food","point_of_interest","establishment"],"user_ratings_total":2689},{"business_status":"OPERATIONAL","formatted_address":"Carrer de Santa Mònica, 2, 08001 Barcelona","geometry":{"location":{"lat":41.3775007,"lng":2.1753932},"viewport":{"northeast":{"lat":41.37882807989272,"lng":2.176737929892723},"southwest":{"lat":41.37612842010728,"lng":2.174038270107278}}},"icon":"https://maps.gstatic.com/mapfiles/place_api/icons/v1/png_71/bar-71.png","icon_background_color":"#FF9E67","icon_mask_base_uri":"https://maps.gstatic.com/mapfiles/place_api/icons/v2/bar_pinlet","name":"The Wild Rover","opening_hours":{"open_now":true},"photos":[{"height":6656,"html_attributions":["<a href=\"https://maps.google.com/maps/contrib/116298536906790177984\">A Google User</a>"],"photo_reference":"AeJbb3c1r_7fpM7TsTaR1tAh7wH1NnB6czxlOG_lJ19UDF9YPuicEzDnsx6kGT7AY2tg6jdFtqg4pz3j80i5GOife4SWYLKWZioWbHPewSNah94DWngUNtGDaHQ2oDQ8V5TbKoHIK7V6KjP6CfNyfnedbki8DCedV8kSx9aIVK3AFdprc3IV","width":13312}],"place_id":"ChIJwfeGbVeipBIRliYXhZ-hH2U","plus_code":{"compound_code":"95HG+25 Barcelona","global_code":"8FH495HG+25"},"price_level":2,"rating":4.3,"reference":"ChIJwfeGbVeipBIRliYXhZ-hH2U","types":["bar","restaurant","food","point_of_interest","establishment"],"user_ratings_total":1402},{"business_status":"OPERATIONAL","formatted_address":"Carrer Occident, 12, 08903 L'Hospitalet de Llobregat, Barcelona","geometry":{"location":{"lat":41.3750766,"lng":2.1199435},"viewport":{"northeast":{"lat":41.37653397989273,"lng":2.121655379892722},"southwest":{"lat":41.37383432010728,"lng":2.118955720107277}}},"icon":"https://maps.gstatic.com/mapfiles/place_api/icons/v1/png_71/bar-71.png","icon_background_color":"#FF9E67","icon_mask_base_uri":"https://maps.gstatic.com/mapfiles/place_api/icons/v2/bar_pinlet","name":"Freiburg","opening_hours":{"open_now":false},"photos":[{"height":3064,"html_attributions":["<a href=\"https://maps.google.com/maps/contrib/112372632759346560272\">A Google User</a>"],"photo_reference":"AeJbb3d_g4e81z4HkG1MgXpr1FCy4HHOLopArzoAETu2ppjwDNUI7EcZgyQHGnD7F2hXiHICbHqZ0423ox1kyfh60Cfx-x7t30phmNnA2dxNLS329p464Rjk_H5p1PjZSf6r0T1vA5cHbgRWvpHQchTPuJJLzC47NLCmvwtZ5R5qfXnJJuqJ","width":4592}],"place_id":"ChIJbz_4Y_GYpBIR0e4fghsKQkY","plus_code":{"compound_code":"94G9+2X L'Hospitalet de Llobregat","global_code":"8FH494G9+2X"},"price_level":1,"rating":4.3,"reference":"ChIJbz_4Y_GYpBIR0e4fghsKQkY","types":["bar","restaurant","food","point_of_interest","establishment"],"user_ratings_total":603},{"business_status":"OPERATIONAL","formatted_address":"Carrer dels Tallers, 62, 08001 Barcelona","geometry":{"location":{"lat":41.3849772,"lng":2.1668119},"viewport":{"northeast":{"lat":41.38631232989272,"lng":2.168159579892722},"southwest":{"lat":41.38361267010728,"lng":2.165459920107278}}},"icon":"https://maps.gstatic.com/mapfiles/place_api/icons/v1/png_71/restaurant-71.png","icon_background_color":"#FF9E67","icon_mask_base_uri":"https://maps.gstatic.com/mapfiles/place_api/icons/v2/restaurant_pinlet","name":"Pelai","opening_hours":{"open_now":false},"photos":[{"height":687,"html_attributions":["<a href=\"https://maps.google.com/maps/contrib/115377160781421024562\">Restaurante Pelai</a>"],"photo_reference":"AeJbb3chCcUVqA2ggzuJxdE05HrsDrabBPm9UEWJ_TPCwgfUAAl8Wn65TGU4SmR6rRB0Y7FG5XytKfC7IPgvFtGKrql5a07fKcee6DIpkiDTdSZhpVSJ42O8FEQ54Uo-4CLimJ_BcdtGxzei6x-a86c8yum8D3IXhGqgZMmuzy7w7mnAVjsg","width":1024}],"place_id":"ChIJsyZGifSipBIRIQ5YkoZvrcI","plus_code":{"compound_code":"95P8+2P Barcelona","global_code":"8FH495P8+2P"},"price_level":2,"rating":4.3,"reference":"ChIJsyZGifSipBIRIQ5YkoZvrcI","types":["restaurant","food","point_of_interest","establishment"],"user_ratings_total":260},{"business_status":"OPERATIONAL","formatted_address":"Carrer de Buenos Aires, 2, 08029 Barcelona","geometry":{"location":{"lat":41.390878,"lng":2.145117},"viewport":{"northeast":{"lat":41.39210657989272,"lng":2.146421479892723},"southwest":{"lat":41.38940692010728,"lng":2.143721820107278}}},"icon":"https://maps.gstatic.com/mapfiles/place_api/icons/v1/png_71/restaurant-71.png","icon_background_color":"#FF9E67","icon_mask_base_uri":"https://maps.gstatic.com/mapfiles/place_api/icons/v2/restaurant_pinlet","name":"Frarkfurt Donildo","opening_hours":{"open_now":true},"photos":[{"height":4032,"html_attributions":["<a href=\"https://maps.google.com/maps/contrib/117741859359384915932\">cyril sheng</a>"],"photo_reference":"AeJbb3ckX6W6lPgjKKyXO2CZHUyLYA1gqtaExtfMA2UdzJ0WlwmERGkqKmm6laCiM5oQ60Wc0qNHFIdMx1j9FmqqStcFKi5WhGRWAE5EWH_tkBKa9AMVsXYoTYyDM1clbwt9LUVvt4k0A-eE9PKyzeT4Vnov5vtfWHbrdOi6owhHHn79hXrp","width":3024}],"place_id":"ChIJ8QpuqIKipBIRJnEL7sbl8mc","plus_code":{"compound_code":"94RW+92 Barcelona","global_code":"8FH494RW+92"},"rating":4.3,"reference":"ChIJ8QpuqIKipBIRJnEL7sbl8mc","types":["bar","restaurant","food","point_of_interest","establishment"],"user_ratings_total":163},{"business_status":"OPERATIONAL","formatted_address":"Carrer de Zamora, 78, 08018 Barcelona","geometry":{"location":{"lat":41.3958474,"lng":2.1902571},"viewport":{"northeast":{"lat":41.39714797989272,"lng":2.191540229892722},"southwest":{"lat":41.39444832010728,"lng":2.188840570107277}}},"icon":"https://maps.gstatic.com/mapfiles/place_api/icons/v1/png_71/bar-71.png","icon_background_color":"#FF9E67","icon_mask_base_uri":"https://maps.gstatic.com/mapfiles/place_api/icons/v2/bar_pinlet","name":"L'Ovella Negra Marina","opening_hours":{"open_now":false},"photos":[{"height":3000,"html_attributions":["<a href=\"https://maps.google.com/maps/contrib/114762918034013858328\">Joan Gomez Quintero</a>"],"photo_reference":"AeJbb3dbDJLaLgKNJc51ojYfwEbYYI6NEv09AJkAiyTQhpG9eiHQkRMtjimXoKYHMCezIVBKsVXHPNdyL4_qFffzjFxhC6XbA0vtldxc3mMyBKYf2mH2d1IC09w5ABcO8kF23ihAHyM2ujyKo7QNgpRP5nmdrB-P8neyqhldtL1lk1Ne2MUj","width":4000}],"place_id":"ChIJl_kKXBmjpBIR0aoTGbeyf-g","plus_code":{"compound_code":"95WR+84 Barcelona","global_code":"8FH495WR+84"},"price_level":1,"rating":4.2,"reference":"ChIJl_kKXBmjpBIR0aoTGbeyf-g","types":["bar","restaurant","food","point_of_interest","establishment"],"user_ratings_total":7154},{"business_status":"OPERATIONAL","formatted_address":"Carrer Gran de Gràcia, 84, 08012 Barcelona","geometry":{"location":{"lat":41.4002691,"lng":2.1551476},"viewport":{"northeast":{"lat":41.40159422989272,"lng":2.156459029892722},"southwest":{"lat":41.39889457010728,"lng":2.153759370107278}}},"icon":"https://maps.gstatic.com/mapfiles/place_api/icons/v1/png_71/restaurant-71.png","icon_background_color":"#FF9E67","icon_mask_base_uri":"https://maps.gstatic.com/mapfiles/place_api/icons/v2/restaurant_pinlet","name":"Frankfurt's Casa Vallès","opening_hours":{"open_now":true},"photos":[{"height":2610,"html_attributions":["<a href=\"https://maps.google.com/maps/contrib/113977672831504990227\">Angel Sanjuan</a>"],"photo_reference":"AeJbb3cEm8j3kiK4JaG-Mq2__bSrDhb5z5RJqPk2rfVqgo2vOtTbThMtlpjuOxpM9BRKgGEqevq7e0aYPb9uTmZRYcJlAyI5olfwsofva-QG0GLqnM8Dr97YXur2erRMq6pNfFSnX2clmmSOYN86vXQhxbUEgsZwYIPm7lSP44l_FMYU4c8j","width":4640}],"place_id":"ChIJa9Va8ZeipBIRRmPE37LiCTs","plus_code":{"compound_code":"C524+43 Barcelona","global_code":"8FH4C524+43"},"price_level":1,"rating":4.2,"reference":"ChIJa9Va8ZeipBIRRmPE37LiCTs","types":["bar","restaurant","food","point_of_interest","establishment"],"user_ratings_total":1085},{"business_status":"OPERATIONAL","formatted_address":"Carrer de l'Alfambra, 20, 08034 Barcelona","geometry":{"location":{"lat":41.3868916,"lng":2.1125307},"viewport":{"northeast":{"lat":41.38826662989273,"lng":2.113796479892722},"southwest":{"lat":41.38556697010728,"lng":2.111096820107278}}},"icon":"https://maps.gstatic.com/mapfiles/place_api/icons/v1/png_71/bar-71.png","icon_background_color":"#FF9E67","icon_mask_base_uri":"https://maps.gstatic.com/mapfiles/place_api/icons/v2/bar_pinlet","name":"Frankfurts Leo Boeck","opening_hours":{"open_now":true},"photos":[{"height":3024,"html_attributions":["<a href=\"https://maps.google.com/maps/contrib/115525467738789752613\">A Google User</a>"],"photo_reference":"AeJbb3ezfAlXY_148XuYBkmj9zn67pmG_1LgneXo0bRc0mcwDpNQFPQa2AOXybVNS4Gd3rRhlOqk-vPyNyQC7KY30DKvO_Tm2VZcU27eiNmdZh7ZAmoNgmFK3gqZ9t6-RPda1h86Ak_IBnsknGuzBSrcgGGW4AGEBlp_G4cYxoAyrQlXzois","width":4032}],"place_id":"ChIJL_pSLVGYpBIRxpR3fvHkSgA","plus_code":{"compound_code":"94P7+Q2 Barcelona","global_code":"8FH494P7+Q2"},"price_level":1,"rating":4.2,"reference":"ChIJL_pSLVGYpBIRxpR3fvHkSgA","types":["bar","restaurant","food","point_of_interest","establishment"],"user_ratings_total":609},{"business_status":"OPERATIONAL","formatted_address":"Ctra. de Martorell, 21, 08740 Sant Andreu de la Barca, Barcelona","geometry":{"location":{"lat":41.4504682,"lng":1.9708794},"viewport":{"northeast":{"lat":41.45190097989272,"lng":1.972369279892722},"southwest":{"lat":41.44920132010728,"lng":1.969669620107277}}},"icon":"https://maps.gstatic.com/mapfiles/place_api/icons/v1/png_71/restaurant-71.png","icon_background_color":"#FF9E67","icon_mask_base_uri":"https://maps.gstatic.com/mapfiles/place_api/icons/v2/restaurant_pinlet","name":"El Rei Dels Frankfurt's","opening_hours":{"open_now":true},"photos":[{"height":3000,"html_attributions":["<a href=\"https://maps.google.com/maps/contrib/109688385202089117821\">Jose Galceran</a>"],"photo_reference":"AeJbb3f7lUDJrHjcDHYnas1ijbGyBxEo7ayJ41UJs5EMnp-bQXOVNoaNSScKmIaPBogPTzqx7bs35b8xeyJ6-olIWDOvN93mF2wZqEXVHUSukFeo9JLf8UdmqyZWjh9c0TkuDYJNjrTbTPlY8xAMrK_OLv8E5VYvp9yyjP6Bzj4urwVJVlPo","width":4000}],"place_id":"ChIJ2QlGIcePpBIREabLZZc9V_4","plus_code":{"compound_code":"FX2C+59 Sant Andreu de la Barca","global_code":"8FH3FX2C+59"},"rating":4.2,"reference":"ChIJ2QlGIcePpBIREabLZZc9V_4","types":["restaurant","food","point_of_interest","establishment"],"user_ratings_total":98},{"business_status":"OPERATIONAL","formatted_address":"Carrer de Gombau, 18, 22, 08003 Barcelona","geometry":{"location":{"lat":41.3870136,"lng":2.1793212},"viewport":{"northeast":{"lat":41.38835337989272,"lng":2.180701029892723},"southwest":{"lat":41.38565372010728,"lng":2.178001370107278}}},"icon":"https://maps.gstatic.com/mapfiles/place_api/icons/v1/png_71/bar-71.png","icon_background_color":"#FF9E67","icon_mask_base_uri":"https://maps.gstatic.com/mapfiles/place_api/icons/v2/bar_pinlet","name":"yPunt Bar-Restaurant-Cocteleria","opening_hours":{"open_now":true},"photos":[{"height":2448,"html_attributions":["<a href=\"https://maps.google.com/maps/contrib/118136290043136129068\">Jordi Ors</a>"],"photo_reference":"AeJbb3cxWqTpK9lOzbTO5Kaa0fgz5-uXvOusPcS-WyMbE6MFVFuOEZxkN02JFK9ycOkWaV60Oq0l685Ur-JE_0R91C1qN4ib6BAdDkItCgFMRtrAD0Rrt4R3tw4nEu1LlWzD0z5aX2Wmufs9_ajzlDJ4-tdslPQNQeivKnGqA3KndgTag0tD","width":3264}],"place_id":"ChIJxfZYdfyipBIRL0L_FQW0BLc","plus_code":{"compound_code":"95PH+RP Barcelona","global_code":"8FH495PH+RP"},"rating":4.2,"reference":"ChIJxfZYdfyipBIRL0L_FQW0BLc","types":["cafe","bar","restaurant","food","point_of_interest","store","establishment"],"user_ratings_total":14},{"business_status":"OPERATIONAL","formatted_address":"Avinguda Diagonal, 208, 08018 Barcelona","geometry":{"location":{"lat":41.4049225,"lng":2.1914761},"viewport":{"northeast":{"lat":41.40612227989272,"lng":2.192875979892723},"southwest":{"lat":41.40342262010728,"lng":2.190176320107278}}},"icon":"https://maps.gstatic.com/mapfiles/place_api/icons/v1/png_71/restaurant-71.png","icon_background_color":"#FF9E67","icon_mask_base_uri":"https://maps.gstatic.com/mapfiles/place_api/icons/v2/restaurant_pinlet","name":"Goofretti Glòries","opening_hours":{"open_now":true},"photos":[{"height":1054,"html_attributions":["<a href=\"https://maps.google.com/maps/contrib/117556447684257751185\">A Google User</a>"],"photo_reference":"AeJbb3cgH1KcWHe6fOSCPhVS8a-WhqVIsm_ob7sF2iN5F7i9Xajp2pObzdB-VzwWQxGEdMO-q7g1XXDDpcTtWhDfywNyWPCTIaZYeHF8KIN08RVBoeIK6hkT1iKEdPlPHLUP0sAFefUZqy1v6aH5pDfsmzussL4yeJmGtD1F9-6RdY_AHW4L","width":1406}],"place_id":"ChIJ8TcchSOjpBIRy04EoESAUnE","plus_code":{"compound_code":"C53R+XH Barcelona","global_code":"8FH4C53R+XH"},"price_level":2,"rating":4.1,"reference":"ChIJ8TcchSOjpBIRy04EoESAUnE","types":["store","restaurant","food","point_of_interest","establishment"],"user_ratings_total":2171},{"business_status":"OPERATIONAL","formatted_address":"Ronda de la Univ., 5, 08007 Barcelona","geometry":{"location":{"lat":41.3862833,"lng":2.1651694},"viewport":{"northeast":{"lat":41.38757472989272,"lng":2.166561779892722},"southwest":{"lat":41.38487507010728,"lng":2.163862120107277}}},"icon":"https://maps.gstatic.com/mapfiles/place_api/icons/v1/png_71/restaurant-71.png","icon_background_color":"#FF9E67","icon_mask_base_uri":"https://maps.gstatic.com/mapfiles/place_api/icons/v2/restaurant_pinlet","name":"Alt Heidelberg","opening_hours":{"open_now":true},"photos":[{"height":3024,"html_attributions":["<a href=\"https://maps.google.com/maps/contrib/111672261079247474263\">Víctor Hugo Rodríguez Riguero</a>"],"photo_reference":"AeJbb3eS2i8T0sdi7nEQPuafYoq86SGXMNIZ8tFCVEIaFK8nRxNztipB3doYQf_8enuyhZpA3etw6CgMcIq8SYXeikFQugBkRkb0YOJfX7QEStCVfswz3vKTSruvZMjAzXFpqG1b39attrzsCnNaw9IWxpFILgUVPQVMESTli58dQtSRJzZ4","width":4032}],"place_id":"ChIJzfvEUPOipBIRPh3iiyBNR7A","plus_code":{"compound_code":"95P8+G3 Barcelona","global_code":"8FH495P8+G3"},"price_level":1,"rating":4.1,"reference":"ChIJzfvEUPOipBIRPh3iiyBNR7A","types":["restaurant","food","point_of_interest","establishment"],"user_ratings_total":1659},{"business_status":"OPERATIONAL","formatted_address":"C/ d'Ausiàs Marc, 19, 08010 Barcelona","geometry":{"location":{"lat":41.3908085,"lng":2.1745769},"viewport":{"northeast":{"lat":41.39209152989272,"lng":2.175993879892722},"southwest":{"lat":41.38939187010728,"lng":2.173294220107278}}},"icon":"https://maps.gstatic.com/mapfiles/place_api/icons/v1/png_71/bar-71.png","icon_background_color":"#FF9E67","icon_mask_base_uri":"https://maps.gstatic.com/mapfiles/place_api/icons/v2/bar_pinlet","name":"Bar Àustria","opening_hours":{"open_now":true},"photos":[{"height":1200,"html_attributions":["<a href=\"https://maps.google.com/maps/contrib/101945704074836811412\">Restaurant Austria</a>"],"photo_reference":"AeJbb3dYcM0HKwHK9uyYKqn6-akppsUP7z2WglQ1R1upMeQkJVAjLVledGGe2xNFB90ZkECy0oVLolERpbl3Q-pRMNreL8PKys3Iy1wp4Zc2FR_EK9w9xmTaQ1Gc25CXi5uyDRS35ogpH7nvTTvWMwXvq-vPDPc2X32BlgxcF1D8sQeOsalU","width":1800}],"place_id":"ChIJg6Y1VeWipBIRmJKzI7ZccJk","plus_code":{"compound_code":"95RF+8R Barcelona","global_code":"8FH495RF+8R"},"price_level":1,"rating":4.1,"reference":"ChIJg6Y1VeWipBIRmJKzI7ZccJk","types":["bar","restaurant","food","point_of_interest","establishment"],"user_ratings_total":85},{"business_status":"OPERATIONAL","formatted_address":"Rambla del Poblenou, 41, 08005 Barcelona","geometry":{"location":{"lat":41.3996159,"lng":2.2029838},"viewport":{"northeast":{"lat":41.40100902989273,"lng":2.204333629892722},"southwest":{"lat":41.39830937010728,"lng":2.201633970107278}}},"icon":"https://maps.gstatic.com/mapfiles/place_api/icons/v1/png_71/restaurant-71.png","icon_background_color":"#FF9E67","icon_mask_base_uri":"https://maps.gstatic.com/mapfiles/place_api/icons/v2/restaurant_pinlet","name":"El Pibe","opening_hours":{"open_now":true},"photos":[{"height":3456,"html_attributions":["<a href=\"https://maps.google.com/maps/contrib/101394411642928908257\">Jonas Riesen</a>"],"photo_reference":"AeJbb3e76a49YC7d5Ln3uW1bwm05hjymK0mEE2BI5DMbJGmss8FfLGtQViXGx_d1PRIGUm6ljAy5CPxjTilSV0w07NwxVpMtMUA6GyzhDrX5DcvsN8PB-HGA3hXJOE_mQDE5r9D57m4f1Rrr9R2grSeJT_YNfIZX0WDz8OuDP9FUvmdYj2VK","width":4608}],"place_id":"ChIJXdrPXBWjpBIRofHYqtvVmrY","plus_code":{"compound_code":"96X3+R5 Barcelona","global_code":"8FH496X3+R5"},"price_level":1,"rating":4,"reference":"ChIJXdrPXBWjpBIRofHYqtvVmrY","types":["restaurant","food","point_of_interest","establishment"],"user_ratings_total":1328},{"business_status":"OPERATIONAL","formatted_address":"Rambla de Fabra i Puig, 68, 08030 Barcelona","geometry":{"location":{"lat":41.4303882,"lng":2.1864111},"viewport":{"northeast":{"lat":41.43164972989272,"lng":2.187767279892722},"southwest":{"lat":41.42895007010728,"lng":2.185067620107278}}},"icon":"https://maps.gstatic.com/mapfiles/place_api/icons/v1/png_71/bar-71.png","icon_background_color":"#FF9E67","icon_mask_base_uri":"https://maps.gstatic.com/mapfiles/place_api/icons/v2/bar_pinlet","name":"Livingstone","opening_hours":{"open_now":true},"photos":[{"height":2322,"html_attributions":["<a href=\"https://maps.google.com/maps/contrib/107107965946426487205\">A Google User</a>"],"photo_reference":"AeJbb3f7DWCMRYB2RAEmfKr4DGhu1N_XV8LkaGZueq8AWKY9aRmXqyBTpgA9tepk0U6KTIvFAAGM879uyfaUr6nFt2VDLVA4FOEf93LPw7P1Rh49IvL_Tswja_KTKrs9ufylgyAS-AkzL8e960o9P5h5h5jvL-YNfXTFefCRq7ewSzUo4G4","width":4128}],"place_id":"ChIJ6wVTgde8pBIRRBFFW9ohtOk","plus_code":{"compound_code":"C5JP+5H Barcelona","global_code":"8FH4C5JP+5H"},"price_level":1,"rating":4,"reference":"ChIJ6wVTgde8pBIRRBFFW9ohtOk","types":["bar","restaurant","food","point_of_interest","establishment"],"user_ratings_total":971},{"business_status":"OPERATIONAL","formatted_address":"Passeig de Gràcia, 92, 08008 Barcelona","geometry":{"location":{"lat":41.3951814,"lng":2.1617077},"viewport":{"northeast":{"lat":41.39649617989272,"lng":2.163045479892722},"southwest":{"lat":41.39379652010728,"lng":2.160345820107278}}},"icon":"https://maps.gstatic.com/mapfiles/place_api/icons/v1/png_71/restaurant-71.png","icon_background_color":"#FF9E67","icon_mask_base_uri":"https://maps.gstatic.com/mapfiles/place_api/icons/v2/restaurant_pinlet","name":"El Cafè de la Pedrera","opening_hours":{"open_now":true},"photos":[{"height":4032,"html_attributions":["<a href=\"https://maps.google.com/maps/contrib/110035878069655930949\">Roxana C</a>"],"photo_reference":"AeJbb3dSWSAsrBuRFcNWYY0Gcb-rPFKqgemwzY4fAMHtNOIWtXr515XTA_J-s7oUH5KnIETbkERyYu8lsTCLNZLeGoxTdJ45bza-uvMY54QUW8NmVytWw1dMVkM1j53DNfyMjKzrXYRLmGUgiuWUe6R3sETQKfgsVYBIUUKd2lOq0ttU5jXG","width":3024}],"place_id":"ChIJC88znZOipBIR3WdZT71ymO8","plus_code":{"compound_code":"95W6+3M Barcelona","global_code":"8FH495W6+3M"},"price_level":3,"rating":4,"reference":"ChIJC88znZOipBIR3WdZT71ymO8","types":["cafe","store","restaurant","food","point_of_interest","establishment"],"user_ratings_total":952},{"business_status":"OPERATIONAL","formatted_address":"Pl. d'Europa, 3, 08902 L'Hospitalet de Llobregat, Barcelona","geometry":{"location":{"lat":41.35739179999999,"lng":2.1270032},"viewport":{"northeast":{"lat":41.35886092989271,"lng":2.128140179892722},"southwest":{"lat":41.35616127010727,"lng":2.125440520107277}}},"icon":"https://maps.gstatic.com/mapfiles/place_api/icons/v1/png_71/bar-71.png","icon_background_color":"#FF9E67","icon_mask_base_uri":"https://maps.gstatic.com/mapfiles/place_api/icons/v2/bar_pinlet","name":"Frankfurt Europa","opening_hours":{"open_now":true},"photos":[{"height":3024,"html_attributions":["<a href=\"https://maps.google.com/maps/contrib/116036299193885101219\">Juan Villar Gomez</a>"],"photo_reference":"AeJbb3d7fythYmYqpT8X2CQ3e2sEymHy0iw6zUO04IOi3O-uyfEN7-ZTbhUdvfxGJw1AZ1t973aG9AgcFfSEvEnp08kBS49FsN_EErpNOrt5s4kNHZp6qAt1wIMClSYsyR0NscJcP_4cWapyKEOMsYe4MNfUJHewmtDWZFkdzCCD5KFRtYaK","width":4032}],"place_id":"ChIJZeWYOb-YpBIRTF6_qL0a-j4","plus_code":{"compound_code":"944G+XR L'Hospitalet de Llobregat","global_code":"8FH4944G+XR"},"price_level":1,"rating":4,"reference":"ChIJZeWYOb-YpBIRTF6_qL0a-j4","types":["bar","restaurant","food","point_of_interest","establishment"],"user_ratings_total":421},{"business_status":"OPERATIONAL","formatted_address":"Av. de Cornellà, 154, 08950 Esplugues de Llobregat, Barcelona","geometry":{"location":{"lat":41.36900079999999,"lng":2.0799725},"viewport":{"northeast":{"lat":41.37037647989272,"lng":2.081410379892722},"southwest":{"lat":41.36767682010728,"lng":2.078710720107277}}},"icon":"https://maps.gstatic.com/mapfiles/place_api/icons/v1/png_71/restaurant-71.png","icon_background_color":"#FF9E67","icon_mask_base_uri":"https://maps.gstatic.com/mapfiles/place_api/icons/v2/restaurant_pinlet","name":"Viena","opening_hours":{"open_now":true},"photos":[{"height":590,"html_attributions":["<a href=\"https://maps.google.com/maps/contrib/102378008049565513313\">A Google User</a>"],"photo_reference":"AeJbb3cs8ki_jggCJ6wZWmmgARNA3LUkmmhFJdX8McucH1-VU_1BsC0cVHo8NNYvoQ8N2Nr9pIb_LTm3qJkwNRc8PWU_kenJPIOkPeVpHprV7fH-2wyJBYaHL1EknrcHr4OoxJgRYXDdDnCREAsaj_nId2JnjMym7gFnQY7KFFmExdvO8AgZ","width":768}],"place_id":"ChIJR3-T8W6ZpBIRXZ5snm3Qojg","plus_code":{"compound_code":"939H+JX Esplugues de Llobregat","global_code":"8FH4939H+JX"},"price_level":2,"rating":3.9,"reference":"ChIJR3-T8W6ZpBIRXZ5snm3Qojg","types":["restaurant","food","point_of_interest","establishment"],"user_ratings_total":1639},{"business_status":"OPERATIONAL","formatted_address":"Carrer del Comandant Benítez, 18, 08028 Barcelona","geometry":{"location":{"lat":41.3801856,"lng":2.1265184},"viewport":{"northeast":{"lat":41.38150257989273,"lng":2.127829379892722},"southwest":{"lat":41.37880292010728,"lng":2.125129720107278}}},"icon":"https://maps.gstatic.com/mapfiles/place_api/icons/v1/png_71/bar-71.png","icon_background_color":"#FF9E67","icon_mask_base_uri":"https://maps.gstatic.com/mapfiles/place_api/icons/v2/bar_pinlet","name":"Frankfurt Munich","opening_hours":{"open_now":true},"photos":[{"height":422,"html_attributions":["<a href=\"https://maps.google.com/maps/contrib/103501078977862400363\">A Google User</a>"],"photo_reference":"AeJbb3f4gse2P0yxSM9cwiKS54bGAgOKI_0iGy0ry6DgpVINuQ12RZned7a6H6JK4BgIgOza2kERjWmt0ln8UyMB5fM7IHAvDqhlJ-hwYbtEHuOAYlILo-PuSay2evmezMtkjkHpmxKqsHYqXmtP7IXApFCiK8G39LDwHMKggeCPcIKV5wqc","width":750}],"place_id":"ChIJ26vnwYqYpBIRT6jgaH2nVGI","plus_code":{"compound_code":"94JG+3J Barcelona","global_code":"8FH494JG+3J"},"rating":3.9,"reference":"ChIJ26vnwYqYpBIRT6jgaH2nVGI","types":["bar","restaurant","food","point_of_interest","establishment"],"user_ratings_total":109},{"business_status":"OPERATIONAL","formatted_address":"Avinguda Diagonal, 208, 08018 Barcelona","geometry":{"location":{"lat":41.4051295,"lng":2.1928543},"viewport":{"northeast":{"lat":41.40647512989271,"lng":2.194451179892722},"southwest":{"lat":41.40377547010727,"lng":2.191751520107277}}},"icon":"https://maps.gstatic.com/mapfiles/place_api/icons/v1/png_71/restaurant-71.png","icon_background_color":"#FF9E67","icon_mask_base_uri":"https://maps.gstatic.com/mapfiles/place_api/icons/v2/restaurant_pinlet","name":"Kurz& Gut glòries","opening_hours":{"open_now":true},"photos":[{"height":2268,"html_attributions":["<a href=\"https://maps.google.com/maps/contrib/114118451392288609524\">Pako Valera</a>"],"photo_reference":"AeJbb3f9HVaemwu8jV057ZM3PDYY36l_p4wHg1DQKFERwbNz7CNYOa0UPbHhspm6yFnAeibW2S_EJX5mwgeKPv4QfvVYCqDpPnBci54fktt0VtgfB7DAPnkFOEbEFt0cpzzW-ZX4uAQMq0E7-oa2pLC-rfwlT61yVUxGJYOH-Y3WHWLW8lNZ","width":4032}],"place_id":"ChIJfcMfYSOjpBIRlD5TO5-qh3s","plus_code":{"compound_code":"C54V+34 Barcelona","global_code":"8FH4C54V+34"},"price_level":2,"rating":3.8,"reference":"ChIJfcMfYSOjpBIRlD5TO5-qh3s","types":["restaurant","food","point_of_interest","establishment"],"user_ratings_total":1668},{"business_status":"OPERATIONAL","formatted_address":"Rambla de Canaletes, 130, 08002 Barcelona","geometry":{"location":{"lat":41.3844213,"lng":2.1710772},"viewport":{"northeast":{"lat":41.38575362989272,"lng":2.172378429892722},"southwest":{"lat":41.38305397010728,"lng":2.169678770107277}}},"icon":"https://maps.gstatic.com/mapfiles/place_api/icons/v1/png_71/restaurant-71.png","icon_background_color":"#FF9E67","icon_mask_base_uri":"https://maps.gstatic.com/mapfiles/place_api/icons/v2/restaurant_pinlet","name":"Subway","opening_hours":{"open_now":false},"photos":[{"height":2976,"html_attributions":["<a href=\"https://maps.google.com/maps/contrib/109066941411872310296\">M Pintó</a>"],"photo_reference":"AeJbb3fJ6oRSutnzVNOP25y2dnSOQhMgT1ZPY902K82iCjCOt7hxmwG57Aik5PktZFvoHOXZsNuiGRcJfAzvs_s9ffyxXMvQgtbHX_JCuTlO43x1udzTa9Mnf1-MUTrJR9BFNe8YhfHWBtAcEJKKYmK_DI4XQU8tjwuqxC2GG-NM_U3XX81g","width":3968}],"place_id":"ChIJR8Ak6vaipBIRDakkzf8gFi0","plus_code":{"compound_code":"95MC+QC Barcelona","global_code":"8FH495MC+QC"},"price_level":1,"rating":3.8,"reference":"ChIJR8Ak6vaipBIRDakkzf8gFi0","types":["restaurant","food","point_of_interest","establishment"],"user_ratings_total":1590},{"business_status":"OPERATIONAL","formatted_address":"La Rambla, 91, 08002 Barcelona","geometry":{"location":{"lat":41.3821243,"lng":2.1720087},"viewport":{"northeast":{"lat":41.38353827989273,"lng":2.173491129892722},"southwest":{"lat":41.38083862010728,"lng":2.170791470107277}}},"icon":"https://maps.gstatic.com/mapfiles/place_api/icons/v1/png_71/bar-71.png","icon_background_color":"#FF9E67","icon_mask_base_uri":"https://maps.gstatic.com/mapfiles/place_api/icons/v2/bar_pinlet","name":"Bar Central","opening_hours":{"open_now":true},"photos":[{"height":720,"html_attributions":["<a href=\"https://maps.google.com/maps/contrib/109991902747940877682\">Shirline Juay</a>"],"photo_reference":"AeJbb3d_N7AY_tl9dajyHl5kpZ4ymoSAPGFDQidBp4BC06Lz80h0arOlkjwxzMcoHKQi9J416J3uFDH2N2CFAIrDGvhsu3dFIm2OWhnvMsYbckorCXUicqU7oAzd_in9RsESk1VGcBKr1Yc978vnkOhZNdur3h4g0gJeBp-BiDffQNcEycUF","width":960}],"place_id":"ChIJn0W4MVejpBIRS0FEnRqz6ac","plus_code":{"compound_code":"95JC+VR Barcelona","global_code":"8FH495JC+VR"},"rating":3.8,"reference":"ChIJn0W4MVejpBIRS0FEnRqz6ac","types":["bar","restaurant","food","point_of_interest","establishment"],"user_ratings_total":900},{"business_status":"OPERATIONAL","formatted_address":"Carrer de Joan d'Àustria, S/N, 08915 Badalona, Barcelona","geometry":{"location":{"lat":41.4654005,"lng":2.2455134},"viewport":{"northeast":{"lat":41.46690777989272,"lng":2.246716079892721},"southwest":{"lat":41.46420812010728,"lng":2.244016420107277}}},"icon":"https://maps.gstatic.com/mapfiles/place_api/icons/v1/png_71/restaurant-71.png","icon_background_color":"#FF9E67","icon_mask_base_uri":"https://maps.gstatic.com/mapfiles/place_api/icons/v2/restaurant_pinlet","name":"Nou punt de set","opening_hours":{"open_now":true},"photos":[{"height":720,"html_attributions":["<a href=\"https://maps.google.com/maps/contrib/105982058100060021270\">A Google User</a>"],"photo_reference":"AeJbb3c4mMFS-JcXkk_shbUSF8hGijTMcAazxO4YKbI4snU1HyAroB23qbIVZtP2mGfpqBOr9Ax6lq3Fk_I452L8sWUg1cYdLV4KhOLKH58mYXdQZTt0wy0w2dgAhbmCb2k6wCJgEG9k1gvMFEUau6zOO9oWj0K9kA1MuH7UR40-XReX28R9","width":1280}],"place_id":"ChIJJ4IzUZa7pBIRHBmXZGE2urs","plus_code":{"compound_code":"F68W+56 Badalona","global_code":"8FH4F68W+56"},"rating":3.7,"reference":"ChIJJ4IzUZa7pBIRHBmXZGE2urs","types":["restaurant","food","point_of_interest","establishment"],"user_ratings_total":388},{"business_status":"OPERATIONAL","formatted_address":"Avinguda de la Granvia de l’Hospitalet, 75, 08908 L'Hospitalet de Llobregat, Barcelona","geometry":{"location":{"lat":41.3582971,"lng":2.1295501},"viewport":{"northeast":{"lat":41.35999607989272,"lng":2.130301229892722},"southwest":{"lat":41.35729642010728,"lng":2.127601570107278}}},"icon":"https://maps.gstatic.com/mapfiles/place_api/icons/v1/png_71/restaurant-71.png","icon_background_color":"#FF9E67","icon_mask_base_uri":"https://maps.gstatic.com/mapfiles/place_api/icons/v2/restaurant_pinlet","name":"Kurz&Gut GranVia2","opening_hours":{"open_now":true},"photos":[{"height":3472,"html_attributions":["<a href=\"https://maps.google.com/maps/contrib/107625461894406170910\">Andrea Gonzalez Magin</a>"],"photo_reference":"AeJbb3feMaekXFoUytwMNkQQZpu-pYFbaa3q824xdoqSw8g0Y-XKj2CK2stZJt3yb0RFfxKFMgiKm2r7idcfqKKUU3Bq1uQXSKvR4xVNFEV3PcswNVl1IjZA1vLGiRlRPnsJMUlmOt8KggyS787B8oivLuGooCaXalNewyPyxKv6UYwoaR2C","width":4624}],"place_id":"ChIJTbm0kb6YpBIRab3it-0kg-0","plus_code":{"compound_code":"945H+8R L'Hospitalet de Llobregat","global_code":"8FH4945H+8R"},"price_level":2,"rating":3.6,"reference":"ChIJTbm0kb6YpBIRab3it-0kg-0","types":["restaurant","food","point_of_interest","establishment"],"user_ratings_total":890},{"business_status":"OPERATIONAL","formatted_address":"C/ de Pau Claris, 73, 08010 Barcelona","geometry":{"location":{"lat":41.38906679999999,"lng":2.1718017},"viewport":{"northeast":{"lat":41.39033882989271,"lng":2.173272429892723},"southwest":{"lat":41.38763917010727,"lng":2.170572770107278}}},"icon":"https://maps.gstatic.com/mapfiles/place_api/icons/v1/png_71/restaurant-71.png","icon_background_color":"#FF9E67","icon_mask_base_uri":"https://maps.gstatic.com/mapfiles/place_api/icons/v2/restaurant_pinlet","name":"Bitte! Wurst - Pau Claris","opening_hours":{"open_now":true},"photos":[{"height":4000,"html_attributions":["<a href=\"https://maps.google.com/maps/contrib/103738701808797465201\">Mario Lorda</a>"],"photo_reference":"AeJbb3e2e4gf_gYeU4T3tP3Mfm_lxEOdVo6_4pXCFwQlxfnAF0PRaJkuhr-jwCiDj6UHPI68BsUAVDAVPSHUOZLVHeJHyTgI1s8bt0sZY2J9tTczSIH6V3hZBgoPQVud4AguUJwmLI_T21MnAg_zpxk14unHxxb0q55RW84uFIKLGd-24OC_","width":3000}],"place_id":"ChIJRa5JsvGipBIRyFBT99LXYq4","plus_code":{"compound_code":"95QC+JP Barcelona","global_code":"8FH495QC+JP"},"price_level":2,"rating":3.6,"reference":"ChIJRa5JsvGipBIRyFBT99LXYq4","types":["restaurant","food","point_of_interest","establishment"],"user_ratings_total":330},{"business_status":"OPERATIONAL","formatted_address":"Carrer de la Marina, 107, 08018 Barcelona","geometry":{"location":{"lat":41.39535619999999,"lng":2.1863564},"viewport":{"northeast":{"lat":41.39667287989273,"lng":2.187659879892723},"southwest":{"lat":41.39397322010728,"lng":2.184960220107278}}},"icon":"https://maps.gstatic.com/mapfiles/place_api/icons/v1/png_71/restaurant-71.png","icon_background_color":"#FF9E67","icon_mask_base_uri":"https://maps.gstatic.com/mapfiles/place_api/icons/v2/restaurant_pinlet","name":"xurros:$","photos":[{"height":1920,"html_attributions":["<a href=\"https://maps.google.com/maps/contrib/113898281907257058925\">Jeroen Van Vuuren</a>"],"photo_reference":"AeJbb3fMEizPjlmlabezy_vsKOigImjx0vJcwqqe012ayM5w10VfbyGZjHMIqpYWSilrKHALuqeXVchzaq7XWGvE5LSqQa8_Jr6u4QNi_3eQpSV7GTfGgbWsJJOb3T8JBzrvuhxvNRHZhtOtF5yBhzzjxzIEy8eMuNjyIuAw3WVJN4sG7YdF","width":1080}],"place_id":"ChIJ5w5Pi_ejpBIRNkoXyMnuOiw","plus_code":{"compound_code":"95WP+4G Barcelona","global_code":"8FH495WP+4G"},"rating":3.6,"reference":"ChIJ5w5Pi_ejpBIRNkoXyMnuOiw","types":["restaurant","food","point_of_interest","establishment"],"user_ratings_total":8},{"business_status":"OPERATIONAL","formatted_address":"Carrer de Calàbria, 16, 08015 Barcelona","geometry":{"location":{"lat":41.37600399999999,"lng":2.1600834},"viewport":{"northeast":{"lat":41.37742487989272,"lng":2.161355029892722},"southwest":{"lat":41.37472522010728,"lng":2.158655370107278}}},"icon":"https://maps.gstatic.com/mapfiles/place_api/icons/v1/png_71/bar-71.png","icon_background_color":"#FF9E67","icon_mask_base_uri":"https://maps.gstatic.com/mapfiles/place_api/icons/v2/bar_pinlet","name":"La Barra de la d'or","opening_hours":{"open_now":true},"photos":[{"height":2736,"html_attributions":["<a href=\"https://maps.google.com/maps/contrib/104839278731390169504\">La Barra de la d&#39;or</a>"],"photo_reference":"AeJbb3dqUNM49SRWs9FzNbZGe19WFB0QxETfEOtlRN0icl0CDz4T2I0fTn4RFr1Xt3vp_fAf9GgRFW2UKEFTWGzWrVDAUrzvMAHncJCkC2zO28fpoBxg4POo3MtKdsYhXya2sssKzf1uFTyGSrA0DMUd4CtMmSp7UadNUVF4fo_po4Tpn0ls","width":3648}],"place_id":"ChIJ8e0srWaipBIRz5agMr4EOx8","plus_code":{"compound_code":"95G6+92 Barcelona","global_code":"8FH495G6+92"},"rating":3.4,"reference":"ChIJ8e0srWaipBIRz5agMr4EOx8","types":["bar","restaurant","food","point_of_interest","establishment"],"user_ratings_total":8},{"business_status":"OPERATIONAL","formatted_address":"Carrer de Santa Fe de Nou Mèxic, s/n, 08017 Barcelona","geometry":{"location":{"lat":41.39356799999999,"lng":2.1359262},"viewport":{"northeast":{"lat":41.39511947989271,"lng":2.137147129892722},"southwest":{"lat":41.39241982010727,"lng":2.134447470107277}}},"icon":"https://maps.gstatic.com/mapfiles/place_api/icons/v1/png_71/restaurant-71.png","icon_background_color":"#FF9E67","icon_mask_base_uri":"https://maps.gstatic.com/mapfiles/place_api/icons/v2/restaurant_pinlet","name":"Frankfurts de Cine","opening_hours":{"open_now":true},"photos":[{"height":4016,"html_attributions":["<a href=\"https://maps.google.com/maps/contrib/103188599158457355394\">A Google User</a>"],"photo_reference":"AeJbb3d5drkKCcex-9Vux-JcP7nnTHql_1CHzhJykFLu_RiLPvmMBSQwh5FYupF7hBtd3Z7O8wFKf3yZgh0zK_lqWMt2P3W0fcVGMqsufgoRESXJC6tfMZ9p62Wdiu1LOLgDJpIuN0pZFQ4NHm7DXEVKxNE8ZtIrGUinUG9SGZE5hUzns4Su","width":6016}],"place_id":"ChIJscI0tHGYpBIR33pZ-395x0E","plus_code":{"compound_code":"94VP+C9 Barcelona","global_code":"8FH494VP+C9"},"price_level":1,"rating":3.3,"reference":"ChIJscI0tHGYpBIR33pZ-395x0E","types":["restaurant","food","point_of_interest","establishment"],"user_ratings_total":208},{"business_status":"OPERATIONAL","formatted_address":"Carrer de Joan d'Àustria, 99, 08018 Barcelona","geometry":{"location":{"lat":41.3953142,"lng":2.188303},"viewport":{"northeast":{"lat":41.39670032989272,"lng":2.189701629892722},"southwest":{"lat":41.39400067010727,"lng":2.187001970107278}}},"icon":"https://maps.gstatic.com/mapfiles/place_api/icons/v1/png_71/restaurant-71.png","icon_background_color":"#FF9E67","icon_mask_base_uri":"https://maps.gstatic.com/mapfiles/place_api/icons/v2/restaurant_pinlet","name":"Restaurante Nou Somni","photos":[{"height":3480,"html_attributions":["<a href=\"https://maps.google.com/maps/contrib/114079290276746192833\">Salar Younis</a>"],"photo_reference":"AeJbb3dy5-gqFAKkrw4l8sYC2YrBqQ56ececv8v-qcteqijBG6SyWJopKb-XJj872xY6GcVDYJem6A-7fuEJiI5F1dZVyQiseSl5wZzPl68lf-z3SQTgvW4BWIKd2ey164S0EpiFSNPeR8HyQlYYkU2M5z3ChuabTQT8vxFAeqrrWrzHlmkg","width":4640}],"place_id":"ChIJ-yhKHByjpBIRzQFBiBDvUiY","plus_code":{"compound_code":"95WQ+48 Barcelona","global_code":"8FH495WQ+48"},"rating":3.1,"reference":"ChIJ-yhKHByjpBIRzQFBiBDvUiY","types":["restaurant","food","point_of_interest","establishment"],"user_ratings_total":7},{"business_status":"OPERATIONAL","formatted_address":"Carrer de Llança, 15, 21, 08015 Barcelona","geometry":{"location":{"lat":41.3765458,"lng":2.1499668},"viewport":{"northeast":{"lat":41.37764137989272,"lng":2.151254379892722},"southwest":{"lat":41.37494172010727,"lng":2.148554720107278}}},"icon":"https://maps.gstatic.com/mapfiles/place_api/icons/v1/png_71/bar-71.png","icon_background_color":"#FF9E67","icon_mask_base_uri":"https://maps.gstatic.com/mapfiles/place_api/icons/v2/bar_pinlet","name":"Bitte! Wurst - Arenas","opening_hours":{"open_now":true},"photos":[{"height":5184,"html_attributions":["<a href=\"https://maps.google.com/maps/contrib/107208192984902568706\">Marcos Sandoval</a>"],"photo_reference":"AeJbb3fkBckGvnylDgxVti2lnyz-mvLmVOXJUaomPjsSb3po2iEGOByuTAZO6AoNqJ5HWYifjLFfaDzPDZqPM_eU4zTIQqHmgIqGvlEsUq-_sPXVNIatsRhQ93bRO837v5kEpDY-Y2s-I68QRLEK_XDWiz16WpfyTiDr9nJsl-1qMPlmC05C","width":13632}],"place_id":"ChIJYdiUA3yipBIRLSEvDtBWNno","plus_code":{"compound_code":"94GX+JX Barcelona","global_code":"8FH494GX+JX"},"rating":2.9,"reference":"ChIJYdiUA3yipBIRLSEvDtBWNno","types":["bar","restaurant","food","point_of_interest","establishment"],"user_ratings_total":167},{"business_status":"CLOSED_TEMPORARILY","formatted_address":"Carrer de Juan de Garay, 33, 08027 Barcelona","geometry":{"location":{"lat":41.4192273,"lng":2.1825863},"viewport":{"northeast":{"lat":41.42053612989272,"lng":2.183988229892722},"southwest":{"lat":41.41783647010728,"lng":2.181288570107278}}},"icon":"https://maps.gstatic.com/mapfiles/place_api/icons/v1/png_71/restaurant-71.png","icon_background_color":"#FF9E67","icon_mask_base_uri":"https://maps.gstatic.com/mapfiles/place_api/icons/v2/restaurant_pinlet","name":"Sabores De Casa Restaurante","permanently_closed":true,"place_id":"ChIJmVgoW7yjpBIRINOKp31JTEw","plus_code":{"compound_code":"C59M+M2 Barcelona","global_code":"8FH4C59M+M2"},"rating":0,"reference":"ChIJmVgoW7yjpBIRINOKp31JTEw","types":["restaurant","food","point_of_interest","establishment"],"user_ratings_total":0}]