[{"business_status":"OPERATIONAL","formatted_address":"Carrer de Marià Cubí, 85, 08006 Barcelona","geometry":{"location":{"lat":41.3973678,"lng":2.1484392},"viewport":{"northeast":{"lat":41.39877167989273,"lng":2.149732179892722},"southwest":{"lat":41.39607202010728,"lng":2.147032520107277}}},"icon":"https://maps.gstatic.com/mapfiles/place_api/icons/v1/png_71/restaurant-71.png","icon_background_color":"#FF9E67","icon_mask_base_uri":"https://maps.gstatic.com/mapfiles/place_api/icons/v2/restaurant_pinlet","name":"Soprano Steak House","opening_hours":{"open_now":false},"photos":[{"height":853,"html_attributions":["<a href=\"https://maps.google.com/maps/contrib/110682473128836406402\">Luis Petrosyan</a>"],"photo_reference":"AeJbb3eUF6U3J-S018bjJy36cPzuibkvIQzbTF5322TAgb2b3zNqjfVPBoGSV6gw8NzxbYRmX2HgF2zcnvzmVpBt0SUGYZySjXZ8n1yZEbQoqPF3bE_cTta653PX5OvKASAZ4oAOoM6OqtZkuhph01i-TKM53kmcBlYox3k2I-k8u1a6Fux5","width":1280}],"place_id":"ChIJT_QJe2CjpBIRNGUjVNPFrao","plus_code":{"compound_code":"94WX+W9 Barcelona","global_code":"8FH494WX+W9"},"rating":5,"reference":"ChIJT_QJe2CjpBIRNGUjVNPFrao","types":["restaurant","food","point_of_interest","establishment"],"user_ratings_total":7},{"business_status":"OPERATIONAL","formatted_address":"Carrer del Comte d'Urgell, 111, 08011 Barcelona","geometry":{"location":{"lat":41.384486,"lng":2.1551885},"viewport":{"northeast":{"lat":41.38588772989273,"lng":2.156607529892722},"southwest":{"lat":41.38318807010729,"lng":2.153907870107278}}},"icon":"https://maps.gstatic.com/mapfiles/place_api/icons/v1/png_71/restaurant-71.png","icon_background_color":"#FF9E67","icon_mask_base_uri":"https://maps.gstatic.com/mapfiles/place_api/icons/v2/restaurant_pinlet","name":"Don Asador","opening_hours":{"open_now":true},"photos":[{"height":3024,"html_attributions":["<a href=\"https://maps.google.com/maps/contrib/108526664257436866478\">A Google User</a>"],"photo_reference":"AeJbb3cZIdqn29JqqO6f3ym0RFSym3K0FNGmZ8zD8pIrb0Mf6gmYplN-9izc2pErm6JIoEWpl_euGD33lHi1ABV2WbrBgfu4CZZ3zandF5cYjiMcWxGxHv39T0GJvNwIJ8myVo3jCbTa9mmb1ctwAJW9yqVAVPu-3lDi8C47i4chwT3OtjWz","width":4032}],"place_id":"ChIJP9t20GijpBIRRoc04WuZuwI","plus_code":{"compound_code":"95M4+Q3 Barcelona","global_code":"8FH495M4+Q3"},"price_level":2,"rating":4.8,"reference":"ChIJP9t20GijpBIRRoc04WuZuwI","types":["restaurant","food","point_of_interest","establishment"],"user_ratings_total":2681},{"business_status":"OPERATIONAL","formatted_address":"Carrer del Rosselló, 365, 08025 Barcelona","geometry":{"location":{"lat":41.4024611,"lng":2.1692939},"viewport":{"northeast":{"lat":41.40377362989272,"lng":2.170695479892722},"southwest":{"lat":41.40107397010728,"lng":2.167995820107277}}},"icon":"https://maps.gstatic.com/mapfiles/place_api/icons/v1/png_71/restaurant-71.png","icon_background_color":"#FF9E67","icon_mask_base_uri":"https://maps.gstatic.com/mapfiles/place_api/icons/v2/restaurant_pinlet","name":"The Venue Steakhouse","opening_hours":{"open_now":true},"photos":[{"height":3024,"html_attributions":["<a href=\"https://maps.google.com/maps/contrib/115560970263898825842\">Josef Malmgren</a>"],"photo_reference":"AeJbb3ex32yjf_Fd_iMp8K8KPNXSQaTlMffNBHFzeDBKR4NoHK3cu3x34F5PC8qrpSkSxFN7ZDV1vsiw1fTEbSuNNQO0Khh6tmO5ROv3v54n5hY5N4yG6CaJvjyyJTQrr0iN6qOAxcOdmDAXFZ9kJskTZHLyPwSubx2Cd0Wc_zajB6sbvr7R","width":4032}],"place_id":"ChIJqX19T4mipBIRnFxECxjP77s","plus_code":{"compound_code":"C529+XP Barcelona","global_code":"8FH4C529+XP"},"price_level":2,"rating":4.8,"reference":"ChIJqX19T4mipBIRnFxECxjP77s","types":["restaurant","food","point_of_interest","establishment"],"user_ratings_total":1011},{"business_status":"OPERATIONAL","formatted_address":"Carrer del Pintor Fortuny, 32, 08001 Barcelona","geometry":{"location":{"lat":41.3823811,"lng":2.1686162},"viewport":{"northeast":{"lat":41.38369757989271,"lng":2.170030179892722},"southwest":{"lat":41.38099792010727,"lng":2.167330520107277}}},"icon":"https://maps.gstatic.com/mapfiles/place_api/icons/v1/png_71/restaurant-71.png","icon_background_color":"#FF9E67","icon_mask_base_uri":"https://maps.gstatic.com/mapfiles/place_api/icons/v2/restaurant_pinlet","name":"Carlota Akaneya","opening_hours":{"open_now":false},"photos":[{"height":2178,"html_attributions":["<a href=\"https://maps.google.com/maps/contrib/111357991488949861437\">CARLOTA AKANEYA</a>"],"photo_reference":"AeJbb3ce91SZJOvlZwQ_wRIiQdjHU8P_-9796jcockVBPWXoU4JK52jncfwKC-OCJw3DfUjIwogmJLQsAht1svZyaDdi0hPHvloBi97W91lHKcZyJLk0rHCN7YbgRDzYWMR9wtkH-GIi_FBoajQ8VmIgs4X-8jluCIv5ISYK0XJqBTHocKID","width":3264}],"place_id":"ChIJNweNw_WipBIRc8l5CQyli7g","plus_code":{"compound_code":"95J9+XC Barcelona","global_code":"8FH495J9+XC"},"price_level":3,"rating":4.7,"reference":"ChIJNweNw_WipBIRc8l5CQyli7g","types":["restaurant","food","point_of_interest","establishment"],"user_ratings_total":1914},{"business_status":"OPERATIONAL","formatted_address":"C/ de València, 334, Local 1, 08009 Barcelona","geometry":{"location":{"lat":41.3963752,"lng":2.1683747},"viewport":{"northeast":{"lat":41.39775692989272,"lng":2.169680979892722},"southwest":{"lat":41.39505727010728,"lng":2.166981320107277}}},"icon":"https://maps.gstatic.com/mapfiles/place_api/icons/v1/png_71/restaurant-71.png","icon_background_color":"#FF9E67","icon_mask_base_uri":"https://maps.gstatic.com/mapfiles/place_api/icons/v2/restaurant_pinlet","name":"9 Nine Restaurant","opening_hours":{"open_now":false},"photos":[{"height":4032,"html_attributions":["<a href=\"https://maps.google.com/maps/contrib/104554349348284587281\">배기훈</a>"],"photo_reference":"AeJbb3dzLDMajs26x5OlPe-LkKaFsqQtmoPrpeu5orr0yehWi2HhxGiCezwxwcj-AWql2rKi7LwvuVOM6P72GtegwoZ4UTqoOdtqQN3EGQT9JyMvZ1B119LyFr-pkEvG0sqfXz3ISOTOAaRXwu3vjOk9B_i2BFxscXOk9aZX57HDOe1JTvha","width":3024}],"place_id":"ChIJmaXG8uuipBIRawbQjvwdL7w","plus_code":{"compound_code":"95W9+H8 Barcelona","global_code":"8FH495W9+H8"},"price_level":2,"rating":4.7,"reference":"ChIJmaXG8uuipBIRawbQjvwdL7w","types":["restaurant","food","point_of_interest","establishment"],"user_ratings_total":1462},{"business_status":"OPERATIONAL","formatted_address":"Rambla de Catalunya, 27, bis, 08007 Barcelona","geometry":{"location":{"lat":41.389101,"lng":2.1658617},"viewport":{"northeast":{"lat":41.39048352989271,"lng":2.167254429892723},"southwest":{"lat":41.38778387010727,"lng":2.164554770107278}}},"icon":"https://maps.gstatic.com/mapfiles/place_api/icons/v1/png_71/restaurant-71.png","icon_background_color":"#FF9E67","icon_mask_base_uri":"https://maps.gstatic.com/mapfiles/place_api/icons/v2/restaurant_pinlet","name":"The Steak House","opening_hours":{"open_now":true},"photos":[{"height":3024,"html_attributions":["<a href=\"https://maps.google.com/maps/contrib/105541910631840339715\">A Google User</a>"],"photo_reference":"AeJbb3eLfjbvnTw3BtAQYScr2pp5FmcoZjIq4_nFja0rqEIFNvtWm42V1NPGRrEMuHhxcyGZWROagESPD9kYJ08eZdjXgitZ9HjEtkb6t2q0gVtK65h_MJPpVdiRYxNWlSTG62xXDcihDy8MF__iOAJK7d79l344fDzrO2IbVwUoq9fPtK_L","width":4032}],"place_id":"ChIJk1jIF0WjpBIRDI-K2RKQUj8","plus_code":{"compound_code":"95Q8+M9 Barcelona","global_code":"8FH495Q8+M9"},"rating":4.7,"reference":"ChIJk1jIF0WjpBIRDI-K2RKQUj8","types":["restaurant","food","point_of_interest","establishment"],"user_ratings_total":1284},{"business_status":"OPERATIONAL","formatted_address":"Passeig de Garcia Fària, 31, 08005 Barcelona","geometry":{"location":{"lat":41.4016042,"lng":2.2108715},"viewport":{"northeast":{"lat":41.40288892989272,"lng":2.212286779892722},"southwest":{"lat":41.40018927010728,"lng":2.209587120107277}}},"icon":"https://maps.gstatic.com/mapfiles/place_api/icons/v1/png_71/restaurant-71.png","icon_background_color":"#FF9E67","icon_mask_base_uri":"https://maps.gstatic.com/mapfiles/place_api/icons/v2/restaurant_pinlet","name":"Tango Grill Steak House","opening_hours":{"open_now":true},"photos":[{"height":1200,"html_attributions":["<a href=\"https://maps.google.com/maps/contrib/112210816914413755144\">A Google User</a>"],"photo_reference":"AeJbb3e1VFAnwLZNYRoAynS1NrzUtr6cl9fX3kh8XuwHOD9LKxvM2L_-CASE8CMw19tjusTUyEI6-LtdoOrcxGk9UdfmbbGoaYsF-Zko-yBj5zxomwMwqwZ2szKCWSCKi9AWtoEU7KOvQ-1Orpi1SXR4dXzSNxLDZGXTU2yW9ocSTK5NEm7q","width":1600}],"place_id":"ChIJGyHh0Z2jpBIR8bU4l82ybic","plus_code":{"compound_code":"C626+J8 Barcelona","global_code":"8FH4C626+J8"},"rating":4.7,"reference":"ChIJGyHh0Z2jpBIR8bU4l82ybic","types":["restaurant","food","point_of_interest","establishment"],"user_ratings_total":1143},{"business_status":"OPERATIONAL","formatted_address":"Carrer de Sant Martí, 92, 08290 Cerdanyola del Vallès, Barcelona","geometry":{"location":{"lat":41.4910453,"lng":2.138779},"viewport":{"northeast":{"lat":41.49229232989271,"lng":2.139940079892722},"southwest":{"lat":41.48959267010727,"lng":2.137240420107278}}},"icon":"https://maps.gstatic.com/mapfiles/place_api/icons/v1/png_71/restaurant-71.png","icon_background_color":"#FF9E67","icon_mask_base_uri":"https://maps.gstatic.com/mapfiles/place_api/icons/v2/restaurant_pinlet","name":"Tast & Gust","opening_hours":{"open_now":false},"photos":[{"height":1800,"html_attributions":["<a href=\"https://maps.google.com/maps/contrib/114616956882014467678\">fernando hayas</a>"],"photo_reference":"AeJbb3eWOy3phztQyu_PENTZ0OB2iJJn3FH7FU6jp5ETmXjNbYFCNs5xyvKFAh5jmYpuoHRYQQFU26OLHWJgwvXoxmSbflicIv-J_jcU4XnUIN4gClVnRk3Od2mBINynRn59dfdRJStdONQGDlVpCJSSjEQgzPuNjESZ9MGZu9EP1JHj6PLg","width":4000}],"place_id":"ChIJt9AkSRuWpBIRgIoZK82C4DY","plus_code":{"compound_code":"F4RQ+CG Cerdanyola del Vallès","global_code":"8FH4F4RQ+CG"},"price_level":3,"rating":4.7,"reference":"ChIJt9AkSRuWpBIRgIoZK82C4DY","types":["restaurant","food","point_of_interest","establishment"],"user_ratings_total":411},{"business_status":"OPERATIONAL","formatted_address":"C/ de Mallorca, 204, 08036 Barcelona","geometry":{"location":{"lat":41.3903646,"lng":2.1581362},"viewport":{"northeast":{"lat":41.39174072989272,"lng":2.159450029892722},"southwest":{"lat":41.38904107010728,"lng":2.156750370107277}}},"icon":"https://maps.gstatic.com/mapfiles/place_api/icons/v1/png_71/restaurant-71.png","icon_background_color":"#FF9E67","icon_mask_base_uri":"https://maps.gstatic.com/mapfiles/place_api/icons/v2/restaurant_pinlet","name":"MAISON CARNE","opening_hours":{"open_now":false},"photos":[{"height":3024,"html_attributions":["<a href=\"https://maps.google.com/maps/contrib/105374227169497004299\">A Google User</a>"],"photo_reference":"AeJbb3eFfevTmcS52ZjtuA-qO17J0AVq3Ycp1-glRAOLQb9Yv1hTwQriTg0Tgm0VgS7taEL9C2NOrc7HNJAh4Y3hGcWVWzyVZkCKW--Qtm0UxvZ9gboN9SEk-whfMODwMqeiD-RmWtynIdVrU8-OTCvoFR_svGAlVXSibbY88U2eHjBBw0jh","width":4032}],"place_id":"ChIJSZv-DAujpBIRo3WArwphAIo","plus_code":{"compound_code":"95R5+47 Barcelona","global_code":"8FH495R5+47"},"price_level":2,"rating":4.7,"reference":"ChIJSZv-DAujpBIRo3WArwphAIo","types":["restaurant","point_of_interest","store","food","establishment"],"user_ratings_total":317},{"business_status":"OPERATIONAL","formatted_address":"C/ de Provença, 32, 08029 Barcelona","geometry":{"location":{"lat":41.3823114,"lng":2.1452022},"viewport":{"northeast":{"lat":41.38363037989272,"lng":2.146503529892722},"southwest":{"lat":41.38093072010728,"lng":2.143803870107277}}},"icon":"https://maps.gstatic.com/mapfiles/place_api/icons/v1/png_71/restaurant-71.png","icon_background_color":"#FF9E67","icon_mask_base_uri":"https://maps.gstatic.com/mapfiles/place_api/icons/v2/restaurant_pinlet","name":"Can vilamarí","opening_hours":{"open_now":true},"photos":[{"height":440,"html_attributions":["<a href=\"https://maps.google.com/maps/contrib/100101209925011398129\">A Google User</a>"],"photo_reference":"AeJbb3ccP_unZn0YuetQKmaqsMTjVAakP7u61iwv8svp5phLWt7qdPFFqnI5ANmb96OCdAa0nwetNsUeo5Xjo545rdwiTbBOadbiQVS0tFJeXy0ufDwIUu2_G0vbj9ApCjP-UhaiZ9y0iJsmecilw61RoNQ7M4BgNEo7-P9WUOR5lquvJjly","width":550}],"place_id":"ChIJnXXSzZejpBIRP0Ixol_Z9AQ","plus_code":{"compound_code":"94JW+W3 Barcelona","global_code":"8FH494JW+W3"},"rating":4.7,"reference":"ChIJnXXSzZejpBIRP0Ixol_Z9AQ","types":["bar","restaurant","food","point_of_interest","establishment"],"user_ratings_total":274},{"business_status":"OPERATIONAL","formatted_address":"C/ d'Aragó, 67, 08015 Barcelona","geometry":{"location":{"lat":41.3811003,"lng":2.1499236},"viewport":{"northeast":{"lat":41.38239282989272,"lng":2.151348979892723},"southwest":{"lat":41.37969317010728,"lng":2.148649320107278}}},"icon":"https://maps.gstatic.com/mapfiles/place_api/icons/v1/png_71/restaurant-71.png","icon_background_color":"#FF9E67","icon_mask_base_uri":"https://maps.gstatic.com/mapfiles/place_api/icons/v2/restaurant_pinlet","name":"Restaurante Angus Beef","opening_hours":{"open_now":false},"photos":[{"height":776,"html_attributions":["<a href=\"https://maps.google.com/maps/contrib/103081902234300172506\">Luka Kladaric</a>"],"photo_reference":"AeJbb3ez2FqjsnBz4fcmU3rc4LqQmlmFYQuTBkIsKLf8CyQYmpHhUDHEmac-sZFQvyg-EUYFJj9amhH8RyIvWjpapFgsx4gyS5WzHyBYzuJydGOUV-qZhCeHJ2R6H8lP0kO4ll1igQC0CViqyfup2mdeMztPN95EZwRN1EqQ4PG10AwPGFsG","width":1296}],"place_id":"ChIJGUiRFn6ipBIRXwwyb7_xfpY","plus_code":{"compound_code":"94JX+CX Barcelona","global_code":"8FH494JX+CX"},"rating":4.7,"reference":"ChIJGUiRFn6ipBIRXwwyb7_xfpY","types":["restaurant","food","point_of_interest","establishment"],"user_ratings_total":3},{"business_status":"OPERATIONAL","formatted_address":"Gran Via de les Corts Catalanes, 660, 08010 Barcelona","geometry":{"location":{"lat":41.3910569,"lng":2.170991},"viewport":{"northeast":{"lat":41.39244162989272,"lng":2.172305829892722},"southwest":{"lat":41.38974197010727,"lng":2.169606170107278}}},"icon":"https://maps.gstatic.com/mapfiles/place_api/icons/v1/png_71/restaurant-71.png","icon_background_color":"#FF9E67","icon_mask_base_uri":"https://maps.gstatic.com/mapfiles/place_api/icons/v2/restaurant_pinlet","name":"Patagònia Beef & Wine","opening_hours":{"open_now":false},"photos":[{"height":4962,"html_attributions":["<a href=\"https://maps.google.com/maps/contrib/107962625590089088725\">Patagonia Beef &amp; Wine</a>"],"photo_reference":"AeJbb3dJ4QesDOCa4gpEXun12kfcoC-u6yI5cZIC-AfV142s1J0pnYvLhLI7qyibliKsVLM3YxKOAm4eiu_-GWXSqJSUy1_35TBrcRMQUp4-8PaMkZkDcm66gnIJ3tZWhw1N_OstgRKAouOwG5xAiCMleyg3rn_27DdefY4CFvd9TR7a9VHP","width":3391}],"place_id":"ChIJM6qGIe6ipBIRO_YoPoZ1bQg","plus_code":{"compound_code":"95RC+CC Barcelona","global_code":"8FH495RC+CC"},"price_level":2,"rating":4.6,"reference":"ChIJM6qGIe6ipBIRO_YoPoZ1bQg","types":["restaurant","food","point_of_interest","establishment"],"user_ratings_total":1740},{"business_status":"OPERATIONAL","formatted_address":"Carrer de la Diputació, 379, 08013 Barcelona","geometry":{"location":{"lat":41.3970575,"lng":2.1757372},"viewport":{"northeast":{"lat":41.39836642989272,"lng":2.177121829892722},"southwest":{"lat":41.39566677010728,"lng":2.174422170107277}}},"icon":"https://maps.gstatic.com/mapfiles/place_api/icons/v1/png_71/restaurant-71.png","icon_background_color":"#FF9E67","icon_mask_base_uri":"https://maps.gstatic.com/mapfiles/place_api/icons/v2/restaurant_pinlet","name":"Restaurant Parrilla Alfonsina","opening_hours":{"open_now":false},"photos":[{"height":3456,"html_attributions":["<a href=\"https://maps.google.com/maps/contrib/104551391815457551524\">FIDÉLIS CABREIRA</a>"],"photo_reference":"AeJbb3ctTiip6y_UXwoUVEEjzhkS1Is5T2A2mh-t11QNrFu17PwQ3orQNL2KPBeKF7Gjhtc_QJ4j3E6I-MY81lNR3lLGqQ4mieMHHASPXlmjRCuDXVwXJRAkPMzt91Eb35xGZQyNEXyeRNnp7PjXdOWaGYzSf4q9o4FxJ7qlCx_jdI_rv78e","width":4608}],"place_id":"ChIJudqNP-aipBIRJL-xaciw6xw","plus_code":{"compound_code":"95WG+R7 Barcelona","global_code":"8FH495WG+R7"},"price_level":2,"rating":4.6,"reference":"ChIJudqNP-aipBIRJL-xaciw6xw","types":["restaurant","food","point_of_interest","establishment"],"user_ratings_total":1517},{"business_status":"OPERATIONAL","formatted_address":"Carrer de la Freneria, 5, 08002 Barcelona","geometry":{"location":{"lat":41.3837027,"lng":2.1773463},"viewport":{"northeast":{"lat":41.38486802989272,"lng":2.179007329892722},"southwest":{"lat":41.38216837010728,"lng":2.176307670107277}}},"icon":"https://maps.gstatic.com/mapfiles/place_api/icons/v1/png_71/restaurant-71.png","icon_background_color":"#FF9E67","icon_mask_base_uri":"https://maps.gstatic.com/mapfiles/place_api/icons/v2/restaurant_pinlet","name":"Grill Restaurant","opening_hours":{"open_now":true},"photos":[{"height":3961,"html_attributions":["<a href=\"https://maps.google.com/maps/contrib/115974485643417930624\">A Google User</a>"],"photo_reference":"AeJbb3fWvSEejWr_N2_gm27kph5FgJeISpMRzeWt3OWgYCcEF8NI4F-VenrkZ1DjvCdB__G1pIB8oEmEVGeldwq2BxETkbTHMe-bm_L-3dkK-kDxB8a87GvptJ9dVbwdqARg0eaSZKCkk-pM32Hc_oiFg4f1ylOqRNZN0mPlkuUf4mBQPKhu","width":5933}],"place_id":"ChIJgRsgz_SjpBIRHk1Ge6wrm6s","plus_code":{"compound_code":"95MG+FW Barcelona","global_code":"8FH495MG+FW"},"price_level":2,"rating":4.6,"reference":"ChIJgRsgz_SjpBIRHk1Ge6wrm6s","types":["restaurant","food","point_of_interest","establishment"],"user_ratings_total":1145},{"business_status":"OPERATIONAL","formatted_address":"Carrer de Venero, 18, 08005 Barcelona","geometry":{"location":{"lat":41.4018138,"lng":2.2014492},"viewport":{"northeast":{"lat":41.40318157989272,"lng":2.202790879892722},"southwest":{"lat":41.40048192010727,"lng":2.200091220107278}}},"icon":"https://maps.gstatic.com/mapfiles/place_api/icons/v1/png_71/restaurant-71.png","icon_background_color":"#FF9E67","icon_mask_base_uri":"https://maps.gstatic.com/mapfiles/place_api/icons/v2/restaurant_pinlet","name":"TIERRA DEL FUEGO","opening_hours":{"open_now":false},"photos":[{"height":2268,"html_attributions":["<a href=\"https://maps.google.com/maps/contrib/107049557434043950466\">Jeff Lee</a>"],"photo_reference":"AeJbb3cUwzKR1nlXohCvhO-xGH24IJoSd1NYojAcf0BzgbEfw0piQ5C5UaDqfAgLKur4ahrR1-Whu2nIPtxJD4cJsc7fOQ5o2-G6n67ShdgGpDbuONvBu8T7WHxdIMkQZUjl-qr38ZPMkLB34acjpvoh1xmVxXkDLp4dHG_-8IxeYe_UieER","width":4032}],"place_id":"ChIJF9qdTD6jpBIRQ9SFTZ3wDHo","plus_code":{"compound_code":"C622+PH Barcelona","global_code":"8FH4C622+PH"},"price_level":2,"rating":4.6,"reference":"ChIJF9qdTD6jpBIRQ9SFTZ3wDHo","types":["restaurant","point_of_interest","food","establishment"],"user_ratings_total":1009},{"business_status":"OPERATIONAL","formatted_address":"Carrer de Roc Boronat, 70, 08005 Barcelona","geometry":{"location":{"lat":41.4004093,"lng":2.1980663},"viewport":{"northeast":{"lat":41.40169252989273,"lng":2.199295729892722},"southwest":{"lat":41.39899287010728,"lng":2.196596070107278}}},"icon":"https://maps.gstatic.com/mapfiles/place_api/icons/v1/png_71/restaurant-71.png","icon_background_color":"#FF9E67","icon_mask_base_uri":"https://maps.gstatic.com/mapfiles/place_api/icons/v2/restaurant_pinlet","name":"La Tavernicola","opening_hours":{"open_now":true},"photos":[{"height":3024,"html_attributions":["<a href=\"https://maps.google.com/maps/contrib/109180787133254945292\">martins</a>"],"photo_reference":"AeJbb3fDCIQhL7-a5611Bw8p9PGVZ-EI-mRarj7hgWRUixTGuI274kUsns4cEzGxFb0eBe5pSyqQKBugZ7xWXI02ZO-gLkO9vzsJxuXt8_-FWlPmyipc3QcxJHvKFF-RpXX0LgJ2BydiMNIkwUsnGkzmsmxLY1gKNyu-d2Dv7LjBpa29GaeB","width":4032}],"place_id":"ChIJk7Fa9T2jpBIRdqE3OM-I1OE","plus_code":{"compound_code":"C52X+56 Barcelona","global_code":"8FH4C52X+56"},"price_level":2,"rating":4.6,"reference":"ChIJk7Fa9T2jpBIRdqE3OM-I1OE","types":["restaurant","point_of_interest","food","establishment"],"user_ratings_total":976},{"business_status":"OPERATIONAL","formatted_address":"Carrer de Margarit, 24, 08004 Barcelona","geometry":{"location":{"lat":41.3736021,"lng":2.1634482},"viewport":{"northeast":{"lat":41.37495317989272,"lng":2.164837679892722},"southwest":{"lat":41.37225352010728,"lng":2.162138020107277}}},"icon":"https://maps.gstatic.com/mapfiles/place_api/icons/v1/png_71/restaurant-71.png","icon_background_color":"#FF9E67","icon_mask_base_uri":"https://maps.gstatic.com/mapfiles/place_api/icons/v2/restaurant_pinlet","name":"O Meu Lar","opening_hours":{"open_now":false},"photos":[{"height":3056,"html_attributions":["<a href=\"https://maps.google.com/maps/contrib/107080286767550434139\">Олексій Жабуровський</a>"],"photo_reference":"AeJbb3flW9_k44dpJL8w6W9EmFUSJ-EO9UGMC2SLXfU1dYiPqZYkB-YXJN2fiYEJShGM7j8GqWof5q3YQHHMJ8OO45-_ZiPsAC4fPsM7jq4M8njFBVFSJ6faIHxUPrxcFm38t40fwYmwSzFi_YWwWrXMUAbDIkXISG-MXKCbjj9a8zriVwln","width":4960}],"place_id":"ChIJ9-fJdGeipBIRKmE6wCXX7pk","plus_code":{"compound_code":"95F7+C9 Barcelona","global_code":"8FH495F7+C9"},"price_level":2,"rating":4.6,"reference":"ChIJ9-fJdGeipBIRKmE6wCXX7pk","types":["restaurant","food","point_of_interest","establishment"],"user_ratings_total":949},{"business_status":"OPERATIONAL","formatted_address":"C. de Còrsega, 235, 08036 Barcelona","geometry":{"location":{"lat":41.3922131,"lng":2.1532164},"viewport":{"northeast":{"lat":41.39348427989272,"lng":2.154672279892722},"southwest":{"lat":41.39078462010728,"lng":2.151972620107277}}},"icon":"https://maps.gstatic.com/mapfiles/place_api/icons/v1/png_71/restaurant-71.png","icon_background_color":"#FF9E67","icon_mask_base_uri":"https://maps.gstatic.com/mapfiles/place_api/icons/v2/restaurant_pinlet","name":"La Selva","opening_hours":{"open_now":true},"photos":[{"height":6936,"html_attributions":["<a href=\"https://maps.google.com/maps/contrib/103444330422743552297\">Yolanda Garcia Brao</a>"],"photo_reference":"AeJbb3fl2gNXhVcp12sXbwTD0kuhr4iH4VB6h0RB-D-epruu7_u7WwnA_yswoi-amBu_AuIGUcqBcbp17CBK3Y4PoOieW1Byfn1VOKOXwz7IY8mZhPhTnna1Er6cNpciDOABGIrS7HR0_zkWjdRNFBc7sXX4ftMR6zl0ffprMvR7izj3KKw0","width":9248}],"place_id":"ChIJEwl7ox-jpBIRxB5swwRcjqE","plus_code":{"compound_code":"95R3+V7 Barcelona","global_code":"8FH495R3+V7"},"price_level":3,"rating":4.6,"reference":"ChIJEwl7ox-jpBIRxB5swwRcjqE","types":["restaurant","food","point_of_interest","establishment"],"user_ratings_total":765},{"business_status":"OPERATIONAL","formatted_address":"C/ de València, 454, 08013 Barcelona","geometry":{"location":{"lat":41.4029144,"lng":2.1770986},"viewport":{"northeast":{"lat":41.40429682989271,"lng":2.178406429892723},"southwest":{"lat":41.40159717010727,"lng":2.175706770107278}}},"icon":"https://maps.gstatic.com/mapfiles/place_api/icons/v1/png_71/restaurant-71.png","icon_background_color":"#FF9E67","icon_mask_base_uri":"https://maps.gstatic.com/mapfiles/place_api/icons/v2/restaurant_pinlet","name":"Bardeni el meatbar - Caldeni","opening_hours":{"open_now":false},"photos":[{"height":6944,"html_attributions":["<a href=\"https://maps.google.com/maps/contrib/106386130615914059991\">Víctor Martín</a>"],"photo_reference":"AeJbb3fJ-o2c713eYwsM2nD-1KCntB0kcpaBFGntowNW8ZMxNCHfditQbm-qriRhpvxboEPAuHoXJ6PF4lnJSc6ZkmgFvrk5AIqP3OxM_6OXYrhnnquL82XLsIAZSRy0BLwT4bSD2NTEF3xhd3VTc_J_NkPjC-0HqZNtSrCJiDrcrGh3ZoyP","width":9280}],"place_id":"ChIJCeXlq92ipBIRpdK__54n0FI","plus_code":{"compound_code":"C53G+5R Barcelona","global_code":"8FH4C53G+5R"},"price_level":2,"rating":4.6,"reference":"ChIJCeXlq92ipBIRpdK__54n0FI","types":["restaurant","food","point_of_interest","establishment"],"user_ratings_total":713},{"business_status":"OPERATIONAL","formatted_address":"Carrer de Girona, 17, 08010 Barcelona","geometry":{"location":{"lat":41.3915292,"lng":2.1750943},"viewport":{"northeast":{"lat":41.39294952989272,"lng":2.176552879892722},"southwest":{"lat":41.39024987010728,"lng":2.173853220107277}}},"icon":"https://maps.gstatic.com/mapfiles/place_api/icons/v1/png_71/restaurant-71.png","icon_background_color":"#FF9E67","icon_mask_base_uri":"https://maps.gstatic.com/mapfiles/place_api/icons/v2/restaurant_pinlet","name":"Pirineu En Boca","opening_hours":{"open_now":true},"photos":[{"height":4080,"html_attributions":["<a href=\"https://maps.google.com/maps/contrib/111667513674209167368\">Simon Lindh</a>"],"photo_reference":"AeJbb3c4xQL26hZuFQwkPH6pwQA2hkd-87bzAhRlekW5Uh4yU7x5W1lPNXC95kj-rB6CBd0sBu4Nw9Say9G_beIYVnWgr8Agy2r7zCpjNxbNQfbqobDjfM347uINFeBW8cSGddboXdrvrKpzCcelowufOJfspSNfLj3mlv2ki9Er-UokIsyS","width":3072}],"place_id":"ChIJOcuaROWipBIR9MBhbz-OqJ4","plus_code":{"compound_code":"95RG+J2 Barcelona","global_code":"8FH495RG+J2"},"price_level":2,"rating":4.6,"reference":"ChIJOcuaROWipBIR9MBhbz-OqJ4","types":["restaurant","meal_delivery","grocery_or_supermarket","point_of_interest","store","food","establishment"],"user_ratings_total":680},{"business_status":"OPERATIONAL","formatted_address":"Carrer de la Indústria, 138, 08025 Barcelona","geometry":{"location":{"lat":41.4086939,"lng":2.1735737},"viewport":{"northeast":{"lat":41.40998777989273,"lng":2.174885479892722},"southwest":{"lat":41.40728812010729,"lng":2.172185820107277}}},"icon":"https://maps.gstatic.com/mapfiles/place_api/icons/v1/png_71/restaurant-71.png","icon_background_color":"#FF9E67","icon_mask_base_uri":"https://maps.gstatic.com/mapfiles/place_api/icons/v2/restaurant_pinlet","name":"Braseria La Selva Barcelona","opening_hours":{"open_now":true},"photos":[{"height":4912,"html_attributions":["<a href=\"https://maps.google.com/maps/contrib/101400599346113836600\">A Google User</a>"],"photo_reference":"AeJbb3dXxS216ukFHg8tdUm8Nor-Fo6ox9ghEXX7Ih6JOcrmqRePcVt-G4tzhPl5vJSUBDHorY-U3yxI9f2PSih8psQim_94Z7DDBf6Yq1yw473u6cgSpeefTSqe_bIf8VKtCCQrrFOevvmU_OZKcR4Rgqh2zlauDeKsgGrwYEwluA47xiXt","width":7360}],"place_id":"ChIJf1OKJMWipBIRWnHMcnQA0xM","plus_code":{"compound_code":"C55F+FF Barcelona","global_code":"8FH4C55F+FF"},"price_level":2,"rating":4.5,"reference":"ChIJf1OKJMWipBIRWnHMcnQA0xM","types":["restaurant","food","point_of_interest","establishment"],"user_ratings_total":4059},{"business_status":"OPERATIONAL","formatted_address":"C/ de València, 267, 08007 Barcelona","geometry":{"location":{"lat":41.39401609999999,"lng":2.1648671},"viewport":{"northeast":{"lat":41.39533647989272,"lng":2.166265629892722},"southwest":{"lat":41.39263682010728,"lng":2.163565970107277}}},"icon":"https://maps.gstatic.com/mapfiles/place_api/icons/v1/png_71/restaurant-71.png","icon_background_color":"#FF9E67","icon_mask_base_uri":"https://maps.gstatic.com/mapfiles/place_api/icons/v2/restaurant_pinlet","name":"9 Reinas","opening_hours":{"open_now":true},"photos":[{"height":539,"html_attributions":["<a href=\"https://maps.google.com/maps/contrib/103601958386434018409\">Aleks Kowalsky</a>"],"photo_reference":"AeJbb3ejyWcudh_3PWXoyb9AcHs6kzlwQIQf3R_HQpBX7pNQCin4Xa0ZmE4LztOsxesWk_pdDoqkhhT43K5YaI7KiZ1QhtjpTUtgEQqI0-au-aAnMgDFg8Iv9sJQP6o0OXKN4L8N8Y0-EjIUVECL7WyfYilor85MonHp_hoBBa7Qg43nd6_a","width":750}],"place_id":"ChIJr05z0uyipBIR2P_c0PsSW2g","plus_code":{"compound_code":"95V7+JW Barcelona","global_code":"8FH495V7+JW"},"price_level":3,"rating":4.5,"reference":"ChIJr05z0uyipBIR2P_c0PsSW2g","types":["restaurant","food","point_of_interest","establishment"],"user_ratings_total":2278},{"business_status":"OPERATIONAL","formatted_address":"Carrer Nou de la Rambla, 22, 08001 Barcelona","geometry":{"location":{"lat":41.3784465,"lng":2.1735151},"viewport":{"northeast":{"lat":41.37982242989272,"lng":2.174877729892722},"southwest":{"lat":41.37712277010728,"lng":2.172178070107277}}},"icon":"https://maps.gstatic.com/mapfiles/place_api/icons/v1/png_71/restaurant-71.png","icon_background_color":"#FF9E67","icon_mask_base_uri":"https://maps.gstatic.com/mapfiles/place_api/icons/v2/restaurant_pinlet","name":"National Burger","opening_hours":{"open_now":true},"photos":[{"height":3024,"html_attributions":["<a href=\"https://maps.google.com/maps/contrib/101227548968185431050\">Claudia Blánquez</a>"],"photo_reference":"AeJbb3fQk2mVf_ZVcV-WcS7WeCdzsPvAfeRnosSanBh7XqvPMZ6hG4l434pG6Pdd9T3R9yiny2ZauLtxFOQgRM2B4Ii4SwUQPAqI4VXTTiJdO5JKSiPnXNrnUiT7fGQSY9zEpAu4i_Roa79fUQpMYLbAkjqO8nql2mPH6DscsGgAPFNZeCG1","width":4032}],"place_id":"ChIJHWj8M1iipBIRHhnQXWdmZqc","plus_code":{"compound_code":"95HF+9C Barcelona","global_code":"8FH495HF+9C"},"price_level":2,"rating":4.5,"reference":"ChIJHWj8M1iipBIRHhnQXWdmZqc","types":["restaurant","food","point_of_interest","establishment"],"user_ratings_total":1692},{"business_status":"OPERATIONAL","formatted_address":"Carrer de Casanova, 212, 08036 Barcelona","geometry":{"location":{"lat":41.3919739,"lng":2.1503102},"viewport":{"northeast":{"lat":41.39333352989272,"lng":2.151546529892722},"southwest":{"lat":41.39063387010727,"lng":2.148846870107278}}},"icon":"https://maps.gstatic.com/mapfiles/place_api/icons/v1/png_71/restaurant-71.png","icon_background_color":"#FF9E67","icon_mask_base_uri":"https://maps.gstatic.com/mapfiles/place_api/icons/v2/restaurant_pinlet","name":"Can Xurrades","opening_hours":{"open_now":false},"photos":[{"height":800,"html_attributions":["<a href=\"https://maps.google.com/maps/contrib/105612721943140740253\">Brasería Can Xurrades</a>"],"photo_reference":"AeJbb3enaxOe0Lm2irZfZRdsyh85hGG7kAisWnp5icMmKcz340eAsadD8lzle-iSuW8s4M_ZzXlXze3crMfLadMjYk7RYbxa-tQRoKMViqTEhkfBZXohGTUKlJNX61BQeWbOuz2V_sHhXcNzsIUXpCNlnBoDZzMHS1X33CVllDeLOC8njcGm","width":1200}],"place_id":"ChIJe-j2k5eipBIR-0ppTedb2Qo","plus_code":{"compound_code":"95R2+Q4 Barcelona","global_code":"8FH495R2+Q4"},"price_level":3,"rating":4.5,"reference":"ChIJe-j2k5eipBIR-0ppTedb2Qo","types":["restaurant","point_of_interest","food","establishment"],"user_ratings_total":1338},{"business_status":"OPERATIONAL","formatted_address":"C. de Floridablanca, 140, 08011 Barcelona","geometry":{"location":{"lat":41.3813196,"lng":2.1624571},"viewport":{"northeast":{"lat":41.38271497989273,"lng":2.163746729892722},"southwest":{"lat":41.38001532010728,"lng":2.161047070107278}}},"icon":"https://maps.gstatic.com/mapfiles/place_api/icons/v1/png_71/restaurant-71.png","icon_background_color":"#FF9E67","icon_mask_base_uri":"https://maps.gstatic.com/mapfiles/place_api/icons/v2/restaurant_pinlet","name":"El Laurel","opening_hours":{"open_now":true},"photos":[{"height":4032,"html_attributions":["<a href=\"https://maps.google.com/maps/contrib/106468343931252111251\">Mario Ivan Paez Guzman</a>"],"photo_reference":"AeJbb3eP4aPPqu1dzNhHxPKBwd4j6YT-3zSPE6kYn1UbEGhB18t8bcx8nSaxDadNvxZEDmLHdhfbgsKneEr0v3aIvxV-OGTtNaIwsqjDrKMWJiQk8g58DDAP00g0FIB08UK0arXCqoz1jTnFRRu4FgQTt-rM_ZlyYwDJV5px69rmcnY_F-xD","width":3024}],"place_id":"ChIJL2iZhoqipBIR8yrz7bAzwqg","plus_code":{"compound_code":"95J6+GX Barcelona","global_code":"8FH495J6+GX"},"price_level":1,"rating":4.5,"reference":"ChIJL2iZhoqipBIR8yrz7bAzwqg","types":["bar","restaurant","food","point_of_interest","establishment"],"user_ratings_total":934},{"business_status":"OPERATIONAL","formatted_address":"Carrer de Casp, 151, 08013 Barcelona","geometry":{"location":{"lat":41.398556,"lng":2.182766},"viewport":{"northeast":{"lat":41.39989122989272,"lng":2.184179279892722},"southwest":{"lat":41.39719157010727,"lng":2.181479620107277}}},"icon":"https://maps.gstatic.com/mapfiles/place_api/icons/v1/png_71/restaurant-71.png","icon_background_color":"#FF9E67","icon_mask_base_uri":"https://maps.gstatic.com/mapfiles/place_api/icons/v2/restaurant_pinlet","name":"Ayres del Sur","opening_hours":{"open_now":false},"photos":[{"height":1000,"html_attributions":["<a href=\"https://maps.google.com/maps/contrib/113416653782275148455\">Ayres del Sur</a>"],"photo_reference":"AeJbb3dnbgvtiHouj4DlPlLomzCybtfRWdVP6frYNbbBztd8bP2QrmpCQtZazxh45-AQi_PFNwLn9mmizdAeNjHVQgbc9DjYEwaDVOxmJ6yF3XMjTS2y3pv94iYep8RiBx_hVl_O0S9gf2mBZqfpH9NEJ7Awv8j_yHXsII5dGU6eLLEwVjM-","width":2000}],"place_id":"ChIJm0XWTuCipBIRy8qfViHZuw8","plus_code":{"compound_code":"95XM+C4 Barcelona","global_code":"8FH495XM+C4"},"price_level":2,"rating":4.5,"reference":"ChIJm0XWTuCipBIRy8qfViHZuw8","types":["restaurant","point_of_interest","food","establishment"],"user_ratings_total":789},{"business_status":"OPERATIONAL","formatted_address":"Carrer del Rosselló, 24, 08029 Barcelona","geometry":{"location":{"lat":41.3844964,"lng":2.1458806},"viewport":{"northeast":{"lat":41.38589282989273,"lng":2.147200679892723},"southwest":{"lat":41.38319317010728,"lng":2.144501020107278}}},"icon":"https://maps.gstatic.com/mapfiles/place_api/icons/v1/png_71/restaurant-71.png","icon_background_color":"#FF9E67","icon_mask_base_uri":"https://maps.gstatic.com/mapfiles/place_api/icons/v2/restaurant_pinlet","name":"b Restaurant","opening_hours":{"open_now":false},"photos":[{"height":3024,"html_attributions":["<a href=\"https://maps.google.com/maps/contrib/112637526955088089552\">NovatusMaximus</a>"],"photo_reference":"AeJbb3cutEzaKh_10jLQ1Hb2h5adLCzKfYKzCjghkVN1hlZ65Fz6xMIMeP76RPkuAYb6ygqLMveeP8mKvaaT0ENwDgQXPlgCUqdDp2SIVzOQDSjplW8um56B8tu2q3a7cT8DHaC1PfXcfp7TIhpQb1ZCTb0EcJY-QvjfqwZ4Vt3crC2my6Zq","width":4032}],"place_id":"ChIJq6noxYGipBIRRcSQWj97xbI","plus_code":{"compound_code":"94MW+Q9 Barcelona","global_code":"8FH494MW+Q9"},"rating":4.5,"reference":"ChIJq6noxYGipBIRRcSQWj97xbI","types":["restaurant","food","point_of_interest","establishment"],"user_ratings_total":780},{"business_status":"OPERATIONAL","formatted_address":"Carrer de Tamarit, 109, 08015 Barcelona","geometry":{"location":{"lat":41.3761067,"lng":2.157229},"viewport":{"northeast":{"lat":41.37735977989271,"lng":2.158653929892722},"southwest":{"lat":41.37466012010727,"lng":2.155954270107277}}},"icon":"https://maps.gstatic.com/mapfiles/place_api/icons/v1/png_71/restaurant-71.png","icon_background_color":"#FF9E67","icon_mask_base_uri":"https://maps.gstatic.com/mapfiles/place_api/icons/v2/restaurant_pinlet","name":"OchoBcn","opening_hours":{"open_now":false},"photos":[{"height":1960,"html_attributions":["<a href=\"https://maps.google.com/maps/contrib/105085085188394726459\">Amir Porat</a>"],"photo_reference":"AeJbb3fdqVOb1uNn5FP6PltlfgSi4GCWQUqMNJ1x_AZBzO6wVkv2DQoXTr4ee4hSAkFDwy-izkHFZlozKpiJ_Er20UznRn4L4XH827K8MOz3liIE5HeQ9y9ArrG2YTfYZbfI8sF7A0yJ_dJPjXkKdMlqgvFSoqCTUhKiti38ugm1MTcFrgEY","width":2505}],"place_id":"ChIJEawWgGSipBIRaUFTX2d5X5Q","plus_code":{"compound_code":"95G4+CV Barcelona","global_code":"8FH495G4+CV"},"rating":4.5,"reference":"ChIJEawWgGSipBIRaUFTX2d5X5Q","types":["restaurant","food","point_of_interest","establishment"],"user_ratings_total":412},{"business_status":"OPERATIONAL","formatted_address":"C. de Ganduxer, 28, 08021 Barcelona","geometry":{"location":{"lat":41.3936739,"lng":2.1384925},"viewport":{"northeast":{"lat":41.39499507989272,"lng":2.139760129892722},"southwest":{"lat":41.39229542010727,"lng":2.137060470107278}}},"icon":"https://maps.gstatic.com/mapfiles/place_api/icons/v1/png_71/restaurant-71.png","icon_background_color":"#FF9E67","icon_mask_base_uri":"https://maps.gstatic.com/mapfiles/place_api/icons/v2/restaurant_pinlet","name":"9Reinas Gourmet. Restaurante argentino","opening_hours":{"open_now":false},"photos":[{"height":3744,"html_attributions":["<a href=\"https://maps.google.com/maps/contrib/108319281303115652212\">Restaurante 9 Reinas Gourmet. Restaurante Argentino.</a>"],"photo_reference":"AeJbb3ex_X5cBLWGU08z3U3K7sWXT97CWZ3GEzifPIMDOqySq8uvClKn3eGTwHv0tRQ1XbwocByPdqTMQ3U8uFAmAod33bMNZ8Yd_a8oaVwmjHAZ82Zl-BJgne0kq7HR8vbDf0Zt0hoOHGj-u8cMk1NpluxcxaYfLB9W8iDXBHz_zeRjYZqG","width":5616}],"place_id":"ChIJG8uI43CYpBIRYcdUjQKaYkI","plus_code":{"compound_code":"94VQ+F9 Barcelona","global_code":"8FH494VQ+F9"},"price_level":3,"rating":4.5,"reference":"ChIJG8uI43CYpBIRYcdUjQKaYkI","types":["restaurant","point_of_interest","food","establishment"],"user_ratings_total":309},{"business_status":"OPERATIONAL","formatted_address":"Av. del Tibidabo, 31, 08022 Barcelona","geometry":{"location":{"lat":41.4133174,"lng":2.1345102},"viewport":{"northeast":{"lat":41.41470572989272,"lng":2.135956829892722},"southwest":{"lat":41.41200607010728,"lng":2.133257170107278}}},"icon":"https://maps.gstatic.com/mapfiles/place_api/icons/v1/png_71/restaurant-71.png","icon_background_color":"#FF9E67","icon_mask_base_uri":"https://maps.gstatic.com/mapfiles/place_api/icons/v2/restaurant_pinlet","name":"Aranda's Grill","opening_hours":{"open_now":true},"photos":[{"height":3456,"html_attributions":["<a href=\"https://maps.google.com/maps/contrib/107612813406572078188\">Jaume Arisa</a>"],"photo_reference":"AeJbb3eu7OSeEPDQUX6myPKl_PD_byRegp38FwkMA89bWucci4FMa3FQMiV2tCrSUtAhQGRSrGIeQXNPWpmLS3h5DjNyqz9YFNzXNUlUSasJwIIZu1E4lVBXcoEbNgSJx8o_SLnsZp62BklgGVfEEZ5DfshJ_de6GhVzMzyjgNNv8jEktWd4","width":4608}],"place_id":"ChIJEX8i0BqYpBIRUpgv70_z_yg","plus_code":{"compound_code":"C47M+8R Barcelona","global_code":"8FH4C47M+8R"},"price_level":2,"rating":4.4,"reference":"ChIJEX8i0BqYpBIRUpgv70_z_yg","types":["restaurant","meal_delivery","food","point_of_interest","establishment"],"user_ratings_total":4021},{"business_status":"OPERATIONAL","formatted_address":"Carrer de la Diputació, 214, 08011 Barcelona","geometry":{"location":{"lat":41.3860284,"lng":2.161439},"viewport":{"northeast":{"lat":41.38741167989271,"lng":2.162745429892722},"southwest":{"lat":41.38471202010727,"lng":2.160045770107278}}},"icon":"https://maps.gstatic.com/mapfiles/place_api/icons/v1/png_71/restaurant-71.png","icon_background_color":"#FF9E67","icon_mask_base_uri":"https://maps.gstatic.com/mapfiles/place_api/icons/v2/restaurant_pinlet","name":"Wild Beef Barcelona","opening_hours":{"open_now":true},"photos":[{"height":4000,"html_attributions":["<a href=\"https://maps.google.com/maps/contrib/114118451392288609524\">Paco Valera</a>"],"photo_reference":"AeJbb3fsQdUS9UTiy2I3M5sPluA0rKpNmqBnsWbwGrbEOgEzZ3RzEDbaZDyKpi7qxrQrYi3nVmckFTZVF5R8_P-6ah5Ec71N7XnEsFy6zRcgoEKEnRFU_1se5T1jklNeqwLwwL718UFybewSgUlQIjlNWPD8mppktgUQg04nns6bLJcyf9MB","width":3000}],"place_id":"ChIJS5EzdoyipBIRGKuGZ9zPa30","plus_code":{"compound_code":"95P6+CH Barcelona","global_code":"8FH495P6+CH"},"price_level":1,"rating":4.4,"reference":"ChIJS5EzdoyipBIRGKuGZ9zPa30","types":["restaurant","point_of_interest","food","establishment"],"user_ratings_total":3553},{"business_status":"OPERATIONAL","formatted_address":"C/ de Pepe Rubianes, 5, 08003 Barcelona","geometry":{"location":{"lat":41.3782547,"lng":2.1888292},"viewport":{"northeast":{"lat":41.37958652989272,"lng":2.190175329892722},"southwest":{"lat":41.37688687010728,"lng":2.187475670107277}}},"icon":"https://maps.gstatic.com/mapfiles/place_api/icons/v1/png_71/restaurant-71.png","icon_background_color":"#FF9E67","icon_mask_base_uri":"https://maps.gstatic.com/mapfiles/place_api/icons/v2/restaurant_pinlet","name":"La Malandrina","opening_hours":{"open_now":true},"photos":[{"height":2988,"html_attributions":["<a href=\"https://maps.google.com/maps/contrib/118387107819186187532\">Claudio Marras</a>"],"photo_reference":"AeJbb3cpAOFoONnWBolmOW_--TfgScUNU-WJq_CO4ol5Xotdf82PznEESDd9arC2aQzIefCy6xseNTfC6HuqA7ZA41s9ryS3tJPSX77uVu0mNK7HrlCnQ9e6RQRGYs6yEBYB_zYBsxdHUCny_oQXUvlVPWhpg_wSvPHGKrzbtNq-_ll9wQjX","width":5312}],"place_id":"ChIJ69LvK6qjpBIRBD74wpY63iU","plus_code":{"compound_code":"95HQ+8G Barcelona","global_code":"8FH495HQ+8G"},"price_level":1,"rating":4.4,"reference":"ChIJ69LvK6qjpBIRBD74wpY63iU","types":["restaurant","food","point_of_interest","establishment"],"user_ratings_total":2834},{"business_status":"OPERATIONAL","formatted_address":"C/ de València, 189, 08011 Barcelona","geometry":{"location":{"lat":41.3893965,"lng":2.1586457},"viewport":{"northeast":{"lat":41.39068402989272,"lng":2.160096079892722},"southwest":{"lat":41.38798437010728,"lng":2.157396420107278}}},"icon":"https://maps.gstatic.com/mapfiles/place_api/icons/v1/png_71/restaurant-71.png","icon_background_color":"#FF9E67","icon_mask_base_uri":"https://maps.gstatic.com/mapfiles/place_api/icons/v2/restaurant_pinlet","name":"Buenos Aires Grill Restaurant","opening_hours":{"open_now":true},"photos":[{"height":708,"html_attributions":["<a href=\"https://maps.google.com/maps/contrib/101090635336336909538\">Buenos Aires Grill Restaurant S L</a>"],"photo_reference":"AeJbb3dGrK2oa4mA6PhHVtomlqGLK7RHX-W2AR3O1aBo-MoLPssrkOuXMD7TKjsnRwH2Gl_dgwQDAGlE0aQerDg572K9uitRgBpDuBRPWQ8twHCmqzPcOG6DvLjKz9V8SzfXniADR3QxK-P17l6p0jz5crHc4m-JTNGDyTU70Mfs1aRyRbCk","width":1180}],"place_id":"ChIJkbkIaY6ipBIR1Qd0pGMGeug","plus_code":{"compound_code":"95Q5+QF Barcelona","global_code":"8FH495Q5+QF"},"price_level":3,"rating":4.4,"reference":"ChIJkbkIaY6ipBIR1Qd0pGMGeug","types":["restaurant","food","point_of_interest","establishment"],"user_ratings_total":2273},{"business_status":"OPERATIONAL","formatted_address":"Ronda de la Univ., 20, 08007 Barcelona","geometry":{"location":{"lat":41.38681589999999,"lng":2.1676503},"viewport":{"northeast":{"lat":41.38826022989272,"lng":2.168931579892722},"southwest":{"lat":41.38556057010728,"lng":2.166231920107278}}},"icon":"https://maps.gstatic.com/mapfiles/place_api/icons/v1/png_71/restaurant-71.png","icon_background_color":"#FF9E67","icon_mask_base_uri":"https://maps.gstatic.com/mapfiles/place_api/icons/v2/restaurant_pinlet","name":"The Ranch Smokehouse","opening_hours":{"open_now":false},"photos":[{"height":939,"html_attributions":["<a href=\"https://maps.google.com/maps/contrib/112775801524838285291\">Robert Colin</a>"],"photo_reference":"AeJbb3ffwpLwibmumqz0KKt1QGzsidOLNbCo3IGYP8mNmaCo0IdEZZlncOSINP4bVLrGSuZXSkjVzOvc7rOTOpzutfSAzlNgcwjI0yNhaLDaHcTgQ-KLFlkq7zTG8k85RJHcVF6nKpVgB2sUGfemtmJ6DPXM4gcbaku8r5Jqekf6MxZPxk5T","width":1284}],"place_id":"ChIJ168J5w2jpBIRzWLMd9pRSNE","plus_code":{"compound_code":"95P9+P3 Barcelona","global_code":"8FH495P9+P3"},"price_level":2,"rating":4.4,"reference":"ChIJ168J5w2jpBIRzWLMd9pRSNE","types":["restaurant","food","point_of_interest","establishment"],"user_ratings_total":1757},{"business_status":"OPERATIONAL","formatted_address":"Plaça del Dr. Letamendi, 25, 08007 Barcelona","geometry":{"location":{"lat":41.38963,"lng":2.1605322},"viewport":{"northeast":{"lat":41.39090167989272,"lng":2.161888929892723},"southwest":{"lat":41.38820202010728,"lng":2.159189270107278}}},"icon":"https://maps.gstatic.com/mapfiles/place_api/icons/v1/png_71/restaurant-71.png","icon_background_color":"#FF9E67","icon_mask_base_uri":"https://maps.gstatic.com/mapfiles/place_api/icons/v2/restaurant_pinlet","name":"Pampero Asador Argentino","opening_hours":{"open_now":false},"photos":[{"height":3000,"html_attributions":["<a href=\"https://maps.google.com/maps/contrib/103564181157149238549\">林宗毅</a>"],"photo_reference":"AeJbb3fLReaQE9uzEakX7W0uqxyC2YyfcVRd8UGLdjHyxr7BY-50CDWErneU0dzegsf_pyd2d1YdboNbykFOQGfj6gCtiutYv6-AxX6lrZG7PMGms4SAgAXcXUVjYbrU9QtuoePhA6FP5p0s-aUtVcMIHFUCIOgzMd2S4oxPlGfmN54zEXIw","width":4000}],"place_id":"ChIJFyzpw42ipBIRU38AkLk7TI8","plus_code":{"compound_code":"95Q6+V6 Barcelona","global_code":"8FH495Q6+V6"},"price_level":2,"rating":4.4,"reference":"ChIJFyzpw42ipBIRU38AkLk7TI8","types":["restaurant","food","point_of_interest","establishment"],"user_ratings_total":1106},{"business_status":"OPERATIONAL","formatted_address":"Gran Via de les Corts Catalanes, 697, 08013 Barcelona","geometry":{"location":{"lat":41.3972051,"lng":2.1781788},"viewport":{"northeast":{"lat":41.39853087989272,"lng":2.179541479892722},"southwest":{"lat":41.39583122010728,"lng":2.176841820107278}}},"icon":"https://maps.gstatic.com/mapfiles/place_api/icons/v1/png_71/restaurant-71.png","icon_background_color":"#FF9E67","icon_mask_base_uri":"https://maps.gstatic.com/mapfiles/place_api/icons/v2/restaurant_pinlet","name":"El Chato","opening_hours":{"open_now":false},"photos":[{"height":3024,"html_attributions":["<a href=\"https://maps.google.com/maps/contrib/117749013914248763980\">JOAN JUNYENT</a>"],"photo_reference":"AeJbb3dALUrD5RCThpn0b0VIzqLdnmIprwrgekRbKPPWOvAlGJkBAulo_gNLjhgI-44uUsGHaN46Ry8KNKrTcLuyVmFWp8mskd68HtGIWtyyZrZlgZ_uzx6hEg2NxBaO8zDsotcd3aK07ta2ScIG6Mq42M2n4UngZfwGCC6BE9QHrhNPNGeU","width":4032}],"place_id":"ChIJ1YoN6uaipBIRUk5gfoIliks","plus_code":{"compound_code":"95WH+V7 Barcelona","global_code":"8FH495WH+V7"},"price_level":2,"rating":4.4,"reference":"ChIJ1YoN6uaipBIRUk5gfoIliks","types":["restaurant","food","point_of_interest","establishment"],"user_ratings_total":354},{"business_status":"OPERATIONAL","formatted_address":"C/ d'Enric Granados, 52, 08008 Barcelona","geometry":{"location":{"lat":41.3914216,"lng":2.1578982},"viewport":{"northeast":{"lat":41.39271367989273,"lng":2.159169629892723},"southwest":{"lat":41.39001402010728,"lng":2.156469970107278}}},"icon":"https://maps.gstatic.com/mapfiles/place_api/icons/v1/png_71/restaurant-71.png","icon_background_color":"#FF9E67","icon_mask_base_uri":"https://maps.gstatic.com/mapfiles/place_api/icons/v2/restaurant_pinlet","name":"Carnal Steak House","opening_hours":{"open_now":true},"photos":[{"height":1342,"html_attributions":["<a href=\"https://maps.google.com/maps/contrib/109147243885257786514\">Ignasi Doce</a>"],"photo_reference":"AeJbb3f2INsHJratl1CF4IMUvoIioMNzItbPV6qfHdTxKf7x-Rhj3gKPhru8Vs0Fni0HQ8vAtNR5-z3hUABbTx876cz8QNfBbHEEtXL45YMv5k4d7HJAHD975XdTTgYxw0T-lMxDvja2ii3nNa2NiGA-U9oD2jlWw2RAMKYYYStBEN4pzWte","width":1790}],"place_id":"ChIJPcoC78ujpBIRrm3VJ690l9c","plus_code":{"compound_code":"95R5+H5 Barcelona","global_code":"8FH495R5+H5"},"rating":4.4,"reference":"ChIJPcoC78ujpBIRrm3VJ690l9c","types":["restaurant","food","point_of_interest","establishment"],"user_ratings_total":156},{"business_status":"OPERATIONAL","formatted_address":"C/ de Pau Claris, 70, 08010 Barcelona","geometry":{"location":{"lat":41.3892445,"lng":2.1720213},"viewport":{"northeast":{"lat":41.39054687989272,"lng":2.173304929892722},"southwest":{"lat":41.38784722010728,"lng":2.170605270107278}}},"icon":"https://maps.gstatic.com/mapfiles/place_api/icons/v1/png_71/restaurant-71.png","icon_background_color":"#FF9E67","icon_mask_base_uri":"https://maps.gstatic.com/mapfiles/place_api/icons/v2/restaurant_pinlet","name":"Asador de Aranda","opening_hours":{"open_now":true},"photos":[{"height":3024,"html_attributions":["<a href=\"https://maps.google.com/maps/contrib/110746087504486457014\">Sergey Kim</a>"],"photo_reference":"AeJbb3cP8ERqi5hmSwhDvr47rmjLkurHVX23u6iH1MiN6ih838Gdha3hUNuL7yGBak0DE0D4obxR4PbdOyc3cp7pMvodkebjPho0VytwWV_iVkpAcIUGA9eBZOFhyi3KwmIJHxwp6TEC1nKvacr8NlSElGtFPUcs6FI24wxLlLuNXBL79Svj","width":4032}],"place_id":"ChIJ14CEtPGipBIRquYpHHsYjT0","plus_code":{"compound_code":"95QC+PR Barcelona","global_code":"8FH495QC+PR"},"price_level":2,"rating":4.3,"reference":"ChIJ14CEtPGipBIRquYpHHsYjT0","types":["meal_delivery","restaurant","food","point_of_interest","establishment"],"user_ratings_total":1745},{"business_status":"OPERATIONAL","formatted_address":"Carrer del Carme, 28, 08001 Barcelona","geometry":{"location":{"lat":41.3822964,"lng":2.1701814},"viewport":{"northeast":{"lat":41.38361452989272,"lng":2.171555429892723},"southwest":{"lat":41.38091487010728,"lng":2.168855770107278}}},"icon":"https://maps.gstatic.com/mapfiles/place_api/icons/v1/png_71/restaurant-71.png","icon_background_color":"#FF9E67","icon_mask_base_uri":"https://maps.gstatic.com/mapfiles/place_api/icons/v2/restaurant_pinlet","name":"El Rincón Steak house","opening_hours":{"open_now":true},"photos":[{"height":4497,"html_attributions":["<a href=\"https://maps.google.com/maps/contrib/101826337896959319127\">Rincón de Aragón</a>"],"photo_reference":"AeJbb3c5jLpxL5MS7qraIPtsEr5P6k5zKovW0a-3ybloLyxwBf9DfKMzi5P6jfZ6uuQuDtui0vIB3_B1MGDcStYH7SKffx8Vu5puup0Xv9HjUKFwv6m6GBKNbr7Mi4X--TbBGzeZxoEPmK6LpPDCD2JEb4V4gomYKg9rkifSKaVhrTMUW0kp","width":6737}],"place_id":"ChIJSzW2e_aipBIRXvza7ivUe_U","plus_code":{"compound_code":"95JC+W3 Barcelona","global_code":"8FH495JC+W3"},"price_level":2,"rating":4.3,"reference":"ChIJSzW2e_aipBIRXvza7ivUe_U","types":["restaurant","food","point_of_interest","establishment"],"user_ratings_total":1575},{"business_status":"OPERATIONAL","formatted_address":"C. del Consell de Cent, 338, 08009 Barcelona","geometry":{"location":{"lat":41.3929347,"lng":2.1683237},"viewport":{"northeast":{"lat":41.39430097989272,"lng":2.169622179892722},"southwest":{"lat":41.39160132010728,"lng":2.166922520107278}}},"icon":"https://maps.gstatic.com/mapfiles/place_api/icons/v1/png_71/restaurant-71.png","icon_background_color":"#FF9E67","icon_mask_base_uri":"https://maps.gstatic.com/mapfiles/place_api/icons/v2/restaurant_pinlet","name":"Restaurant El Boliche del Gordo Cabrera","opening_hours":{"open_now":false},"photos":[{"height":3240,"html_attributions":["<a href=\"https://maps.google.com/maps/contrib/100023337972908838518\">ramon canadell</a>"],"photo_reference":"AeJbb3dDkFIU26VVoc6hYNeSkdNZ9OScxGI0cKYdIk1ppqEjmxmeo2NRh8LBtV-BqZiyprwvAazVr1mrZIBme0IZPj2GNRxigMfu3EHiyQ61Bce9HFnSvRF53CjU8EUflDTfCIyQOuLWVpdv6PjmovBU6ZkfQOm_SuVPlUWARRfM81BFPRaF","width":5760}],"place_id":"ChIJFW4otu2ipBIRWWhfYDqZtmE","plus_code":{"compound_code":"95V9+58 Barcelona","global_code":"8FH495V9+58"},"price_level":2,"rating":4.3,"reference":"ChIJFW4otu2ipBIRWWhfYDqZtmE","types":["restaurant","point_of_interest","food","establishment"],"user_ratings_total":1244},{"business_status":"OPERATIONAL","formatted_address":"Via Laietana, 49, 08003 Barcelona","geometry":{"location":{"lat":41.3870479,"lng":2.174336},"viewport":{"northeast":{"lat":41.38845227989273,"lng":2.175769079892723},"southwest":{"lat":41.38575262010728,"lng":2.173069420107278}}},"icon":"https://maps.gstatic.com/mapfiles/place_api/icons/v1/png_71/restaurant-71.png","icon_background_color":"#FF9E67","icon_mask_base_uri":"https://maps.gstatic.com/mapfiles/place_api/icons/v2/restaurant_pinlet","name":"Monsieur Rouge - Steak House","opening_hours":{"open_now":false},"photos":[{"height":1535,"html_attributions":["<a href=\"https://maps.google.com/maps/contrib/110176365894105315853\">A Google User</a>"],"photo_reference":"AeJbb3dJsARUM0NGvLkQnHfNous4q5eUhhLmNzqI4w9CZ8JB5fq25W7iZviIkn2qgZb-EU0THHpoIiq3ShMCPpgdOsvCbsC5y74E-jz2eUwGHi_Xgsm0mZRYuYhbyC2A7-Noe5eN894jEsI7zP9SI2jPv8Y8oY9zMLGfvSXjFoaW9TwdBKts","width":2362}],"place_id":"ChIJNzN0n_CipBIR0SlOkRN8Hqc","plus_code":{"compound_code":"95PF+RP Barcelona","global_code":"8FH495PF+RP"},"rating":4.3,"reference":"ChIJNzN0n_CipBIR0SlOkRN8Hqc","types":["restaurant","point_of_interest","food","establishment"],"user_ratings_total":140},{"business_status":"OPERATIONAL","formatted_address":"Carrer de la Princesa, 53, 08003 Barcelona","geometry":{"location":{"lat":41.3869057,"lng":2.1821783},"viewport":{"northeast":{"lat":41.38825662989272,"lng":2.183640279892722},"southwest":{"lat":41.38555697010728,"lng":2.180940620107278}}},"icon":"https://maps.gstatic.com/mapfiles/place_api/icons/v1/png_71/restaurant-71.png","icon_background_color":"#FF9E67","icon_mask_base_uri":"https://maps.gstatic.com/mapfiles/place_api/icons/v2/restaurant_pinlet","name":"Restaurant El Foro","opening_hours":{"open_now":true},"photos":[{"height":3024,"html_attributions":["<a href=\"https://maps.google.com/maps/contrib/102540906511125002629\">Sonia Gascón</a>"],"photo_reference":"AeJbb3dgua2uFjVSbsb9tqXkMBaLtUB0M6oVdL9pnR2u7ZtcRoJmdbTk9IlHFsnPoIFd9PqK7-owsnei5aBPXKzz8f2M8VW9AGh-CCVPb20B2lSt-OX_MBd-fWSxtihwSmZrSsTemsVzaWS43BmYBArJUKq9tCcdZ66eS_OlCpE3RC2-kixB","width":4032}],"place_id":"ChIJawSgt_2ipBIR6dBzsSq7yUE","plus_code":{"compound_code":"95PJ+QV Barcelona","global_code":"8FH495PJ+QV"},"price_level":2,"rating":4.2,"reference":"ChIJawSgt_2ipBIR6dBzsSq7yUE","types":["bar","meal_takeaway","restaurant","point_of_interest","food","establishment"],"user_ratings_total":2002},{"business_status":"OPERATIONAL","formatted_address":"C/ de Mallorca, 251, 08008 Barcelona","geometry":{"location":{"lat":41.3931506,"lng":2.1614956},"viewport":{"northeast":{"lat":41.39446902989273,"lng":2.162833979892723},"southwest":{"lat":41.39176937010728,"lng":2.160134320107278}}},"icon":"https://maps.gstatic.com/mapfiles/place_api/icons/v1/png_71/restaurant-71.png","icon_background_color":"#FF9E67","icon_mask_base_uri":"https://maps.gstatic.com/mapfiles/place_api/icons/v2/restaurant_pinlet","name":"Restaurante Solomillo","opening_hours":{"open_now":false},"photos":[{"height":3024,"html_attributions":["<a href=\"https://maps.google.com/maps/contrib/101394411642928908257\">Jonas Riesen</a>"],"photo_reference":"AeJbb3fFmFVnUgQusqY-usoWzeCZdf59y0KHqdpzBEeg2EBt61VS-OBk0Pw9W6lkTUB9-OsdsP4rlhIRAfun8OTMwj-6HVZbzA59mDSNTkP82q3Yplt64prkGfd3FvfH45ACorPC52FaAGnWridBkk_VPEmP2AX0Ziu6RaqY8ISxQ1yDR36Q","width":4032}],"place_id":"ChIJKXXeTZKipBIRy7mbG6CobiE","plus_code":{"compound_code":"95V6+7J Barcelona","global_code":"8FH495V6+7J"},"price_level":3,"rating":4.2,"reference":"ChIJKXXeTZKipBIRy7mbG6CobiE","types":["restaurant","point_of_interest","food","establishment"],"user_ratings_total":450},{"business_status":"OPERATIONAL","formatted_address":"Gran Via de les Corts Catalanes, 373, 08015 Barcelona","geometry":{"location":{"lat":41.3762796,"lng":2.1501198},"viewport":{"northeast":{"lat":41.37764137989272,"lng":2.151342129892722},"southwest":{"lat":41.37494172010727,"lng":2.148642470107278}}},"icon":"https://maps.gstatic.com/mapfiles/place_api/icons/v1/png_71/restaurant-71.png","icon_background_color":"#FF9E67","icon_mask_base_uri":"https://maps.gstatic.com/mapfiles/place_api/icons/v2/restaurant_pinlet","name":"PURA BRASA Arenas","opening_hours":{"open_now":false},"photos":[{"height":2688,"html_attributions":["<a href=\"https://maps.google.com/maps/contrib/115058612640178290641\">Elena</a>"],"photo_reference":"AeJbb3cRtPprLPXRtSNJvTyQdjfp0BscZ-SEf6o7TTUMOfy9jgM8WFX7FA8rlFoGOkbdrZXangHjsGeq9oUMNKKnPRZFQ2v0wtxoqrdt-L6abmHKOhUY_ETYx_Kj-GckY0DhFPg0imFB6IMsQN70iOLuH55uilE4LmldpAAAq3UybqYWKDTG","width":4030}],"place_id":"ChIJYdiUA3yipBIR_AfP9qEHnLw","plus_code":{"compound_code":"95G2+G2 Barcelona","global_code":"8FH495G2+G2"},"price_level":2,"rating":4.1,"reference":"ChIJYdiUA3yipBIR_AfP9qEHnLw","types":["restaurant","bar","point_of_interest","food","establishment"],"user_ratings_total":2371},{"business_status":"OPERATIONAL","formatted_address":"Pg. de Joan de Borbó, 60, 08003 Barcelona","geometry":{"location":{"lat":41.3765353,"lng":2.1890573},"viewport":{"northeast":{"lat":41.37783597989272,"lng":2.190378479892722},"southwest":{"lat":41.37513632010728,"lng":2.187678820107278}}},"icon":"https://maps.gstatic.com/mapfiles/place_api/icons/v1/png_71/restaurant-71.png","icon_background_color":"#FF9E67","icon_mask_base_uri":"https://maps.gstatic.com/mapfiles/place_api/icons/v2/restaurant_pinlet","name":"Bivio steak house Barcelona","opening_hours":{"open_now":true},"photos":[{"height":2862,"html_attributions":["<a href=\"https://maps.google.com/maps/contrib/112380875066895015312\">A Google User</a>"],"photo_reference":"AeJbb3eGc859mkacgZUk_Uf0-cgeUCkvPim5UYWCPVSbOIBw1AGr7Tve-zP8yyzL_Bkk-VIcim0Mxpd4bSGEeGIizcXtAbf94RA_-SoaQciMXqugBZxWlAkwC2YQuSYWUpdIXcsfRqcYayYW5KfnNOwvUviSI_weacSATCh_g1uY4eZVVw6Y","width":4288}],"place_id":"ChIJaXfF4KujpBIRZtHyg3MG7bc","plus_code":{"compound_code":"95GQ+JJ Barcelona","global_code":"8FH495GQ+JJ"},"price_level":2,"rating":4.1,"reference":"ChIJaXfF4KujpBIRZtHyg3MG7bc","types":["restaurant","food","point_of_interest","establishment"],"user_ratings_total":1584},{"business_status":"OPERATIONAL","formatted_address":"C/ d'Aragó, 285, 08009 Barcelona","geometry":{"location":{"lat":41.3937349,"lng":2.1666022},"viewport":{"northeast":{"lat":41.39495472989272,"lng":2.167921379892722},"southwest":{"lat":41.39225507010728,"lng":2.165221720107277}}},"icon":"https://maps.gstatic.com/mapfiles/place_api/icons/v1/png_71/restaurant-71.png","icon_background_color":"#FF9E67","icon_mask_base_uri":"https://maps.gstatic.com/mapfiles/place_api/icons/v2/restaurant_pinlet","name":"Lomo Alto","opening_hours":{"open_now":true},"photos":[{"height":3024,"html_attributions":["<a href=\"https://maps.google.com/maps/contrib/103798724599588606380\">Manuel Marí</a>"],"photo_reference":"AeJbb3e9TMMlZkznUObmH7aBhbz39ddv2haGDC7JWvkkBmWWhkFdDMH9RSm8e9551rrJHXJIdJrtU9Y4_JqyEJjn3bPDkOt_pxh3dJTN7Xg7Yw_ei1qeDWKZgEQai5iPdzNTytXkKBUUCZ2Q1ZXpAV-7doiMHCr0XhLHJ0wuV4a9odc2V_ii","width":4032}],"place_id":"ChIJ5YTN_OyipBIRevrlp03RoAY","plus_code":{"compound_code":"95V8+FJ Barcelona","global_code":"8FH495V8+FJ"},"price_level":4,"rating":4.1,"reference":"ChIJ5YTN_OyipBIRevrlp03RoAY","types":["restaurant","point_of_interest","food","establishment"],"user_ratings_total":1409},{"business_status":"OPERATIONAL","formatted_address":"C/ d'Enric Granados, 95, 08008 Barcelona","geometry":{"location":{"lat":41.392567,"lng":2.155941},"viewport":{"northeast":{"lat":41.39395752989272,"lng":2.157292779892722},"southwest":{"lat":41.39125787010728,"lng":2.154593120107278}}},"icon":"https://maps.gstatic.com/mapfiles/place_api/icons/v1/png_71/restaurant-71.png","icon_background_color":"#FF9E67","icon_mask_base_uri":"https://maps.gstatic.com/mapfiles/place_api/icons/v2/restaurant_pinlet","name":"El Filete Ruso","opening_hours":{"open_now":false},"photos":[{"height":4032,"html_attributions":["<a href=\"https://maps.google.com/maps/contrib/117513806399754773253\">iker martines</a>"],"photo_reference":"AeJbb3de--BxNWltrvMZgl7nB_SymuZwzWyZnuhmPILsqfoci2NjTVLMbbnpIvrxRu60KXSl_ABX7KIUgaE0_cnHB-r4q5SybA48jIbylPplW__nZakRJJRfwu2B95KWXXTkK9lCr6qeRAQ9xYlV7MSUggEnjIHsouR0p8Ml9RQJA8UQojWw","width":3024}],"place_id":"ChIJbSlLQJCipBIRuMeG_y6QL60","plus_code":{"compound_code":"95V4+29 Barcelona","global_code":"8FH495V4+29"},"price_level":2,"rating":4.1,"reference":"ChIJbSlLQJCipBIRuMeG_y6QL60","types":["restaurant","food","point_of_interest","establishment"],"user_ratings_total":1147},{"business_status":"OPERATIONAL","formatted_address":"C/ de Pau Claris, 142, 08009 Barcelona","geometry":{"location":{"lat":41.3939325,"lng":2.1659214},"viewport":{"northeast":{"lat":41.39520817989272,"lng":2.167183079892722},"southwest":{"lat":41.39250852010727,"lng":2.164483420107278}}},"icon":"https://maps.gstatic.com/mapfiles/place_api/icons/v1/png_71/restaurant-71.png","icon_background_color":"#FF9E67","icon_mask_base_uri":"https://maps.gstatic.com/mapfiles/place_api/icons/v2/restaurant_pinlet","name":"L’Entrecôte Barcelona","opening_hours":{"open_now":false},"photos":[{"height":1362,"html_attributions":["<a href=\"https://maps.google.com/maps/contrib/111810253216377547064\">A Google User</a>"],"photo_reference":"AeJbb3cF9mdtyp2Uoo5aNI2g-CLElgsDDYtiUSjlovH3L8rnLy3vAvjlSCKMyCFN56OjNgwl-IVqweRk41KLmsTJQcwITQv3MeTrpHoFCzaB3QOKaw7trJKFjF0PRU4XoGrYtegFpcnFXr0zkwG6TODoNfhnxBy_0n9PbGjpI8cEjYRZK7c8","width":2040}],"place_id":"ChIJ2eLp96OjpBIRxAN6u7yMj0Q","plus_code":{"compound_code":"95V8+H9 Barcelona","global_code":"8FH495V8+H9"},"price_level":2,"rating":4.1,"reference":"ChIJ2eLp96OjpBIRxAN6u7yMj0Q","types":["restaurant","point_of_interest","food","establishment"],"user_ratings_total":713},{"business_status":"OPERATIONAL","formatted_address":"Avinguda Diagonal, 557, 08029 Barcelona","geometry":{"location":{"lat":41.3893491,"lng":2.1344369},"viewport":{"northeast":{"lat":41.39094952989272,"lng":2.135712129892722},"southwest":{"lat":41.38824987010727,"lng":2.133012470107277}}},"icon":"https://maps.gstatic.com/mapfiles/place_api/icons/v1/png_71/shopping-71.png","icon_background_color":"#4B96F3","icon_mask_base_uri":"https://maps.gstatic.com/mapfiles/place_api/icons/v2/shopping_pinlet","name":"Viñals 1906","opening_hours":{"open_now":true},"photos":[{"height":3024,"html_attributions":["<a href=\"https://maps.google.com/maps/contrib/117566503222500708863\">Gerard Estrella</a>"],"photo_reference":"AeJbb3c1ztgKS422UsDBc3HM_ayXQpHjP8ScSosbzVnmgw8-ECNAF3LGWfqvkScTd3rdEh1gNkFp5zB5WPeBMwXpOdvVM7-t91Y0DT8bBhvO8Zo6Uwp249nm7wDq0xflQ7i1m9-6ZHzl2-kpE7u15GztWSYz8YXhZLK5qNxJuIKZhpYE9XwO","width":4032}],"place_id":"ChIJ03B72WaYpBIRvN0-KODWkDM","plus_code":{"compound_code":"94QM+PQ Barcelona","global_code":"8FH494QM+PQ"},"rating":4.1,"reference":"ChIJ03B72WaYpBIRvN0-KODWkDM","types":["restaurant","food","point_of_interest","store","establishment"],"user_ratings_total":76},{"business_status":"OPERATIONAL","formatted_address":"C/ de Potosí, 2, Local 6 - 7, 08030 Barcelona","geometry":{"location":{"lat":41.4402501,"lng":2.1989226},"viewport":{"northeast":{"lat":41.44182772989272,"lng":2.200526579892722},"southwest":{"lat":41.43912807010727,"lng":2.197826920107278}}},"icon":"https://maps.gstatic.com/mapfiles/place_api/icons/v1/png_71/restaurant-71.png","icon_background_color":"#FF9E67","icon_mask_base_uri":"https://maps.gstatic.com/mapfiles/place_api/icons/v2/restaurant_pinlet","name":"RIBS","opening_hours":{"open_now":false},"photos":[{"height":3000,"html_attributions":["<a href=\"https://maps.google.com/maps/contrib/106050434478467910574\">Sheila Milagro Giudici</a>"],"photo_reference":"AeJbb3ebd0m6MsKWrz83pe6kDsE-CAgn1U8xXQ8QSSHZMA5SJgpnQZZx1xs0_LaEEtKYwvGs1LtfY6Vw9mzrripQQBroiwVnkPLew1KWLAEimu2uth5Z7WYoV0Aje-tA-rvb32A-ZvYTl1GIKXdqO_pcqzWH7FeWrI8eKYp_cQKEqRTeGPsb","width":4000}],"place_id":"ChIJvzQ5Neq8pBIR4T9B1blofKs","plus_code":{"compound_code":"C5RX+4H Barcelona","global_code":"8FH4C5RX+4H"},"price_level":2,"rating":4,"reference":"ChIJvzQ5Neq8pBIR4T9B1blofKs","types":["restaurant","point_of_interest","food","establishment"],"user_ratings_total":3549},{"business_status":"OPERATIONAL","formatted_address":"C/ d'Aragó, 224, 08011 Barcelona","geometry":{"location":{"lat":41.3884047,"lng":2.1604796},"viewport":{"northeast":{"lat":41.38986937989272,"lng":2.161672629892722},"southwest":{"lat":41.38716972010728,"lng":2.158972970107278}}},"icon":"https://maps.gstatic.com/mapfiles/place_api/icons/v1/png_71/restaurant-71.png","icon_background_color":"#FF9E67","icon_mask_base_uri":"https://maps.gstatic.com/mapfiles/place_api/icons/v2/restaurant_pinlet","name":"El Argentino","opening_hours":{"open_now":true},"photos":[{"height":529,"html_attributions":["<a href=\"https://maps.google.com/maps/contrib/108479713665036751040\">EL ARGENTINO</a>"],"photo_reference":"AeJbb3cjEm85lFrA9Kp9bsKdPlOncRm7aMEpCEwadQ-hOUcbjOKBgIJT_e8TboQXTs8BUE3BFmQDzyJkKyxMvap-WYf7nOkHoTdE1PDB_7Z-AbV6MWSGx8Q6DWfvZ5RhAIxTipn_NQfJe6XVJUNWvqzpaBqpnrf-1PJOg-SaBvmlfP6SG2jU","width":720}],"place_id":"ChIJK1hY646ipBIRc1Fs9ufBcVU","plus_code":{"compound_code":"95Q6+95 Barcelona","global_code":"8FH495Q6+95"},"price_level":3,"rating":4,"reference":"ChIJK1hY646ipBIRc1Fs9ufBcVU","types":["bar","restaurant","food","point_of_interest","establishment"],"user_ratings_total":1710},{"business_status":"OPERATIONAL","formatted_address":"C/ de València, 329, 08009 Barcelona","geometry":{"location":{"lat":41.3970697,"lng":2.1689047},"viewport":{"northeast":{"lat":41.39839487989272,"lng":2.170337079892722},"southwest":{"lat":41.39569522010727,"lng":2.167637420107277}}},"icon":"https://maps.gstatic.com/mapfiles/place_api/icons/v1/png_71/restaurant-71.png","icon_background_color":"#FF9E67","icon_mask_base_uri":"https://maps.gstatic.com/mapfiles/place_api/icons/v2/restaurant_pinlet","name":"Grill Restaurant El Caliu de l'Eixample","opening_hours":{"open_now":false},"photos":[{"height":3024,"html_attributions":["<a href=\"https://maps.google.com/maps/contrib/113868084971609040258\">Joan Teruel Moral</a>"],"photo_reference":"AeJbb3dJL5wtz-EIXoaxrFYePwCMdV65hxAlcnrZ9yHiiAhkvzhFktNBfcOuxR59dxzHNUG16lmn5gqL7zaoLYJgAffuHqgw9OFTP9olehwZG8miM8nB98fzBEkv-jBnUgJzvbSyeJLeZcWttaNgXSirKkeFPefB1WsFDq6gFR9AZN5XPsHc","width":4032}],"place_id":"ChIJF1Tq5-uipBIRZtkp8RqO2VQ","plus_code":{"compound_code":"95W9+RH Barcelona","global_code":"8FH495W9+RH"},"price_level":1,"rating":4,"reference":"ChIJF1Tq5-uipBIRZtkp8RqO2VQ","types":["restaurant","point_of_interest","food","establishment"],"user_ratings_total":679},{"business_status":"OPERATIONAL","formatted_address":"Plaça Portal de la Pau, 4, 08002 Barcelona","geometry":{"location":{"lat":41.37682119999999,"lng":2.1774421},"viewport":{"northeast":{"lat":41.37807007989273,"lng":2.178684779892722},"southwest":{"lat":41.37537042010728,"lng":2.175985120107278}}},"icon":"https://maps.gstatic.com/mapfiles/place_api/icons/v1/png_71/restaurant-71.png","icon_background_color":"#FF9E67","icon_mask_base_uri":"https://maps.gstatic.com/mapfiles/place_api/icons/v2/restaurant_pinlet","name":"Arrosseria Y Brasería Portal de la Pau (Steakhouse)","opening_hours":{"open_now":true},"photos":[{"height":935,"html_attributions":["<a href=\"https://maps.google.com/maps/contrib/101268799150930412043\">portal de la pau</a>"],"photo_reference":"AeJbb3cHlOMU50XLld17U0-dA_QqkQJfFe-S1xjkGmzkFJtrppY4JvDeKEJW4D6aU4u21UyqNhRIXclm8F1r27DnyQdkjgEor38MxkOm9hMu9p39Lvfmgk3NlhlZoiVoWdCwEpw5ZuAuJox6pc73FS-qzWbgXrP2t0YJf2N3S8eyOT1xmOaD","width":1400}],"place_id":"ChIJW93dfY-jpBIR7grUr4Z1NLE","plus_code":{"compound_code":"95GG+PX Barcelona","global_code":"8FH495GG+PX"},"rating":3.9,"reference":"ChIJW93dfY-jpBIR7grUr4Z1NLE","types":["restaurant","point_of_interest","food","establishment"],"user_ratings_total":485},{"business_status":"OPERATIONAL","formatted_address":"Centro Comercial Splau, Av. del Baix Llobregat, s/n, 08940 Cornellà de Llobregat, Barcelona","geometry":{"location":{"lat":41.34678479999999,"lng":2.0781033},"viewport":{"northeast":{"lat":41.34820282989272,"lng":2.079468479892722},"southwest":{"lat":41.34550317010728,"lng":2.076768820107278}}},"icon":"https://maps.gstatic.com/mapfiles/place_api/icons/v1/png_71/restaurant-71.png","icon_background_color":"#FF9E67","icon_mask_base_uri":"https://maps.gstatic.com/mapfiles/place_api/icons/v2/restaurant_pinlet","name":"Ribs","opening_hours":{"open_now":true},"photos":[{"height":4032,"html_attributions":["<a href=\"https://maps.google.com/maps/contrib/115113555798030309900\">A Google User</a>"],"photo_reference":"AeJbb3eb5nUBSgADjIkpY6GnE07qhTlyDJqkkwJowmfnub_jAa-CEPivWlw5SyvFECNHJwZw4TVc6dYTk-fjz9uLLf6xLP0MzQ5ozJpP0b_rgopA6arBpl8XO3A_Dhv7pdu7Y2zuo3t9YpFjB7NdULJsb1K73KYKJPLQXKOvh68-Un0X0zYx","width":2268}],"place_id":"ChIJqRCY002ZpBIRqfuMsX0CmJE","plus_code":{"compound_code":"83WH+P6 Cornellà de Llobregat","global_code":"8FH483WH+P6"},"price_level":2,"rating":3.6,"reference":"ChIJqRCY002ZpBIRqfuMsX0CmJE","types":["restaurant","food","point_of_interest","establishment"],"user_ratings_total":2441},{"business_status":"OPERATIONAL","formatted_address":"Carrer del Dr. Fleming, 10, 08017 Barcelona","geometry":{"location":{"lat":41.3934447,"lng":2.1356838},"viewport":{"northeast":{"lat":41.39474662989272,"lng":2.136869729892722},"southwest":{"lat":41.39204697010728,"lng":2.134170070107278}}},"icon":"https://maps.gstatic.com/mapfiles/place_api/icons/v1/png_71/restaurant-71.png","icon_background_color":"#FF9E67","icon_mask_base_uri":"https://maps.gstatic.com/mapfiles/place_api/icons/v2/restaurant_pinlet","name":"Ribs Doctor Fleming","opening_hours":{"open_now":true},"photos":[{"height":2448,"html_attributions":["<a href=\"https://maps.google.com/maps/contrib/110816104295439902628\">Andrea Pérez</a>"],"photo_reference":"AeJbb3eo9n1QxtT8Zu9gIneuFc--G0GTzlYvSzkUKURUSD_zOyYDmXejxwaq7x_YbDUNz94mGpRFZGLsSs_Fqh_HbBZ61Ce_cyw43632ZqyelHhqOh0eS3T0Ckn0Jp7JrC_0pZ4YhZB6utKqQMMJgS6dWD76Q4Mfse2vJ7T86zRWXckDJ8dg","width":3264}],"place_id":"ChIJFR88InCYpBIRFKYFzERvVkY","plus_code":{"compound_code":"94VP+97 Barcelona","global_code":"8FH494VP+97"},"price_level":2,"rating":3.6,"reference":"ChIJFR88InCYpBIRFKYFzERvVkY","types":["restaurant","food","point_of_interest","establishment"],"user_ratings_total":1925},{"business_status":"OPERATIONAL","formatted_address":"08002 Barcelona","geometry":{"location":{"lat":41.3819732,"lng":2.1767027},"viewport":{"northeast":{"lat":41.38333347989272,"lng":2.178051929892722},"southwest":{"lat":41.38063382010728,"lng":2.175352270107278}}},"icon":"https://maps.gstatic.com/mapfiles/place_api/icons/v1/png_71/restaurant-71.png","icon_background_color":"#FF9E67","icon_mask_base_uri":"https://maps.gstatic.com/mapfiles/place_api/icons/v2/restaurant_pinlet","name":"Carnesala Brasa Steak House","photos":[{"height":4032,"html_attributions":["<a href=\"https://maps.google.com/maps/contrib/114385271446831198918\">Jordi .S.M.72</a>"],"photo_reference":"AeJbb3eg5dP4jRNi4GEhP-mrgKnBFQGDlNpfEVf9OgNbwUnuLjPDVcKcjlSBOLmdkiZSBHd5_-UhKNLfnJAHCaHaZxX8UTOO6W6jv6OnL__WbqUw6MaB1x9UUmYVHRnac0pRV_zUsc70jKWzciWCUBd2ng9USMR05QzuIC_pxUfO_NFPfPRV","width":3024}],"place_id":"ChIJ9RxqXviipBIRbEloLXxnvr8","plus_code":{"compound_code":"95JG+QM Barcelona","global_code":"8FH495JG+QM"},"rating":3.5,"reference":"ChIJ9RxqXviipBIRbEloLXxnvr8","types":["restaurant","food","point_of_interest","establishment"],"user_ratings_total":21},{"business_status":"OPERATIONAL","formatted_address":"Avinguda de la Granvia de l’Hospitalet, 75, 08908 L'Hospitalet de Llobregat, Barcelona","geometry":{"location":{"lat":41.3584261,"lng":2.1292773},"viewport":{"northeast":{"lat":41.36002522989273,"lng":2.130172579892722},"southwest":{"lat":41.35732557010729,"lng":2.127472920107278}}},"icon":"https://maps.gstatic.com/mapfiles/place_api/icons/v1/png_71/restaurant-71.png","icon_background_color":"#FF9E67","icon_mask_base_uri":"https://maps.gstatic.com/mapfiles/place_api/icons/v2/restaurant_pinlet","name":"Brasa y leña","opening_hours":{"open_now":true},"photos":[{"height":3000,"html_attributions":["<a href=\"https://maps.google.com/maps/contrib/110501653901008275241\">Ylenia Cañadas</a>"],"photo_reference":"AeJbb3cifv0_T3nf0X9gYBDtyRb23L4h8xagQdDjVpFsYNcW1NVznsdHK1DSDQMYoXoggFtsFwFVAw8O17zMGaWIrgzvyUfZbuCCmL7M5IiNyG3L3Wdh558fivBzUPTjL4Yr1yBHWGJKQtBr4VRgSK97QuOo4wJ7yYnXUisR4Hdec4mcLa_8","width":4000}],"place_id":"ChIJDTHqW76YpBIRMgymzIq9L4o","plus_code":{"compound_code":"945H+9P L'Hospitalet de Llobregat","global_code":"8FH4945H+9P"},"price_level":2,"rating":3.4,"reference":"ChIJDTHqW76YpBIRMgymzIq9L4o","types":["restaurant","food","point_of_interest","establishment"],"user_ratings_total":2135},{"business_status":"OPERATIONAL","formatted_address":"Ctra. de Sabadell, 47, 08191 Rubí, Barcelona","geometry":{"location":{"lat":41.4983399,"lng":2.0322857},"viewport":{"northeast":{"lat":41.49966797989272,"lng":2.033719929892722},"southwest":{"lat":41.49696832010728,"lng":2.031020270107277}}},"icon":"https://maps.gstatic.com/mapfiles/place_api/icons/v1/png_71/restaurant-71.png","icon_background_color":"#FF9E67","icon_mask_base_uri":"https://maps.gstatic.com/mapfiles/place_api/icons/v2/restaurant_pinlet","name":"Asador De Rubi","place_id":"ChIJMQtpjaCRpBIRFQ8u5XGqxdw","plus_code":{"compound_code":"F2XJ+8W Rubí","global_code":"8FH4F2XJ+8W"},"rating":1,"reference":"ChIJMQtpjaCRpBIRFQ8u5XGqxdw","types":["restaurant","point_of_interest","food","establishment"],"user_ratings_total":1}]