[{"business_status":"OPERATIONAL","formatted_address":"Kornhamnstorg 51, 111 27 Stockholm","geometry":{"location":{"lat":59.3229429,"lng":18.0715372},"viewport":{"northeast":{"lat":59.32425122989272,"lng":18.07278472989272},"southwest":{"lat":59.32155157010727,"lng":18.07008507010728}}},"icon":"https://maps.gstatic.com/mapfiles/place_api/icons/v1/png_71/restaurant-71.png","icon_background_color":"#FF9E67","icon_mask_base_uri":"https://maps.gstatic.com/mapfiles/place_api/icons/v2/restaurant_pinlet","name":"Cong","opening_hours":{"open_now":true},"photos":[{"height":4032,"html_attributions":["<a href=\"https://maps.google.com/maps/contrib/114045919239466684834\">Axelssonbjorklund</a>"],"photo_reference":"AeJbb3d3cjJL0cOEdihtD5TB7wj3WZGiPIi-gUoK0UoCvl3gobHyA5SnYRdwmLBLl4ZSRr-8j8m82qhivZHYR3nA1P6lhYg2V7cL3w12-PNpKYJbu83lJKtiEPPJFsr0wBZ1xWFD6PkP__h4qqi-ToB5YE7cQDcRXYHnchtZgYMYgwqaPQNY","width":3024}],"place_id":"ChIJL91ch-x3X0YRV7NlpighPCw","plus_code":{"compound_code":"83FC+5J Stockholm","global_code":"9FFW83FC+5J"},"rating":4.9,"reference":"ChIJL91ch-x3X0YRV7NlpighPCw","types":["restaurant","food","bar","point_of_interest","establishment"],"user_ratings_total":29},{"business_status":"OPERATIONAL","formatted_address":"Söderhallarna 46, 118 72 Stockholm","geometry":{"location":{"lat":59.3147755,"lng":18.070485},"viewport":{"northeast":{"lat":59.31612532989273,"lng":18.07183482989272},"southwest":{"lat":59.31342567010728,"lng":18.06913517010728}}},"icon":"https://maps.gstatic.com/mapfiles/place_api/icons/v1/png_71/restaurant-71.png","icon_background_color":"#FF9E67","icon_mask_base_uri":"https://maps.gstatic.com/mapfiles/place_api/icons/v2/restaurant_pinlet","name":"Viet kitchen","opening_hours":{"open_now":true},"photos":[{"height":2048,"html_attributions":["<a href=\"https://maps.google.com/maps/contrib/111645979901927268648\">A Google User</a>"],"photo_reference":"AeJbb3dm-JPw1U8dFTTmftDHJJbVkeWPCD9e_O4wgpUDb5MsteQ268FGF-otHlz8E2z4gXlhU9j_6hpTr7ftcwBNEWPfT78dURkTi5vjXG5FYp9_7knn_w2_elG3RzHgtKK82H3u6m9WuTCIPe5krHEJrB3X9bjrSxaGNYalNLRPwbDze2ti","width":2048}],"place_id":"ChIJUf02DI13X0YRK3x5XzLvc3s","plus_code":{"compound_code":"837C+W5 Stockholm","global_code":"9FFW837C+W5"},"rating":4.8,"reference":"ChIJUf02DI13X0YRK3x5XzLvc3s","types":["restaurant","food","point_of_interest","establishment"],"user_ratings_total":243},{"business_status":"OPERATIONAL","formatted_address":"Timmermansgatan 37, 118 55 Stockholm","geometry":{"location":{"lat":59.3149349,"lng":18.0618351},"viewport":{"northeast":{"lat":59.31628187989272,"lng":18.06312502989272},"southwest":{"lat":59.31358222010728,"lng":18.06042537010728}}},"icon":"https://maps.gstatic.com/mapfiles/place_api/icons/v1/png_71/restaurant-71.png","icon_background_color":"#FF9E67","icon_mask_base_uri":"https://maps.gstatic.com/mapfiles/place_api/icons/v2/restaurant_pinlet","name":"Thi Thi Baguette","opening_hours":{"open_now":false},"photos":[{"height":3000,"html_attributions":["<a href=\"https://maps.google.com/maps/contrib/102316982253967797496\">Ratchanee Wayubood</a>"],"photo_reference":"AeJbb3cU9yQcW42lBDkSRd6qqQJ2tDIbsZP63OOGRfz5bFyNQTdmnYwc-gkAvS2-eonoGKU7uWte6e6wYTvwRcZEBrhs3ecIvQH4N0sUQAIF88IdWfw0I1EmDdizIMYCj9YCcUS1Bp0U76PIEmQesnzAH4MnsqxeDxyhJP3-1Y2795VNPQmb","width":4000}],"place_id":"ChIJQzrwuIN3X0YRhsVi5s1cCPE","plus_code":{"compound_code":"8376+XP Stockholm","global_code":"9FFW8376+XP"},"rating":4.8,"reference":"ChIJQzrwuIN3X0YRhsVi5s1cCPE","types":["restaurant","food","point_of_interest","establishment"],"user_ratings_total":128},{"business_status":"OPERATIONAL","formatted_address":"Erik Dahlbergsgatan 56, 115 57 Stockholm","geometry":{"location":{"lat":59.34763239999999,"lng":18.0937318},"viewport":{"northeast":{"lat":59.34896152989271,"lng":18.09495157989272},"southwest":{"lat":59.34626187010727,"lng":18.09225192010728}}},"icon":"https://maps.gstatic.com/mapfiles/place_api/icons/v1/png_71/restaurant-71.png","icon_background_color":"#FF9E67","icon_mask_base_uri":"https://maps.gstatic.com/mapfiles/place_api/icons/v2/restaurant_pinlet","name":"H-hus (上海居）","opening_hours":{"open_now":true},"photos":[{"height":3024,"html_attributions":["<a href=\"https://maps.google.com/maps/contrib/116186107916356038007\">A Google User</a>"],"photo_reference":"AeJbb3em896zlnWzds1-59WZGirL8Ig5y7UdBhRW3hBDbGYW7f2Y-j9ZA5kkQFvpQvmMTfjSONF1UnmAXt9qmXzZ5HPiNFTiVTSkn9wJ6yL0OFLaxgTXT3ZdTskIewoybSIHnCkw2cBVwrRc3IVjrJQAVEqdK9zOHYc3jj1FBs2utqHnnIMs","width":4032}],"place_id":"ChIJE2AYlU2dX0YRZkwusaubDmM","plus_code":{"compound_code":"83XV+3F Stockholm","global_code":"9FFW83XV+3F"},"rating":4.8,"reference":"ChIJE2AYlU2dX0YRZkwusaubDmM","types":["restaurant","food","point_of_interest","establishment"],"user_ratings_total":32},{"business_status":"OPERATIONAL","formatted_address":"Tegnérgatan 19, 111 40 Stockholm","geometry":{"location":{"lat":59.33989649999999,"lng":18.0616591},"viewport":{"northeast":{"lat":59.34129212989273,"lng":18.06296007989272},"southwest":{"lat":59.33859247010728,"lng":18.06026042010728}}},"icon":"https://maps.gstatic.com/mapfiles/place_api/icons/v1/png_71/restaurant-71.png","icon_background_color":"#FF9E67","icon_mask_base_uri":"https://maps.gstatic.com/mapfiles/place_api/icons/v2/restaurant_pinlet","name":"An Nam","opening_hours":{"open_now":true},"photos":[{"height":3024,"html_attributions":["<a href=\"https://maps.google.com/maps/contrib/102840955391439053219\">Jon Borglund</a>"],"photo_reference":"AeJbb3fQKrO3ltirYUS-63spWpFLdjVDCYvd2TYJ59eHDhlqajvibC_gFJOAa7QpbemDpsqW9emeY18ayoiVm5Sbm4RD5nD-UCq4YK-TnB6NhgBux9at1mAUuw0xnXr1hwaM_HxycLPBhSv3gf5HQLcZALi2rZRHcNoGySEL0Twj5cE7ABHx","width":4032}],"place_id":"ChIJe3cpDNGdX0YR7Zubmrwkz_A","plus_code":{"compound_code":"83Q6+XM Stockholm","global_code":"9FFW83Q6+XM"},"rating":4.7,"reference":"ChIJe3cpDNGdX0YR7Zubmrwkz_A","types":["restaurant","food","point_of_interest","establishment"],"user_ratings_total":374},{"business_status":"OPERATIONAL","formatted_address":"Drottninggatan 79, 111 60 Stockholm","geometry":{"location":{"lat":59.3377171,"lng":18.0574763},"viewport":{"northeast":{"lat":59.3391595298927,"lng":18.05883592989272},"southwest":{"lat":59.33645987010726,"lng":18.05613627010727}}},"icon":"https://maps.gstatic.com/mapfiles/place_api/icons/v1/png_71/restaurant-71.png","icon_background_color":"#FF9E67","icon_mask_base_uri":"https://maps.gstatic.com/mapfiles/place_api/icons/v2/restaurant_pinlet","name":"Vi-Na Fresh Drottninggatan","opening_hours":{"open_now":true},"photos":[{"height":3024,"html_attributions":["<a href=\"https://maps.google.com/maps/contrib/109589456775205859858\">Will C</a>"],"photo_reference":"AeJbb3dHC0qxq_mV0VbGeFSuKdn1WQZKqfY6NdsVtASF6uTk3eMSyoVOi05HLitEfmWiLASo-yiIGxiA2KUFzcz6vYmdghxv4efM8ZlOw_b1liOxsrAy8_X3GV7Ozy5SLUmo03TwP_L1xP3KU4SxRVm_7NLcVci_wKkXZiwRKf-f5o0d-iEE","width":4032}],"place_id":"ChIJMfu__aqdX0YRDAGW88VqHl8","plus_code":{"compound_code":"83Q4+3X Stockholm","global_code":"9FFW83Q4+3X"},"rating":4.7,"reference":"ChIJMfu__aqdX0YRDAGW88VqHl8","types":["restaurant","food","point_of_interest","establishment"],"user_ratings_total":145},{"business_status":"OPERATIONAL","formatted_address":"Ringvägen 129, 116 61 Stockholm","geometry":{"location":{"lat":59.30825729999999,"lng":18.0782151},"viewport":{"northeast":{"lat":59.30957617989271,"lng":18.07964142989272},"southwest":{"lat":59.30687652010727,"lng":18.07694177010728}}},"icon":"https://maps.gstatic.com/mapfiles/place_api/icons/v1/png_71/restaurant-71.png","icon_background_color":"#FF9E67","icon_mask_base_uri":"https://maps.gstatic.com/mapfiles/place_api/icons/v2/restaurant_pinlet","name":"Suris Street Food","opening_hours":{"open_now":true},"photos":[{"height":700,"html_attributions":["<a href=\"https://maps.google.com/maps/contrib/116298641962013784919\">A Google User</a>"],"photo_reference":"AeJbb3c7AUtulWTa3Yl9xXsAy5aV-GO11nGWFmftvKKZPGpg6ZftGLT7dyEU-7JcHS8JdM_BGdPuhHtTbiThgJXIIz3WmEK4L7hEM_11GBzxu77xSikFn7JnE5_uosmJEHDt_ISq9grm4XvV7V52TyrjxXYZwoyH93CRhK4m9V3HmTydq9HY","width":1242}],"place_id":"ChIJU56X-Nh3X0YR8j9whwI_yM0","plus_code":{"compound_code":"835H+87 Stockholm","global_code":"9FFW835H+87"},"price_level":1,"rating":4.7,"reference":"ChIJU56X-Nh3X0YR8j9whwI_yM0","types":["restaurant","food","point_of_interest","establishment"],"user_ratings_total":142},{"business_status":"OPERATIONAL","formatted_address":"Valhallavägen 67, 114 28 Stockholm","geometry":{"location":{"lat":59.34650139999999,"lng":18.0692952},"viewport":{"northeast":{"lat":59.34783892989273,"lng":18.07062832989272},"southwest":{"lat":59.34513927010728,"lng":18.06792867010728}}},"icon":"https://maps.gstatic.com/mapfiles/place_api/icons/v1/png_71/restaurant-71.png","icon_background_color":"#FF9E67","icon_mask_base_uri":"https://maps.gstatic.com/mapfiles/place_api/icons/v2/restaurant_pinlet","name":"One More - Vietnamesisk Smak","opening_hours":{"open_now":true},"photos":[{"height":3024,"html_attributions":["<a href=\"https://maps.google.com/maps/contrib/110827994009123449872\">Michael Berggren</a>"],"photo_reference":"AeJbb3cMkTVVzGfyL89YMKshr2BMiiN7W29XNaNR9mO9a3mrKqgqEK-cS1O_fBi4w5TK3Kw9TlRvb81pSokOPffw1CIglq5hHCPT1NsSjl1PNwTrGpquaHdAgrLwdrx_QRBbL1V4ARTtSbZtZYKg1HjcdHLBiId0dQaYOTq4yJePHrR5Rohp","width":4032}],"place_id":"ChIJ3c2-m5edX0YRYWAF_saWBsE","plus_code":{"compound_code":"83W9+JP Stockholm","global_code":"9FFW83W9+JP"},"rating":4.7,"reference":"ChIJ3c2-m5edX0YRYWAF_saWBsE","types":["restaurant","food","point_of_interest","establishment"],"user_ratings_total":137},{"business_status":"OPERATIONAL","formatted_address":"Runstensvägen 1, 136 46 Handen","geometry":{"location":{"lat":59.1682523,"lng":18.1402224},"viewport":{"northeast":{"lat":59.16950107989272,"lng":18.14166192989272},"southwest":{"lat":59.16680142010728,"lng":18.13896227010727}}},"icon":"https://maps.gstatic.com/mapfiles/place_api/icons/v1/png_71/restaurant-71.png","icon_background_color":"#FF9E67","icon_mask_base_uri":"https://maps.gstatic.com/mapfiles/place_api/icons/v2/restaurant_pinlet","name":"Banh Mi Vietnam","opening_hours":{"open_now":false},"photos":[{"height":3352,"html_attributions":["<a href=\"https://maps.google.com/maps/contrib/103058576954977668189\">A Google User</a>"],"photo_reference":"AeJbb3eY0l2LtxQRoM07Be3HzqSi4Q_gJ8__MJTgU2hFFe6b6F-OJUh80Tcla4oD1V8N0OK7-Thn8Y_jNlbiIHooUULTP2wXWTENkBYCdKrRoyf1poYM1l5emZZr7u0A4T8xlMMaLkrzHodZOCjRw_dqWhSZboYYvhPU3idwgT4G-PLH4-F0","width":8541}],"place_id":"ChIJYcGc2K97X0YRg8XgbNNSAjI","plus_code":{"compound_code":"549R+83 Handen","global_code":"9FFW549R+83"},"rating":4.7,"reference":"ChIJYcGc2K97X0YRg8XgbNNSAjI","types":["restaurant","food","point_of_interest","establishment"],"user_ratings_total":65},{"business_status":"OPERATIONAL","formatted_address":"Scheelegatan 15, 112 28 Stockholm","geometry":{"location":{"lat":59.332435,"lng":18.0448309},"viewport":{"northeast":{"lat":59.33376772989271,"lng":18.04629627989272},"southwest":{"lat":59.33106807010727,"lng":18.04359662010728}}},"icon":"https://maps.gstatic.com/mapfiles/place_api/icons/v1/png_71/restaurant-71.png","icon_background_color":"#FF9E67","icon_mask_base_uri":"https://maps.gstatic.com/mapfiles/place_api/icons/v2/restaurant_pinlet","name":"Saigon Baguette","opening_hours":{"open_now":false},"photos":[{"height":4032,"html_attributions":["<a href=\"https://maps.google.com/maps/contrib/109074457180713740946\">A Google User</a>"],"photo_reference":"AeJbb3eP0I3S9zXNS1tuvNTUON3Kf3cGBiW43NI5eKHvXdkg3OjMWpJ7XH8QJCcDHL8WrpbmQzoeGFtK2ZX8S47OqsgrV1rwP9KFKGkJxAX-uAScFBBHxgBkAj67l8EUZBn1XeeHzSWCi1K7T_LNRuGArnHCkjiHvPYjsyD-pBRKFTZhrV4G","width":3024}],"place_id":"ChIJk-MwkT-dX0YRZn3DJuaSk_w","plus_code":{"compound_code":"82JV+XW Stockholm","global_code":"9FFW82JV+XW"},"rating":4.7,"reference":"ChIJk-MwkT-dX0YRZn3DJuaSk_w","types":["restaurant","food","point_of_interest","establishment"],"user_ratings_total":32},{"business_status":"OPERATIONAL","formatted_address":"Luntmakargatan 74, 113 51 Stockholm","geometry":{"location":{"lat":59.342118,"lng":18.0590363},"viewport":{"northeast":{"lat":59.34347637989272,"lng":18.06034342989272},"southwest":{"lat":59.34077672010727,"lng":18.05764377010728}}},"icon":"https://maps.gstatic.com/mapfiles/place_api/icons/v1/png_71/restaurant-71.png","icon_background_color":"#FF9E67","icon_mask_base_uri":"https://maps.gstatic.com/mapfiles/place_api/icons/v2/restaurant_pinlet","name":"Lao Wai","opening_hours":{"open_now":true},"photos":[{"height":4608,"html_attributions":["<a href=\"https://maps.google.com/maps/contrib/113509721652891818080\">Linda Knutar</a>"],"photo_reference":"AeJbb3c6agJUT-7GH8ofiafd-D_OrokNj4dBoVYpr_GdwdeTc_DUa1IfK_JLObiRsmSXBofXZtwYYIpfMKuMCA7k1gt7tGG-jibXAsX23e3x9ZDJn7GRtqYAGSJA9iBpFdnIezxuSbi0zEK4KTnS6R-MfbOAQxEKtUaAQMk90icsAvCJnd4H","width":3456}],"place_id":"ChIJoQvt1GidX0YRedUwdvkJL_w","plus_code":{"compound_code":"83R5+RJ Stockholm","global_code":"9FFW83R5+RJ"},"price_level":2,"rating":4.6,"reference":"ChIJoQvt1GidX0YRedUwdvkJL_w","types":["restaurant","food","point_of_interest","establishment"],"user_ratings_total":648},{"business_status":"OPERATIONAL","formatted_address":"Hantverkargatan 84, 112 38 Stockholm","geometry":{"location":{"lat":59.3314244,"lng":18.0298324},"viewport":{"northeast":{"lat":59.33272972989272,"lng":18.03114672989272},"southwest":{"lat":59.33003007010728,"lng":18.02844707010728}}},"icon":"https://maps.gstatic.com/mapfiles/place_api/icons/v1/png_71/restaurant-71.png","icon_background_color":"#FF9E67","icon_mask_base_uri":"https://maps.gstatic.com/mapfiles/place_api/icons/v2/restaurant_pinlet","name":"Restaurang Springrolls","opening_hours":{"open_now":true},"photos":[{"height":3648,"html_attributions":["<a href=\"https://maps.google.com/maps/contrib/117462947039890096316\">Cesar Osaka</a>"],"photo_reference":"AeJbb3dS55WKr24xc-BLQZVQPFiP2VgtFvx-RJpibg1r-HHUHBjUF9wUyYpdnF1-YLt6qxhE0ZIibuFPDLiGYgpFf96XUF1CH0Vk-oqy6KxPTkGmt3A45ZZpoXWm9UwVt10kWDQGWPxzjqZIgNbR4MCzC2Y_QLyqy8i3B9rao6868KL-Vxan","width":2736}],"place_id":"ChIJ3zmMBtZ3X0YRLYoTAU3hS6I","plus_code":{"compound_code":"82JH+HW Stockholm","global_code":"9FFW82JH+HW"},"price_level":2,"rating":4.6,"reference":"ChIJ3zmMBtZ3X0YRLYoTAU3hS6I","types":["restaurant","food","point_of_interest","establishment"],"user_ratings_total":248},{"business_status":"OPERATIONAL","formatted_address":"Odengatan 94, 113 22 Stockholm","geometry":{"location":{"lat":59.3407048,"lng":18.0414934},"viewport":{"northeast":{"lat":59.34199072989273,"lng":18.04280342989273},"southwest":{"lat":59.33929107010728,"lng":18.04010377010728}}},"icon":"https://maps.gstatic.com/mapfiles/place_api/icons/v1/png_71/restaurant-71.png","icon_background_color":"#FF9E67","icon_mask_base_uri":"https://maps.gstatic.com/mapfiles/place_api/icons/v2/restaurant_pinlet","name":"Minh Mat","opening_hours":{"open_now":true},"photos":[{"height":2922,"html_attributions":["<a href=\"https://maps.google.com/maps/contrib/112963501311751827987\">Minh Mat</a>"],"photo_reference":"AeJbb3fiCUkafE_o1riZw_-MvU9XB5sIH-u7yIIjLE5-xnvQD3Zj_k59Vp855ClO-fyOzftauzy1DiDXfA5657pGWb2aPLr5XgK-fk1DM3Ihy9RKoZaWvT6f6WkyLi1VpfE6v7MCwMP3N4Ceu5pUGkb3WFT6MnIiCpWDPIOKxA-tZOxGlE3R","width":2922}],"place_id":"ChIJz57KinqdX0YRGJEs902mn-U","plus_code":{"compound_code":"82RR+7J Stockholm","global_code":"9FFW82RR+7J"},"price_level":2,"rating":4.5,"reference":"ChIJz57KinqdX0YRGJEs902mn-U","types":["restaurant","food","point_of_interest","establishment"],"user_ratings_total":1037},{"business_status":"OPERATIONAL","formatted_address":"Karlbergsvägen 43, 113 37 Stockholm","geometry":{"location":{"lat":59.3423354,"lng":18.0373782},"viewport":{"northeast":{"lat":59.34377477989273,"lng":18.03871507989272},"southwest":{"lat":59.34107512010728,"lng":18.03601542010727}}},"icon":"https://maps.gstatic.com/mapfiles/place_api/icons/v1/png_71/restaurant-71.png","icon_background_color":"#FF9E67","icon_mask_base_uri":"https://maps.gstatic.com/mapfiles/place_api/icons/v2/restaurant_pinlet","name":"Indian Street Food & Co","opening_hours":{"open_now":true},"photos":[{"height":1824,"html_attributions":["<a href=\"https://maps.google.com/maps/contrib/104956893691124142821\">Abhishek Kumar</a>"],"photo_reference":"AeJbb3fpPM55fe9jggfaSlxjFuLdy5cdNmt1iw9B-rkjOhQDLyMMXFUTE0WWmG_nrrt9SDwVvPPIn5kThWDA9rpQQwx8brH06HpA_md3sTc9CzmnGbWrCZr0XToWF1oPjpXJ4qhf_8VZKBGDwJHSwU2wJoqIXQ4YKZ71_yxcrU1Dof0ejQbo","width":4000}],"place_id":"ChIJuUIorLydX0YRNELdNhrNXU4","plus_code":{"compound_code":"82RP+WX Stockholm","global_code":"9FFW82RP+WX"},"price_level":2,"rating":4.5,"reference":"ChIJuUIorLydX0YRNELdNhrNXU4","types":["meal_takeaway","restaurant","food","point_of_interest","establishment"],"user_ratings_total":667},{"business_status":"OPERATIONAL","formatted_address":"Hötorget 3, 111 57 Stockholm","geometry":{"location":{"lat":59.33439720000001,"lng":18.0626557},"viewport":{"northeast":{"lat":59.33567262989272,"lng":18.06384647989272},"southwest":{"lat":59.33297297010728,"lng":18.06114682010728}}},"icon":"https://maps.gstatic.com/mapfiles/place_api/icons/v1/png_71/restaurant-71.png","icon_background_color":"#FF9E67","icon_mask_base_uri":"https://maps.gstatic.com/mapfiles/place_api/icons/v2/restaurant_pinlet","name":"Nem Nem Quan Hötorgshallen","opening_hours":{"open_now":false},"photos":[{"height":1960,"html_attributions":["<a href=\"https://maps.google.com/maps/contrib/106140246495120222713\">Nguyễn Mạnh hùng</a>"],"photo_reference":"AeJbb3cSfrtT245RNc7B2MHrRsrUgLbZd--yBhpuudf7g5AEy3w-b9w8VXliFfdR4HiJI2ybrtPyIxpX6W8uZaFysj3PooaNI209Dz4CEbLPMMX6VlBjjRbtpV-_pf0BQJKbz4Hk3TqgsyEPBCPJHnnSU0M9shuhbSY0Q2KYmA1Vld1OlAFN","width":4032}],"place_id":"ChIJ7c-0E1mdX0YRogAlKu_2ddg","plus_code":{"compound_code":"83M7+Q3 Stockholm","global_code":"9FFW83M7+Q3"},"rating":4.5,"reference":"ChIJ7c-0E1mdX0YRogAlKu_2ddg","types":["restaurant","food","point_of_interest","establishment"],"user_ratings_total":29},{"business_status":"OPERATIONAL","formatted_address":"Vikingagatan 10, 113 42 Stockholm","geometry":{"location":{"lat":59.3406459,"lng":18.0328431},"viewport":{"northeast":{"lat":59.34201022989271,"lng":18.03410672989272},"southwest":{"lat":59.33931057010727,"lng":18.03140707010728}}},"icon":"https://maps.gstatic.com/mapfiles/place_api/icons/v1/png_71/restaurant-71.png","icon_background_color":"#FF9E67","icon_mask_base_uri":"https://maps.gstatic.com/mapfiles/place_api/icons/v2/restaurant_pinlet","name":"Vietnam Deli","opening_hours":{"open_now":true},"photos":[{"height":1960,"html_attributions":["<a href=\"https://maps.google.com/maps/contrib/105787263699269996221\">Nat Ho</a>"],"photo_reference":"AeJbb3f4U_5vhynjnN54vrphB51IvLPXxRvDPOSQjyfZ4YLHjK9pQER2jDz4syzkcc_rkOLmEDm2Zi-ryehOppCI0yXy3b0NXJAlENls-6nXEEHhx7Sy9YjOKMWtWq6E0IF0x9SFz9R7YqS2DbijRsH1Bvseh20z0ZVz0E7pEEqxMBN_SFvB","width":4032}],"place_id":"ChIJZdtiRJqdX0YRfCQ61J20N7I","plus_code":{"compound_code":"82RM+74 Stockholm","global_code":"9FFW82RM+74"},"rating":4.5,"reference":"ChIJZdtiRJqdX0YRfCQ61J20N7I","types":["restaurant","food","point_of_interest","establishment"],"user_ratings_total":27},{"business_status":"OPERATIONAL","formatted_address":"Åsögatan 90, 118 29 Stockholm","geometry":{"location":{"lat":59.31219729999999,"lng":18.0691396},"viewport":{"northeast":{"lat":59.31359432989272,"lng":18.07052182989272},"southwest":{"lat":59.31089467010727,"lng":18.06782217010728}}},"icon":"https://maps.gstatic.com/mapfiles/place_api/icons/v1/png_71/restaurant-71.png","icon_background_color":"#FF9E67","icon_mask_base_uri":"https://maps.gstatic.com/mapfiles/place_api/icons/v2/restaurant_pinlet","name":"Nem Nem Quan","opening_hours":{"open_now":true},"photos":[{"height":5472,"html_attributions":["<a href=\"https://maps.google.com/maps/contrib/116218050705270782974\">A Google User</a>"],"photo_reference":"AeJbb3fRk5Ncegv0NnYp6x3cp07y-Q2I8DkGbxy6h7rwC7HFN8GpXefOY9pIFQrnYlAqVP9TRna8GdVamoDYQiT7NzCiuiZ2_cILk9gFgT_gCLfkkeiZR90OTU5b2HQ_zbF0l_ufvHs_e2u1spVQp42TeAsdDOo_08jgFAnv_EuO4IQ7XmA","width":7296}],"place_id":"ChIJvzsKOPB3X0YRR5hoWiwaD6U","plus_code":{"compound_code":"8369+VM Stockholm","global_code":"9FFW8369+VM"},"price_level":2,"rating":4.4,"reference":"ChIJvzsKOPB3X0YRR5hoWiwaD6U","types":["meal_delivery","meal_takeaway","restaurant","food","bar","point_of_interest","establishment"],"user_ratings_total":734},{"business_status":"OPERATIONAL","formatted_address":"Gamla Brogatan 25, 111 20 Stockholm","geometry":{"location":{"lat":59.3335266,"lng":18.0584776},"viewport":{"northeast":{"lat":59.33520967989271,"lng":18.05959802989272},"southwest":{"lat":59.33251002010726,"lng":18.05689837010728}}},"icon":"https://maps.gstatic.com/mapfiles/place_api/icons/v1/png_71/restaurant-71.png","icon_background_color":"#FF9E67","icon_mask_base_uri":"https://maps.gstatic.com/mapfiles/place_api/icons/v2/restaurant_pinlet","name":"Saigon Baguette","opening_hours":{"open_now":true},"photos":[{"height":2592,"html_attributions":["<a href=\"https://maps.google.com/maps/contrib/116349647188424291430\">A Google User</a>"],"photo_reference":"AeJbb3dUfcKEFrf-0KK8IYG714cjd2JwdgNl4L9cvsnFw-32VLT9ozr1ec1aUTVpb0NL-asb_t5mvQi05l_iAaBY2TMrmxk02_CUM3xWn5snm75xH8BsUrbw_yIwHmy3Gu5s6t3HHmCJ-Yns8xsc7njUza7ZnfXRx0MjgnK8vfCqkOnXaCYB","width":4608}],"place_id":"ChIJB1gNzGCdX0YRbcjEIweaOMc","plus_code":{"compound_code":"83M5+C9 Stockholm","global_code":"9FFW83M5+C9"},"price_level":1,"rating":4.4,"reference":"ChIJB1gNzGCdX0YRbcjEIweaOMc","types":["restaurant","food","point_of_interest","establishment"],"user_ratings_total":637},{"business_status":"OPERATIONAL","formatted_address":"Bergsgatan 33, 112 28 Stockholm","geometry":{"location":{"lat":59.33035080000001,"lng":18.0394218},"viewport":{"northeast":{"lat":59.33175027989273,"lng":18.04079667989272},"southwest":{"lat":59.32905062010728,"lng":18.03809702010728}}},"icon":"https://maps.gstatic.com/mapfiles/place_api/icons/v1/png_71/restaurant-71.png","icon_background_color":"#FF9E67","icon_mask_base_uri":"https://maps.gstatic.com/mapfiles/place_api/icons/v2/restaurant_pinlet","name":"MoonCake Restaurang","opening_hours":{"open_now":true},"photos":[{"height":3096,"html_attributions":["<a href=\"https://maps.google.com/maps/contrib/104683194994337539472\">A Google User</a>"],"photo_reference":"AeJbb3ewWMpwK2g9D2xXLU2XMss-JtSKcvUckBJE55jzcCoR0pdSUFcwsEhVo2TRE05n8i2KeiFz0YBEZWZfKjjQRPzBGtqiEvtitthws71fy1NjDHfTQhwHSaM8Z_Rmd6-wniCDze-jOtmkw1UJ7Z8nnOO9z1KO00JQlBdiOVHu3S-bHf2x","width":5504}],"place_id":"ChIJP-XW2m6dX0YRWpBPYNT6KqU","plus_code":{"compound_code":"82JQ+4Q Stockholm","global_code":"9FFW82JQ+4Q"},"price_level":2,"rating":4.4,"reference":"ChIJP-XW2m6dX0YRWpBPYNT6KqU","types":["restaurant","food","point_of_interest","establishment"],"user_ratings_total":374},{"business_status":"OPERATIONAL","formatted_address":"Moa Martinsons Torg 8, 112 15 Stockholm","geometry":{"location":{"lat":59.3396358,"lng":18.0055912},"viewport":{"northeast":{"lat":59.34107037989272,"lng":18.00672347989272},"southwest":{"lat":59.33837072010728,"lng":18.00402382010728}}},"icon":"https://maps.gstatic.com/mapfiles/place_api/icons/v1/png_71/restaurant-71.png","icon_background_color":"#FF9E67","icon_mask_base_uri":"https://maps.gstatic.com/mapfiles/place_api/icons/v2/restaurant_pinlet","name":"Hanoi Pho - Vietnamesiskt kök","opening_hours":{"open_now":true},"photos":[{"height":3024,"html_attributions":["<a href=\"https://maps.google.com/maps/contrib/110582818272813333325\">Christoffer Ekeroth</a>"],"photo_reference":"AeJbb3dj-15bBTpmQDgX94rYGjOasht-fQCefEOVdMbPMFqJjiIbSL1MJQqxfSZKy5Bej5-r1cijyuJct4_Iq6x-qJQU5Mi96U_3JQx3nGyXS0AT2xLsvh1NVX99DxHj3YCP9WonZzVWtzZnpXiREwPmUuCD23gMJltmTBcbpzjbsHXyscVp","width":4032}],"place_id":"ChIJBcvY93ydX0YRmrW2_yyrcPQ","plus_code":{"compound_code":"82Q4+V6 Stockholm","global_code":"9FFW82Q4+V6"},"rating":4.4,"reference":"ChIJBcvY93ydX0YRmrW2_yyrcPQ","types":["restaurant","food","point_of_interest","establishment"],"user_ratings_total":196},{"business_status":"OPERATIONAL","formatted_address":"Barnhusgatan 20, 111 23 Stockholm","geometry":{"location":{"lat":59.3355519,"lng":18.0538111},"viewport":{"northeast":{"lat":59.33684307989272,"lng":18.05521532989272},"southwest":{"lat":59.33414342010727,"lng":18.05251567010728}}},"icon":"https://maps.gstatic.com/mapfiles/place_api/icons/v1/png_71/restaurant-71.png","icon_background_color":"#FF9E67","icon_mask_base_uri":"https://maps.gstatic.com/mapfiles/place_api/icons/v2/restaurant_pinlet","name":"Hanoi Corner","opening_hours":{"open_now":false},"photos":[{"height":2267,"html_attributions":["<a href=\"https://maps.google.com/maps/contrib/101124513151987345075\">Paul Pettersson</a>"],"photo_reference":"AeJbb3c1ndNZV3TZJ3U32LsUqTGeiEglWxtwldnbKdP9qi-YxltaxaGXlUwfcoaz90BgC7hFGRaCbNgXELfRNllR_LXfgVcnREjXLNuISYlCVRu41yP5F-7q2rCzPWjQVQ-_K7Hx1ApIpmSKY-BsxDOlYqDrZs1kZS31RSF4HKzJZKGws9cT","width":4031}],"place_id":"ChIJF9hMy8qdX0YR7kUb7jcM0is","plus_code":{"compound_code":"83P3+6G Stockholm","global_code":"9FFW83P3+6G"},"rating":4.4,"reference":"ChIJF9hMy8qdX0YR7kUb7jcM0is","types":["bar","meal_takeaway","restaurant","food","point_of_interest","establishment"],"user_ratings_total":104},{"business_status":"OPERATIONAL","formatted_address":"Ninni Kronbergs Gata 2, 171 64 Solna","geometry":{"location":{"lat":59.34846880000001,"lng":18.0327534},"viewport":{"northeast":{"lat":59.34974067989271,"lng":18.03419427989272},"southwest":{"lat":59.34704102010726,"lng":18.03149462010728}}},"icon":"https://maps.gstatic.com/mapfiles/place_api/icons/v1/png_71/restaurant-71.png","icon_background_color":"#FF9E67","icon_mask_base_uri":"https://maps.gstatic.com/mapfiles/place_api/icons/v2/restaurant_pinlet","name":"Indochine","opening_hours":{"open_now":true},"photos":[{"height":4032,"html_attributions":["<a href=\"https://maps.google.com/maps/contrib/107647453321849671446\">Marat Dyatko</a>"],"photo_reference":"AeJbb3epm-F_Qb-siluRNTLyXokqGIqGZ70c0yH01K-hRMRutFZFz2xtX7Slm8ypDfee5jbundnqf7uWBEUsWvn2l5ruTNWazGbyqWaSLaa3ZBi3ZQ2M4MdemCtTX9uwQp559sxkkgvXCU7tttWWa55Fu2CATqsGq72gXBhOjG20lCezL5Cw","width":3024}],"place_id":"ChIJScteYamdX0YRv_qKGAk13p0","plus_code":{"compound_code":"82XM+94 Solna","global_code":"9FFW82XM+94"},"rating":4.4,"reference":"ChIJScteYamdX0YRv_qKGAk13p0","types":["restaurant","food","point_of_interest","establishment"],"user_ratings_total":94},{"business_status":"OPERATIONAL","formatted_address":"Magnus Ladulåsgatan 2A, 118 63 Stockholm","geometry":{"location":{"lat":59.3113973,"lng":18.058588},"viewport":{"northeast":{"lat":59.31282967989272,"lng":18.05989267989272},"southwest":{"lat":59.31013002010727,"lng":18.05719302010728}}},"icon":"https://maps.gstatic.com/mapfiles/place_api/icons/v1/png_71/restaurant-71.png","icon_background_color":"#FF9E67","icon_mask_base_uri":"https://maps.gstatic.com/mapfiles/place_api/icons/v2/restaurant_pinlet","name":"Bun Bun","opening_hours":{"open_now":false},"photos":[{"height":4032,"html_attributions":["<a href=\"https://maps.google.com/maps/contrib/115698100606893937236\">Michael Yee</a>"],"photo_reference":"AeJbb3dIb_M_9oZGpL77Z32p4WhuGFH-nvV63aIaxB4So5H3Tks_E50GG0iLsj3vwYq9wfxRHeYD9umB64REYOfNO4HURnCU7B5jZuWy7rVtGfz5lNPVXGz932-pbI8ou7eZBicPMqpUlwkJ-MU1rUnO2GYtYbwsFtS_Q032lsFQhdbHHZI","width":3024}],"place_id":"ChIJLTetL7N3X0YRdJ-mFEQIa2g","plus_code":{"compound_code":"8365+HC Stockholm","global_code":"9FFW8365+HC"},"rating":4.4,"reference":"ChIJLTetL7N3X0YRdJ-mFEQIa2g","types":["meal_delivery","restaurant","food","point_of_interest","establishment"],"user_ratings_total":54},{"business_status":"OPERATIONAL","formatted_address":"Odengatan 85, 113 22 Stockholm","geometry":{"location":{"lat":59.3417723,"lng":18.0472385},"viewport":{"northeast":{"lat":59.34319517989272,"lng":18.04863722989272},"southwest":{"lat":59.34049552010728,"lng":18.04593757010728}}},"icon":"https://maps.gstatic.com/mapfiles/place_api/icons/v1/png_71/restaurant-71.png","icon_background_color":"#FF9E67","icon_mask_base_uri":"https://maps.gstatic.com/mapfiles/place_api/icons/v2/restaurant_pinlet","name":"Eatnam","opening_hours":{"open_now":true},"photos":[{"height":3024,"html_attributions":["<a href=\"https://maps.google.com/maps/contrib/113289404555296068072\">Tiago Almeida</a>"],"photo_reference":"AeJbb3fIZvjt5ZwoOPIvlLOLaAfpvyHNktNrLhlAZPmWu5TEx5NfVemVnrm0C5Cl5_FiP_uDLR-N5jx0-H15gp1n1jQ_e5Ga9HtiWWImuB6HvqIYNIsppNc3ER2nJre3NPJkFhWw6Gc9gxsWQjMkEizptUSihHxflMUbaFvRAG7rCVR_gkL_","width":3842}],"place_id":"ChIJba_u_W-dX0YRnH8aqzIuVlw","plus_code":{"compound_code":"82RW+PW Stockholm","global_code":"9FFW82RW+PW"},"price_level":2,"rating":4.3,"reference":"ChIJba_u_W-dX0YRnH8aqzIuVlw","types":["restaurant","food","point_of_interest","establishment"],"user_ratings_total":1525},{"business_status":"OPERATIONAL","formatted_address":"Wallingatan 7, 111 60 Stockholm","geometry":{"location":{"lat":59.33712249999999,"lng":18.0577604},"viewport":{"northeast":{"lat":59.33851187989273,"lng":18.05906337989272},"southwest":{"lat":59.33581222010729,"lng":18.05636372010727}}},"icon":"https://maps.gstatic.com/mapfiles/place_api/icons/v1/png_71/restaurant-71.png","icon_background_color":"#FF9E67","icon_mask_base_uri":"https://maps.gstatic.com/mapfiles/place_api/icons/v2/restaurant_pinlet","name":"Tjabba Thai","opening_hours":{"open_now":true},"photos":[{"height":3518,"html_attributions":["<a href=\"https://maps.google.com/maps/contrib/112877107487116374666\">A Google User</a>"],"photo_reference":"AeJbb3ePm5XbeRd6K8qPoq-cNysS8IdB0hX-2mCGDRD9Epu3vncXdOyLE5k1oWCnIawu6FZwdlEAgPSog6YBcacgX8kOSBP0VrWMRM98lyM8TpCbNsfQ6aB4ItBDr1dYOKNjw0MgcmZqTyis9YVOyVK4yvspBrigf8GBSrXb3VRCh9encr-x","width":3024}],"place_id":"ChIJSy2pWWadX0YRIrfxu2pkcbA","plus_code":{"compound_code":"83P5+V4 Stockholm","global_code":"9FFW83P5+V4"},"price_level":2,"rating":4.3,"reference":"ChIJSy2pWWadX0YRIrfxu2pkcbA","types":["restaurant","food","point_of_interest","establishment"],"user_ratings_total":1087},{"business_status":"OPERATIONAL","formatted_address":"Sturegatan 22, 114 36 Stockholm","geometry":{"location":{"lat":59.3384199,"lng":18.0749358},"viewport":{"northeast":{"lat":59.33981862989271,"lng":18.07630287989272},"southwest":{"lat":59.33711897010727,"lng":18.07360322010727}}},"icon":"https://maps.gstatic.com/mapfiles/place_api/icons/v1/png_71/restaurant-71.png","icon_background_color":"#FF9E67","icon_mask_base_uri":"https://maps.gstatic.com/mapfiles/place_api/icons/v2/restaurant_pinlet","name":"Miss Voon","opening_hours":{"open_now":true},"photos":[{"height":3024,"html_attributions":["<a href=\"https://maps.google.com/maps/contrib/111708009815904087891\">Johan</a>"],"photo_reference":"AeJbb3ciMjmWCTXC7v41DS7tttzru4LBYDa4pZn2hktPNYerVPrkfXY7TTSo3vitCqb50adYteCNbfiXNtMNsTfreEhOUnXw_0Tts9hmDXHnYvdVy0jUwZOMnuLxCenZUZHdYWVDPZwE_ih-rpMbWLy2pNCxYwQzWBjU_MfHI4iNsqwAv6SE","width":4032}],"place_id":"ChIJYRiAXEOdX0YR3F4wyzvS99Y","plus_code":{"compound_code":"83QG+C2 Stockholm","global_code":"9FFW83QG+C2"},"price_level":3,"rating":4.3,"reference":"ChIJYRiAXEOdX0YR3F4wyzvS99Y","types":["bar","restaurant","food","point_of_interest","establishment"],"user_ratings_total":993},{"business_status":"OPERATIONAL","formatted_address":"Sankt Eriksgatan 124, 113 31 Stockholm","geometry":{"location":{"lat":59.34649739999999,"lng":18.0403908},"viewport":{"northeast":{"lat":59.34784662989273,"lng":18.04157677989272},"southwest":{"lat":59.34514697010729,"lng":18.03887712010728}}},"icon":"https://maps.gstatic.com/mapfiles/place_api/icons/v1/png_71/restaurant-71.png","icon_background_color":"#FF9E67","icon_mask_base_uri":"https://maps.gstatic.com/mapfiles/place_api/icons/v2/restaurant_pinlet","name":"Bún Bò Huế","opening_hours":{"open_now":true},"photos":[{"height":3024,"html_attributions":["<a href=\"https://maps.google.com/maps/contrib/116661738917160507554\">Mull deluxe</a>"],"photo_reference":"AeJbb3eJ21GFu9Kn8ri9Nu_f_gqod7xcEAK8H0lnZ0V_9SnThqDXhYXxDdieHVkQUpcvtFviL9ExM3_8g7PPHyURspPjjquzf2mVsgJPoO2meCeBfVm6bjE5CqCZYU6jVwtlI1briFrqq7MsQUTELrYxcFfqLK8SzzSmonFJ5ZzH2pcCYdP-","width":4032}],"place_id":"ChIJv_Jzy3adX0YRyqwAEFbzt5A","plus_code":{"compound_code":"82WR+H5 Stockholm","global_code":"9FFW82WR+H5"},"price_level":2,"rating":4.3,"reference":"ChIJv_Jzy3adX0YRyqwAEFbzt5A","types":["restaurant","food","point_of_interest","establishment"],"user_ratings_total":565},{"business_status":"OPERATIONAL","formatted_address":"Birger Jarlsgatan 36, 114 29 Stockholm","geometry":{"location":{"lat":59.3390563,"lng":18.0683806},"viewport":{"northeast":{"lat":59.34036917989271,"lng":18.06958457989272},"southwest":{"lat":59.33766952010727,"lng":18.06688492010727}}},"icon":"https://maps.gstatic.com/mapfiles/place_api/icons/v1/png_71/restaurant-71.png","icon_background_color":"#FF9E67","icon_mask_base_uri":"https://maps.gstatic.com/mapfiles/place_api/icons/v2/restaurant_pinlet","name":"Eatnam","opening_hours":{"open_now":true},"photos":[{"height":3024,"html_attributions":["<a href=\"https://maps.google.com/maps/contrib/109427662640163488461\">Anton Vlasenko</a>"],"photo_reference":"AeJbb3eeg05VXzChhUhfC0kDktV6OP4uwJK2kvJ_YVxi2uGLcX-Z0RCDOMeHU-73gLpCmwm5P-buLZXI6nai6kBzDEs9I81ZibzT14TJ_rKfoRrIRxQH8aJDs-ykLlMS-wSFFCcak6Tb1Flzqv-siJgt3H4ZNlWtxbnfQz7yVUFiPB1l3Z9L","width":4032}],"place_id":"ChIJgRqotkmdX0YR6fVgxrl09QQ","plus_code":{"compound_code":"83Q9+J8 Stockholm","global_code":"9FFW83Q9+J8"},"price_level":2,"rating":4.3,"reference":"ChIJgRqotkmdX0YR6fVgxrl09QQ","types":["restaurant","food","point_of_interest","establishment"],"user_ratings_total":457},{"business_status":"OPERATIONAL","formatted_address":"Sankt Paulsgatan 2, 118 46 Stockholm","geometry":{"location":{"lat":59.318633,"lng":18.0701511},"viewport":{"northeast":{"lat":59.31993572989272,"lng":18.07152242989272},"southwest":{"lat":59.31723607010727,"lng":18.06882277010727}}},"icon":"https://maps.gstatic.com/mapfiles/place_api/icons/v1/png_71/restaurant-71.png","icon_background_color":"#FF9E67","icon_mask_base_uri":"https://maps.gstatic.com/mapfiles/place_api/icons/v2/restaurant_pinlet","name":"Eatnam","opening_hours":{"open_now":true},"photos":[{"height":4032,"html_attributions":["<a href=\"https://maps.google.com/maps/contrib/113694729836167466529\">Jennifer Rodell</a>"],"photo_reference":"AeJbb3eQl1XuT3wmKOPKA7cx1nl87Ujz5_14M3Fsa7iaMwOV9PHAZOpY4lasb6UrSkzVEY7_rInCXxJEuafVjyDIV1glnee6GFP83x7A3s1PwM05p0vfd6dn1f_CgIZHYBTCXF0pbhFNmfRUTtJhmrNT_GfPMpj4PBr6efguX0KSMf5KIy-V","width":3024}],"place_id":"ChIJ1UWzKuV3X0YRPptLJhQ9hlI","plus_code":{"compound_code":"839C+F3 Stockholm","global_code":"9FFW839C+F3"},"price_level":2,"rating":4.3,"reference":"ChIJ1UWzKuV3X0YRPptLJhQ9hlI","types":["restaurant","food","point_of_interest","establishment"],"user_ratings_total":262},{"business_status":"OPERATIONAL","formatted_address":"Kungsbron 8, 111 22 Stockholm","geometry":{"location":{"lat":59.3334354,"lng":18.0542982},"viewport":{"northeast":{"lat":59.33470032989271,"lng":18.05572412989272},"southwest":{"lat":59.33200067010727,"lng":18.05302447010728}}},"icon":"https://maps.gstatic.com/mapfiles/place_api/icons/v1/png_71/restaurant-71.png","icon_background_color":"#FF9E67","icon_mask_base_uri":"https://maps.gstatic.com/mapfiles/place_api/icons/v2/restaurant_pinlet","name":"SEN Street Kitchen","opening_hours":{"open_now":false},"photos":[{"height":4032,"html_attributions":["<a href=\"https://maps.google.com/maps/contrib/113841213430023956510\">Amir Benyovitch</a>"],"photo_reference":"AeJbb3eiRiV9M--_gRyuprSnKvsC_YD7FCaFw5b1dlUelUP_uLd2WlZVNUhwzqYkzvKZPPa462fubKhax35HY7jXENzRRiVRT8r_J-Ht5AFVmCwGbTuIRmb0tqc5sPOJ_cscp0BdrTqsbXgsO9d3gEB9apARNbShgrbE9f1JCXPtlzgPjxD6","width":3024}],"place_id":"ChIJQwUVOWGdX0YRqQwBr-3d9-s","plus_code":{"compound_code":"83M3+9P Stockholm","global_code":"9FFW83M3+9P"},"price_level":2,"rating":4.3,"reference":"ChIJQwUVOWGdX0YRqQwBr-3d9-s","types":["restaurant","food","point_of_interest","establishment"],"user_ratings_total":191},{"business_status":"OPERATIONAL","formatted_address":"Finntorpsvägen 1, 131 36 Nacka","geometry":{"location":{"lat":59.3083015,"lng":18.1371544},"viewport":{"northeast":{"lat":59.30973907989272,"lng":18.13852612989272},"southwest":{"lat":59.30703942010728,"lng":18.13582647010728}}},"icon":"https://maps.gstatic.com/mapfiles/place_api/icons/v1/png_71/restaurant-71.png","icon_background_color":"#FF9E67","icon_mask_base_uri":"https://maps.gstatic.com/mapfiles/place_api/icons/v2/restaurant_pinlet","name":"Restaurang Wok One Vietnamesisk Food","opening_hours":{"open_now":true},"photos":[{"height":2268,"html_attributions":["<a href=\"https://maps.google.com/maps/contrib/100594638047581263823\">Jan Johansson</a>"],"photo_reference":"AeJbb3dW0hdHU0KwTl9o5DDKcb5W77ad5XVBSgWvQbR3iOaOOq9rflYLZNtTZREhqXV3DqSY-o9y8MZ-jA_CYiOKMOBRhyN2KkX8jglV2724Kd6Mtk6FzKnDCVnyJ_NarFLw3mMB7BOnHMUq-aAutpfupx9PlW_PCyHBlDzpxPFNtfU-FzSH","width":4032}],"place_id":"ChIJ5f61b3F4X0YRW9vzkbdwQYs","plus_code":{"compound_code":"845P+8V Stockholm","global_code":"9FFW845P+8V"},"rating":4.3,"reference":"ChIJ5f61b3F4X0YRW9vzkbdwQYs","types":["restaurant","food","point_of_interest","establishment"],"user_ratings_total":72},{"business_status":"OPERATIONAL","formatted_address":"Kajplats 301, Norra Hammarbyhamnen, 116 41 Stockholm","geometry":{"location":{"lat":59.30439250000001,"lng":18.0818302},"viewport":{"northeast":{"lat":59.30598547989273,"lng":18.08368675},"southwest":{"lat":59.30328582010728,"lng":18.08037855}}},"icon":"https://maps.gstatic.com/mapfiles/place_api/icons/v1/png_71/restaurant-71.png","icon_background_color":"#FF9E67","icon_mask_base_uri":"https://maps.gstatic.com/mapfiles/place_api/icons/v2/restaurant_pinlet","name":"ThaiBoat","opening_hours":{"open_now":true},"photos":[{"height":3024,"html_attributions":["<a href=\"https://maps.google.com/maps/contrib/109253316936269412053\">Klim Levene</a>"],"photo_reference":"AeJbb3cplp39v5FKiNXDw7_dFMaLviIz9EriEBWau__F3MbSjCZjVsaUcafxWOn6IFC0i_JOKygyaow6tUoi1jeeeL388EHmdlkVzoHkbkXy0L54csBtKTHSWjsarGIdPThfM_8MVyYfflZqBDU8FNasxWoyOwXVkuOH4pbX4_hxkqvGxotP","width":4032}],"place_id":"ChIJ0x2xKB54X0YRkSrvuDqo378","plus_code":{"compound_code":"833J+QP Stockholm","global_code":"9FFW833J+QP"},"price_level":2,"rating":4.2,"reference":"ChIJ0x2xKB54X0YRkSrvuDqo378","types":["bar","restaurant","food","point_of_interest","establishment"],"user_ratings_total":2496},{"business_status":"OPERATIONAL","formatted_address":"Jakobsbergsgatan 15, 111 44 Stockholm","geometry":{"location":{"lat":59.33471659999999,"lng":18.0692986},"viewport":{"northeast":{"lat":59.33579712989272,"lng":18.07020987989272},"southwest":{"lat":59.33309747010727,"lng":18.06751022010728}}},"icon":"https://maps.gstatic.com/mapfiles/place_api/icons/v1/png_71/restaurant-71.png","icon_background_color":"#FF9E67","icon_mask_base_uri":"https://maps.gstatic.com/mapfiles/place_api/icons/v2/restaurant_pinlet","name":"Restaurant Waipo","opening_hours":{"open_now":true},"photos":[{"height":3648,"html_attributions":["<a href=\"https://maps.google.com/maps/contrib/109499716581518045530\">Cindy Laserna</a>"],"photo_reference":"AeJbb3d03xyAfNeduOMbgNwGYJyFppwnyOyAFD1kVCtZRFSi-0N8Hw-38B8xyj-3e3D34ZvZkzHOHQaeryJQpn0F4BCVrYAgS_PC-uhJYZk1h0b-s1fyhmZdJg87UINLCCOxyx5Wkn-MVWP9O_VI8enL1oqWLVVjkjQH_xKAzeQKySACgNZx","width":2736}],"place_id":"ChIJ_Y-B-F6dX0YRWhxVAdThwNM","plus_code":{"compound_code":"83M9+VP Stockholm","global_code":"9FFW83M9+VP"},"price_level":2,"rating":4.2,"reference":"ChIJ_Y-B-F6dX0YRWhxVAdThwNM","types":["restaurant","food","point_of_interest","establishment"],"user_ratings_total":1258},{"business_status":"OPERATIONAL","formatted_address":"Vasagatan 12, 111 20 Stockholm","geometry":{"location":{"lat":59.3298291,"lng":18.0606254},"viewport":{"northeast":{"lat":59.33107192989273,"lng":18.06181872989272},"southwest":{"lat":59.32837227010728,"lng":18.05911907010728}}},"icon":"https://maps.gstatic.com/mapfiles/place_api/icons/v1/png_71/restaurant-71.png","icon_background_color":"#FF9E67","icon_mask_base_uri":"https://maps.gstatic.com/mapfiles/place_api/icons/v2/restaurant_pinlet","name":"Panda","opening_hours":{"open_now":true},"photos":[{"height":2268,"html_attributions":["<a href=\"https://maps.google.com/maps/contrib/105695980755150957336\">Aivis Vidins</a>"],"photo_reference":"AeJbb3e_0xD2NQs6ddQWz_35j5ih7RMAnXpZTtZGykBLH0oDOv_qBjm4HwXqHo0k-6G5WeQGCskp_L5N0kUtY_Lsji7QEXlQRWgj5bAdMDEhEmorTIw_Mt9y_vUB-VKjL7V31FHBD1mstEcfqiixAjfWocj5O1mU23xgKVI0r46beK0GR89m","width":4032}],"place_id":"ChIJHUxaxV-dX0YRWr9BiVfZTE8","plus_code":{"compound_code":"83H6+W7 Stockholm","global_code":"9FFW83H6+W7"},"price_level":2,"rating":4.2,"reference":"ChIJHUxaxV-dX0YRWr9BiVfZTE8","types":["restaurant","food","point_of_interest","establishment"],"user_ratings_total":444},{"business_status":"OPERATIONAL","formatted_address":"Fleminggatan 60, 112 45 Stockholm","geometry":{"location":{"lat":59.3350279,"lng":18.0293612},"viewport":{"northeast":{"lat":59.33630387989272,"lng":18.03067407989272},"southwest":{"lat":59.33360422010727,"lng":18.02797442010728}}},"icon":"https://maps.gstatic.com/mapfiles/place_api/icons/v1/png_71/restaurant-71.png","icon_background_color":"#FF9E67","icon_mask_base_uri":"https://maps.gstatic.com/mapfiles/place_api/icons/v2/restaurant_pinlet","name":"Nha Trang Restaurant","opening_hours":{"open_now":true},"photos":[{"height":2976,"html_attributions":["<a href=\"https://maps.google.com/maps/contrib/108132879526181309578\">Gracine Longpeng</a>"],"photo_reference":"AeJbb3f-sMDT-C-KE4-b2svmF4JUr2uTJdHkSwKx2aDSF3E0sUXf3IylEa7-2ROJjG-bLPSzP9NheuqoSAMIwv35iSV7xVFEW2BIIQgoVP6acoAGEaLizjU-A703pheb5TJPLizLaIANXOU8jGpaz4wVGVUwP3dWxceX6PUbN9SaRibIenNc","width":3968}],"place_id":"ChIJQ6NX9X6dX0YR-QFBHxXXm7s","plus_code":{"compound_code":"82PH+2P Stockholm","global_code":"9FFW82PH+2P"},"price_level":2,"rating":4.2,"reference":"ChIJQ6NX9X6dX0YR-QFBHxXXm7s","types":["restaurant","food","point_of_interest","establishment"],"user_ratings_total":425},{"business_status":"OPERATIONAL","formatted_address":"Garagevägen 34, 121 30 Enskededalen","geometry":{"location":{"lat":59.2897911,"lng":18.0957031},"viewport":{"northeast":{"lat":59.29104432989271,"lng":18.09692892989272},"southwest":{"lat":59.28834467010726,"lng":18.09422927010728}}},"icon":"https://maps.gstatic.com/mapfiles/place_api/icons/v1/png_71/restaurant-71.png","icon_background_color":"#FF9E67","icon_mask_base_uri":"https://maps.gstatic.com/mapfiles/place_api/icons/v2/restaurant_pinlet","name":"Ông Vietnam","opening_hours":{"open_now":true},"photos":[{"height":3464,"html_attributions":["<a href=\"https://maps.google.com/maps/contrib/109946406670459143357\">Tahvo Jauhojärvi</a>"],"photo_reference":"AeJbb3fBeNDAFcMXloD1zhNiy8PEOx1VwrmnexArXgaAh-x9xlfA5PvkaUujbxNtt7hcTrpjf3ND489uxodfPplQ_uEwzBqMsvNGqeoP6qKE_V-lr5x0bH1SIkDm-VHeikCXtNJUqxDo4O7RIteIJmhOP-ubGzb_d9f9XN2RSEU3ABO7zwc7","width":4618}],"place_id":"ChIJ73RTKmF5X0YRA2bTAeYDN1Q","plus_code":{"compound_code":"73QW+W7 Stockholm","global_code":"9FFW73QW+W7"},"price_level":2,"rating":4.2,"reference":"ChIJ73RTKmF5X0YRA2bTAeYDN1Q","types":["restaurant","food","point_of_interest","establishment"],"user_ratings_total":248},{"business_status":"OPERATIONAL","formatted_address":"Gribbylunds torg 8A, 187 65 Täby","geometry":{"location":{"lat":59.4624037,"lng":18.0907831},"viewport":{"northeast":{"lat":59.46366027989273,"lng":18.09148462989272},"southwest":{"lat":59.46096062010729,"lng":18.08878497010728}}},"icon":"https://maps.gstatic.com/mapfiles/place_api/icons/v1/png_71/restaurant-71.png","icon_background_color":"#FF9E67","icon_mask_base_uri":"https://maps.gstatic.com/mapfiles/place_api/icons/v2/restaurant_pinlet","name":"Restaurang Changsha","opening_hours":{"open_now":true},"photos":[{"height":2988,"html_attributions":["<a href=\"https://maps.google.com/maps/contrib/113475062145955421155\">Håkan Amsberg</a>"],"photo_reference":"AeJbb3eYoArDHnCMu2BjoLnnPiHZWLAQsmN53KV8IbhTiq5OWLwbq2j_HHKqt9YDXbdTvz8kNZ22dQMDAXWd8WVAXUQ8uURe11O8QBAHO3KKYm796HZHe5bdffTEGdcLshKdNPrLRrWvRjpM4R3ZQNcUuaY1Fi9WSesIoSg9n_nGt-9OMEnM","width":5312}],"place_id":"ChIJY3gtTbKbX0YRZONnOsayKGk","plus_code":{"compound_code":"F36R+X8 Täby","global_code":"9FFWF36R+X8"},"price_level":2,"rating":4.2,"reference":"ChIJY3gtTbKbX0YRZONnOsayKGk","types":["restaurant","food","point_of_interest","establishment"],"user_ratings_total":202},{"business_status":"OPERATIONAL","formatted_address":"Mäster Samuelsgatan 39, 111 57 Stockholm","geometry":{"location":{"lat":59.33363199999999,"lng":18.0657346},"viewport":{"northeast":{"lat":59.33502522989273,"lng":18.06704632989272},"southwest":{"lat":59.33232557010729,"lng":18.06434667010728}}},"icon":"https://maps.gstatic.com/mapfiles/place_api/icons/v1/png_71/restaurant-71.png","icon_background_color":"#FF9E67","icon_mask_base_uri":"https://maps.gstatic.com/mapfiles/place_api/icons/v2/restaurant_pinlet","name":"CHiÔi","opening_hours":{"open_now":true},"photos":[{"height":3468,"html_attributions":["<a href=\"https://maps.google.com/maps/contrib/110701414312349467245\">Kikwang Lee</a>"],"photo_reference":"AeJbb3f3BrIYjTAuwAsgTJfLLqm6ZAWZINk2iWOjs89chHjPLm3ibsazdkRwlKIW7fS7_yknuGcxhpQfC4V6jk2CDoDgh6Jvi_rQ7eiTCWuBsxm_F3-wHKMiqZUaIz3geKw7boSmYAqnuDklEsGGnu5sB6h3zLVEFU314sCcirrpVG9XiiNK","width":4624}],"place_id":"ChIJe504tBKdX0YRYOswAmFTlDI","plus_code":{"compound_code":"83M8+F7 Stockholm","global_code":"9FFW83M8+F7"},"rating":4.2,"reference":"ChIJe504tBKdX0YRYOswAmFTlDI","types":["restaurant","food","bar","point_of_interest","establishment"],"user_ratings_total":142},{"business_status":"OPERATIONAL","formatted_address":"SOLNA TORG 22B, 171 45 Solna","geometry":{"location":{"lat":59.35928380000001,"lng":18.0010332},"viewport":{"northeast":{"lat":59.36032902989272,"lng":18.00252992989272},"southwest":{"lat":59.35762937010728,"lng":17.99983027010727}}},"icon":"https://maps.gstatic.com/mapfiles/place_api/icons/v1/png_71/restaurant-71.png","icon_background_color":"#FF9E67","icon_mask_base_uri":"https://maps.gstatic.com/mapfiles/place_api/icons/v2/restaurant_pinlet","name":"Mama Viet","opening_hours":{"open_now":true},"photos":[{"height":3456,"html_attributions":["<a href=\"https://maps.google.com/maps/contrib/116447889134439333945\">jueli chen</a>"],"photo_reference":"AeJbb3eoofR9K6RubXQILAj9NSYQk2oDltBqILpyi_XOWRctsxLmj3tOpOPl4mzmEJodNofe0DrdjyF4u_a8ducoSPeYdPESVwnC0PFWl5p1HVdIb9AVwOIBa67penPISUjoc165uwQSEDDwcpIBSI152jilEXYWrDoODcvLbIz8AJrPPVc9","width":4608}],"place_id":"ChIJJ4cIV4adX0YRms2wlBFEB8c","plus_code":{"compound_code":"9252+PC Solna","global_code":"9FFW9252+PC"},"rating":4.2,"reference":"ChIJJ4cIV4adX0YRms2wlBFEB8c","types":["restaurant","food","point_of_interest","establishment"],"user_ratings_total":136},{"business_status":"OPERATIONAL","formatted_address":"Storängstorget 3, 115 44 Stockholm","geometry":{"location":{"lat":59.35371569999999,"lng":18.0881425},"viewport":{"northeast":{"lat":59.35509197989272,"lng":18.08970797989272},"southwest":{"lat":59.35239232010727,"lng":18.08700832010727}}},"icon":"https://maps.gstatic.com/mapfiles/place_api/icons/v1/png_71/restaurant-71.png","icon_background_color":"#FF9E67","icon_mask_base_uri":"https://maps.gstatic.com/mapfiles/place_api/icons/v2/restaurant_pinlet","name":"Bamboo Asia","opening_hours":{"open_now":true},"photos":[{"height":2160,"html_attributions":["<a href=\"https://maps.google.com/maps/contrib/108792343106522847800\">Ronnie Eriksson</a>"],"photo_reference":"AeJbb3fx348HOW6XzXul0F4rwtk4OPkQpGH4IFW1d5XTu_TRu83iN43BbwyL-GGQ7PO1cAEacX6YzkD9eY1v-gFamY_4VkR45-hE0qcqDSa9bRS-EWkahGPQBi8KoIeeKsrGxmbOJl2wAUE_B-vonSGq-MLTy4MX8-XqVIgqkRaZddrhO2HD","width":3840}],"place_id":"ChIJ-bPP_judX0YRfPEWTJZHRpU","plus_code":{"compound_code":"933Q+F7 Stockholm","global_code":"9FFW933Q+F7"},"price_level":2,"rating":4.2,"reference":"ChIJ-bPP_judX0YRfPEWTJZHRpU","types":["restaurant","food","point_of_interest","establishment"],"user_ratings_total":131},{"business_status":"OPERATIONAL","formatted_address":"Smålandsgatan 3, 111 44 Stockholm","geometry":{"location":{"lat":59.33340999999999,"lng":18.0701514},"viewport":{"northeast":{"lat":59.33482002989273,"lng":18.07145817989272},"southwest":{"lat":59.33212037010728,"lng":18.06875852010728}}},"icon":"https://maps.gstatic.com/mapfiles/place_api/icons/v1/png_71/restaurant-71.png","icon_background_color":"#FF9E67","icon_mask_base_uri":"https://maps.gstatic.com/mapfiles/place_api/icons/v2/restaurant_pinlet","name":"Saigon Stories","opening_hours":{"open_now":false},"photos":[{"height":2048,"html_attributions":["<a href=\"https://maps.google.com/maps/contrib/109653902534377152967\">Leo Kia</a>"],"photo_reference":"AeJbb3fTU3h1wVZtLdhtLZoZRHSua55ONc-_UR0CwoALNHyPPQECOw660y6Kyyw9IMZ-T6f0_SQoW5YsMMjUeA4XKSl9AkQO_3n3RWP6a0yy6TjnCfFz68PoWJeeBHF-wXcFjuMr4HZqXb9iSA0AJ9CGMM38fy-NVvXKA7rBIGzRwCihmN-P","width":1152}],"place_id":"ChIJFzbiw9udX0YRBUcSoV384JY","plus_code":{"compound_code":"83MC+93 Stockholm","global_code":"9FFW83MC+93"},"rating":4.2,"reference":"ChIJFzbiw9udX0YRBUcSoV384JY","types":["restaurant","food","point_of_interest","establishment"],"user_ratings_total":111},{"business_status":"OPERATIONAL","formatted_address":"Östermalmstorg 16, 114 39 Stockholm","geometry":{"location":{"lat":59.3347892,"lng":18.0776336},"viewport":{"northeast":{"lat":59.33615287989272,"lng":18.07891482989272},"southwest":{"lat":59.33345322010727,"lng":18.07621517010728}}},"icon":"https://maps.gstatic.com/mapfiles/place_api/icons/v1/png_71/restaurant-71.png","icon_background_color":"#FF9E67","icon_mask_base_uri":"https://maps.gstatic.com/mapfiles/place_api/icons/v2/restaurant_pinlet","name":"Rice","opening_hours":{"open_now":true},"photos":[{"height":4160,"html_attributions":["<a href=\"https://maps.google.com/maps/contrib/106761357002002816160\">Vladimir Khokhlov</a>"],"photo_reference":"AeJbb3daPhWdJ9h54m26ibLbz474zaO6j_z0JCuhvBYgampffGLGCbifg-WQuxiLlu39F9bV8Jo_q1GDGyT9rOcS6hFFreks_VkwVyiQR5bg0zEhvK8qv0QOk_Yg6byZQbhIHWA3Sw_pv-sod2P8nljW3USMb7Y2MDv3BfFJzEyQshLmQEDI","width":2340}],"place_id":"ChIJkYdRA1udX0YRcBzxNaS__tA","plus_code":{"compound_code":"83MH+W2 Stockholm","global_code":"9FFW83MH+W2"},"price_level":2,"rating":4.1,"reference":"ChIJkYdRA1udX0YRcBzxNaS__tA","types":["restaurant","food","point_of_interest","establishment"],"user_ratings_total":1126},{"business_status":"OPERATIONAL","formatted_address":"Konsumentvägen 1, 192 68 Sollentuna","geometry":{"location":{"lat":59.47050909999999,"lng":17.9170977},"viewport":{"northeast":{"lat":59.47188067989271,"lng":17.91829912989272},"southwest":{"lat":59.46918102010727,"lng":17.91559947010728}}},"icon":"https://maps.gstatic.com/mapfiles/place_api/icons/v1/png_71/restaurant-71.png","icon_background_color":"#FF9E67","icon_mask_base_uri":"https://maps.gstatic.com/mapfiles/place_api/icons/v2/restaurant_pinlet","name":"ChopChop Asian Express","opening_hours":{"open_now":true},"photos":[{"height":2268,"html_attributions":["<a href=\"https://maps.google.com/maps/contrib/104194499989883217697\">A Google User</a>"],"photo_reference":"AeJbb3eGXWsNOyNxGuuZqpZTS7JLSzvS8zIHM8KGYF_fVwrEf167K_CQBfAArJIgifAHGKcxr_Qf-XEYmMZ5uQFr1yNLxVP-gQeQihllpU5cFJvvVaNgBh2IEboQM3DyyUj5bDQG-CFBg83fH9IqKCHTzlZrPbdTIIpKWK7_dmpqZWu7bD-u","width":4032}],"place_id":"ChIJs13lMuuYX0YRFNvblXyFgyI","plus_code":{"compound_code":"FWC8+6R Sollentuna","global_code":"9FFVFWC8+6R"},"price_level":2,"rating":4.1,"reference":"ChIJs13lMuuYX0YRFNvblXyFgyI","types":["restaurant","food","point_of_interest","establishment"],"user_ratings_total":631},{"business_status":"OPERATIONAL","formatted_address":"Sankt Eriksgatan 97, 113 31 Stockholm","geometry":{"location":{"lat":59.3434962,"lng":18.0386831},"viewport":{"northeast":{"lat":59.34482627989273,"lng":18.04018532989272},"southwest":{"lat":59.34212662010729,"lng":18.03748567010728}}},"icon":"https://maps.gstatic.com/mapfiles/place_api/icons/v1/png_71/restaurant-71.png","icon_background_color":"#FF9E67","icon_mask_base_uri":"https://maps.gstatic.com/mapfiles/place_api/icons/v2/restaurant_pinlet","name":"Little China","opening_hours":{"open_now":true},"photos":[{"height":4032,"html_attributions":["<a href=\"https://maps.google.com/maps/contrib/113907574220535720891\">A Google User</a>"],"photo_reference":"AeJbb3emJx22ncOeoMV4mqcrRMZcz5YgBO141NMA8TSzipugv22-c3LJwd80vz04s_t7SzefaR5OYDZipafAibrL_sh8oPAcknpUYlqZKgy96rSDknybZjJVEhIJ3fhrMwc1yLu7JIMTBz3hL0VL_5a37S6ynhXpDlS9lLIZP1VPm6JLECch","width":3024}],"place_id":"ChIJ9540snCdX0YRAICwR1eOVjY","plus_code":{"compound_code":"82VQ+9F Stockholm","global_code":"9FFW82VQ+9F"},"price_level":2,"rating":4.1,"reference":"ChIJ9540snCdX0YRAICwR1eOVjY","types":["restaurant","food","point_of_interest","establishment"],"user_ratings_total":380},{"business_status":"OPERATIONAL","formatted_address":"Långholmsgatan 9B, 117 33 Stockholm","geometry":{"location":{"lat":59.3173148,"lng":18.033178},"viewport":{"northeast":{"lat":59.31864517989272,"lng":18.03438402989271},"southwest":{"lat":59.31594552010728,"lng":18.03168437010727}}},"icon":"https://maps.gstatic.com/mapfiles/place_api/icons/v1/png_71/restaurant-71.png","icon_background_color":"#FF9E67","icon_mask_base_uri":"https://maps.gstatic.com/mapfiles/place_api/icons/v2/restaurant_pinlet","name":"LEMON&CHILI (Wok & Dumpling)","opening_hours":{"open_now":true},"photos":[{"height":8064,"html_attributions":["<a href=\"https://maps.google.com/maps/contrib/110876707615109036819\">Biaoquan Zhang</a>"],"photo_reference":"AeJbb3ecHtlkGGJFxzSDJiNVoUIlczWTyxc6YHHBLEXhpRnYObxMmoJNqUUcUJwDDQC23SwXbRMMsNF2828RbVfjE8-ydSPPmwAXax9FpFZa0b8EAOGpwKLXsmPGHWnlwRz72C2PJxDCd4jJA5KAs5jW0pfjzA46Q09QGtL7lYbQheaoBk7U","width":6048}],"place_id":"ChIJky5JBcV3X0YR4hA6b-WJ8js","plus_code":{"compound_code":"828M+W7 Stockholm","global_code":"9FFW828M+W7"},"price_level":1,"rating":4.1,"reference":"ChIJky5JBcV3X0YR4hA6b-WJ8js","types":["cafe","restaurant","food","point_of_interest","establishment"],"user_ratings_total":209},{"business_status":"OPERATIONAL","formatted_address":"Tidaholmsplan 21, 121 48 Johanneshov","geometry":{"location":{"lat":59.2941098,"lng":18.1029553},"viewport":{"northeast":{"lat":59.29545002989271,"lng":18.10415502989272},"southwest":{"lat":59.29275037010726,"lng":18.10145537010727}}},"icon":"https://maps.gstatic.com/mapfiles/place_api/icons/v1/png_71/restaurant-71.png","icon_background_color":"#FF9E67","icon_mask_base_uri":"https://maps.gstatic.com/mapfiles/place_api/icons/v2/restaurant_pinlet","name":"Lampans Thai-Food","opening_hours":{"open_now":true},"photos":[{"height":2160,"html_attributions":["<a href=\"https://maps.google.com/maps/contrib/110897991821814037647\">William Macdonald</a>"],"photo_reference":"AeJbb3eN73UyBuWIL1rmUiJ8kx3hbL_p2_FjsQ1kF8N4WqKF5UimLpHZl50Q7gVXDZ0AzH6DbsYRSo0V3PPLOPCKhCrKeJJqMDuaM6RW9v_TRw07H3ZAMFzmynQpNA_emG6osE85EaOWfZolFgpZ9h8wvgQGilGSktVMy7B2J3nJjZZ6FUuI","width":3840}],"place_id":"ChIJ58wVMTx4X0YRt4GsQ0ptsic","plus_code":{"compound_code":"74V3+J5 Stockholm","global_code":"9FFW74V3+J5"},"price_level":2,"rating":4.1,"reference":"ChIJ58wVMTx4X0YRt4GsQ0ptsic","types":["restaurant","food","point_of_interest","establishment"],"user_ratings_total":196},{"business_status":"OPERATIONAL","formatted_address":"Manhemsgatan 4, 126 49 Hägersten","geometry":{"location":{"lat":59.3056578,"lng":17.9981901},"viewport":{"northeast":{"lat":59.30722107989271,"lng":17.99951217989272},"southwest":{"lat":59.30452142010727,"lng":17.99681252010728}}},"icon":"https://maps.gstatic.com/mapfiles/place_api/icons/v1/png_71/restaurant-71.png","icon_background_color":"#FF9E67","icon_mask_base_uri":"https://maps.gstatic.com/mapfiles/place_api/icons/v2/restaurant_pinlet","name":"Saigon House","opening_hours":{"open_now":true},"photos":[{"height":3024,"html_attributions":["<a href=\"https://maps.google.com/maps/contrib/111755585697969388257\">Shardul Kulkarni</a>"],"photo_reference":"AeJbb3fmPRClgFW2Q20alUKXmSnyQISa6peQBkmdZbrgEbRT0xVAiK1urHeI8N5_0l0DxGDhr6Ze9u7pzFlFpn5QykA6s4WGXAeFFRDzlcbC8m69bI2UpKuDmJw0AxBGHI1AReEUI4y-oITFb_dI7_ztaeiN6q5mqVHuYpXiaMm3hGv1herG","width":4032}],"place_id":"ChIJWx6ju0x2X0YRtQ1ZE8tw7vY","plus_code":{"compound_code":"8X4X+77 Stockholm","global_code":"9FFV8X4X+77"},"price_level":2,"rating":4.1,"reference":"ChIJWx6ju0x2X0YRtQ1ZE8tw7vY","types":["restaurant","food","point_of_interest","establishment"],"user_ratings_total":181},{"business_status":"OPERATIONAL","formatted_address":"Kungsgatan 25, 111 56 Stockholm","geometry":{"location":{"lat":59.3357624,"lng":18.0673402},"viewport":{"northeast":{"lat":59.33721017989271,"lng":18.06867267989272},"southwest":{"lat":59.33451052010727,"lng":18.06597302010728}}},"icon":"https://maps.gstatic.com/mapfiles/place_api/icons/v1/png_71/restaurant-71.png","icon_background_color":"#FF9E67","icon_mask_base_uri":"https://maps.gstatic.com/mapfiles/place_api/icons/v2/restaurant_pinlet","name":"YOI - K25","opening_hours":{"open_now":true},"photos":[{"height":2988,"html_attributions":["<a href=\"https://maps.google.com/maps/contrib/114368198820980157499\">Erika Kimura</a>"],"photo_reference":"AeJbb3feI9BsXn2jCGNewSrTELMGh49wh_bRtXg748u_4nvG33BOPl82ISlYHZNYhfiHdhxJZFEC5rAJQFiY8me_02ONcwuS_wx0pTWDPpOW2H9EwdMF1PdBaAullvAt9TCjJI2_-pVrl7jHt4-6VGBX25ortAPQ-yZIwVfXFec9ds5ZzBim","width":5312}],"place_id":"ChIJO52RCF2dX0YReR523Kv2Nu4","plus_code":{"compound_code":"83P8+8W Stockholm","global_code":"9FFW83P8+8W"},"rating":4.1,"reference":"ChIJO52RCF2dX0YReR523Kv2Nu4","types":["restaurant","food","point_of_interest","establishment"],"user_ratings_total":132},{"business_status":"OPERATIONAL","formatted_address":"Tellusgången 27, 126 26 Hägersten","geometry":{"location":{"lat":59.2987137,"lng":17.990774},"viewport":{"northeast":{"lat":59.30013297989273,"lng":17.99209137989272},"southwest":{"lat":59.29743332010729,"lng":17.98939172010728}}},"icon":"https://maps.gstatic.com/mapfiles/place_api/icons/v1/png_71/restaurant-71.png","icon_background_color":"#FF9E67","icon_mask_base_uri":"https://maps.gstatic.com/mapfiles/place_api/icons/v2/restaurant_pinlet","name":"Viet Bistro Telefonplan","opening_hours":{"open_now":true},"photos":[{"height":834,"html_attributions":["<a href=\"https://maps.google.com/maps/contrib/113314560213747899845\">A Google User</a>"],"photo_reference":"AeJbb3c9puabpHMwFCKbW8Fb3PurpsVDR2KenSQhgdF-X7DwBBNiIv51KtSSHxrx_HVNjKiXzDIKQ0jwGdEkMNX44a-CgVkbfF0E_uIHCshfMpwYaOVEDrj9ulNDhZNJu_bfFYTaKOnE_aXaGNqzMWfbvwNnevGEmL3D73xw3iRwc5nbljZw","width":960}],"place_id":"ChIJF_asb4F3X0YRlS_EpK_38fI","plus_code":{"compound_code":"7XXR+F8 Stockholm","global_code":"9FFV7XXR+F8"},"rating":4.1,"reference":"ChIJF_asb4F3X0YRlS_EpK_38fI","types":["restaurant","food","point_of_interest","establishment"],"user_ratings_total":102},{"business_status":"OPERATIONAL","formatted_address":"Norra Stationsgatan 60, 113 65 Stockholm","geometry":{"location":{"lat":59.3482554,"lng":18.0383842},"viewport":{"northeast":{"lat":59.34952267989271,"lng":18.03980537989272},"southwest":{"lat":59.34682302010727,"lng":18.03710572010728}}},"icon":"https://maps.gstatic.com/mapfiles/place_api/icons/v1/png_71/restaurant-71.png","icon_background_color":"#FF9E67","icon_mask_base_uri":"https://maps.gstatic.com/mapfiles/place_api/icons/v2/restaurant_pinlet","name":"Dubbel Dubbel","opening_hours":{"open_now":true},"photos":[{"height":3024,"html_attributions":["<a href=\"https://maps.google.com/maps/contrib/112430476248153802711\">A Google User</a>"],"photo_reference":"AeJbb3cuRozy_jruO1VCY8h3aD7Ud3O24A0eba-nI2XP0jk7_oJorKDqjfnJjkaJs4eCGwgq6f6KRiAeGSaayx6cj5dc1yGxpturq9ZIL_tb70dk53sw_kUVxcVVYCKDSZhSaDFsTLCMdeRnIrnGhfwupNgpl9hFPkyVmsjb05BRj1IyJRU2","width":4032}],"place_id":"ChIJTxjNBXCdX0YRXw9st-o2EzU","plus_code":{"compound_code":"82XQ+78 Stockholm","global_code":"9FFW82XQ+78"},"rating":4.1,"reference":"ChIJTxjNBXCdX0YRXw9st-o2EzU","types":["restaurant","food","point_of_interest","establishment"],"user_ratings_total":83},{"business_status":"OPERATIONAL","formatted_address":"Sveavägen 35, 111 34 Stockholm","geometry":{"location":{"lat":59.3369808,"lng":18.061806},"viewport":{"northeast":{"lat":59.33835242989272,"lng":18.06323952989272},"southwest":{"lat":59.33565277010728,"lng":18.06053987010728}}},"icon":"https://maps.gstatic.com/mapfiles/place_api/icons/v1/png_71/restaurant-71.png","icon_background_color":"#FF9E67","icon_mask_base_uri":"https://maps.gstatic.com/mapfiles/place_api/icons/v2/restaurant_pinlet","name":"Asahi Fondue & Grill","opening_hours":{"open_now":true},"photos":[{"height":3024,"html_attributions":["<a href=\"https://maps.google.com/maps/contrib/118414151365095341497\">Reino Nellerup</a>"],"photo_reference":"AeJbb3erNNORTTXCjgi-rIILouq2qP5pRxW6E6yqoLQDNZyALEwoX2nHLS2QfmdaOxe2K2bk6Y2sGI4jAkZ0kCYjNsuRrJpbsnx9wbnv8Bg5KvWlHtBJPS7ifpOYi2kMwccL9nyZVlYsDddf88vaY5foAPpcUvZuMlERLKlFmZ4e2iIiU6m0","width":4032}],"place_id":"ChIJxx8YvWedX0YRUU2VVSkAmxQ","plus_code":{"compound_code":"83P6+QM Stockholm","global_code":"9FFW83P6+QM"},"price_level":2,"rating":4,"reference":"ChIJxx8YvWedX0YRUU2VVSkAmxQ","types":["restaurant","food","point_of_interest","establishment"],"user_ratings_total":1290},{"business_status":"OPERATIONAL","formatted_address":"Berzelii park 9, 111 47 Stockholm","geometry":{"location":{"lat":59.3325748,"lng":18.0731314},"viewport":{"northeast":{"lat":59.33387037989271,"lng":18.07471712989272},"southwest":{"lat":59.33117072010727,"lng":18.07201747010728}}},"icon":"https://maps.gstatic.com/mapfiles/place_api/icons/v1/png_71/restaurant-71.png","icon_background_color":"#FF9E67","icon_mask_base_uri":"https://maps.gstatic.com/mapfiles/place_api/icons/v2/restaurant_pinlet","name":"Berns Asiatiska","opening_hours":{"open_now":true},"photos":[{"height":3000,"html_attributions":["<a href=\"https://maps.google.com/maps/contrib/109880708181441319011\">Burju İleri</a>"],"photo_reference":"AeJbb3fyFHNxsKleFSyr7G4LvLGjMaKLk2IzRt4UJyzMmmI-dWfM5THOgD4EvyttcukZ2_lVS2XYxu_9mlL3UV26wdxlrDP0StdmSp1Uk9LoEEYWIBOLnQwBfSeqwRrU09pyUP-qXHuW3M1tOKlOF8JyYW1Te_D37oRkPe3oh9ZAuZZ41BkH","width":5333}],"place_id":"ChIJ-3FB7FudX0YRr90pQazajiM","plus_code":{"compound_code":"83MF+27 Stockholm","global_code":"9FFW83MF+27"},"price_level":3,"rating":4,"reference":"ChIJ-3FB7FudX0YRr90pQazajiM","types":["bar","restaurant","food","point_of_interest","establishment"],"user_ratings_total":1212},{"business_status":"OPERATIONAL","formatted_address":"Pajalagatan 50, 162 65 Vällingby","geometry":{"location":{"lat":59.36368179999999,"lng":17.8722674},"viewport":{"northeast":{"lat":59.36505812989272,"lng":17.87339522989272},"southwest":{"lat":59.36235847010727,"lng":17.87069557010728}}},"icon":"https://maps.gstatic.com/mapfiles/place_api/icons/v1/png_71/restaurant-71.png","icon_background_color":"#FF9E67","icon_mask_base_uri":"https://maps.gstatic.com/mapfiles/place_api/icons/v2/restaurant_pinlet","name":"Umi & Chao","opening_hours":{"open_now":true},"photos":[{"height":3000,"html_attributions":["<a href=\"https://maps.google.com/maps/contrib/104388580702301344871\">Ricard Fredin</a>"],"photo_reference":"AeJbb3dHR5K3w7meG4xn3R9Sq2R0MWsd2VNdN-bpz_cCFJq82E-O5zjOZx5CNjmghwPlF4jDmz6fyVMOZRwmDM7sSHMuChr9Jmo4s-5JQ4vbOPyl_CsO3Tm7_KMTJEru4eQHCEOKxy5TMGCXtBm3CY5abPoJ3NfX69lfHMe22vaTybj3cK_p","width":4000}],"place_id":"ChIJZ3QDVNKfX0YRbtsEdR_pAG8","plus_code":{"compound_code":"9V7C+FW Stockholm","global_code":"9FFV9V7C+FW"},"price_level":2,"rating":4,"reference":"ChIJZ3QDVNKfX0YRbtsEdR_pAG8","types":["restaurant","food","point_of_interest","establishment"],"user_ratings_total":737},{"business_status":"OPERATIONAL","formatted_address":"Siroccogatan 8, 131 34 Nacka","geometry":{"location":{"lat":59.3052217,"lng":18.127561},"viewport":{"northeast":{"lat":59.30654267989272,"lng":18.12892322989272},"southwest":{"lat":59.30384302010728,"lng":18.12622357010728}}},"icon":"https://maps.gstatic.com/mapfiles/place_api/icons/v1/png_71/restaurant-71.png","icon_background_color":"#FF9E67","icon_mask_base_uri":"https://maps.gstatic.com/mapfiles/place_api/icons/v2/restaurant_pinlet","name":"Restaurang Minh","opening_hours":{"open_now":true},"photos":[{"height":3000,"html_attributions":["<a href=\"https://maps.google.com/maps/contrib/117953617666225360306\">Abhishek Saha</a>"],"photo_reference":"AeJbb3fHvZpXb_ou1a3K0U0c2MBiCPJ5kAMVid8gKIED1rf0qi-cHD-oQobJfNwMJZv3Ksdxio_Vwe0RmbJJbhKHwxkYq_5uNwex32Ij7hcjPur9HCr8vnVYxOzBXjV8IFkaTd4OpgBLUxXaY7t_qZvJTSlb_6hMFeqkqdIbYjtIcpdI_1_1","width":4000}],"place_id":"ChIJxdSOvBJ4X0YRSHX2gus73co","plus_code":{"compound_code":"844H+32 Stockholm","global_code":"9FFW844H+32"},"price_level":2,"rating":4,"reference":"ChIJxdSOvBJ4X0YRSHX2gus73co","types":["restaurant","food","point_of_interest","establishment"],"user_ratings_total":239},{"business_status":"OPERATIONAL","formatted_address":"Stureplan 13, 111 45 Stockholm","geometry":{"location":{"lat":59.3357226,"lng":18.0724828},"viewport":{"northeast":{"lat":59.33707537989271,"lng":18.07396282989272},"southwest":{"lat":59.33437572010727,"lng":18.07126317010728}}},"icon":"https://maps.gstatic.com/mapfiles/place_api/icons/v1/png_71/restaurant-71.png","icon_background_color":"#FF9E67","icon_mask_base_uri":"https://maps.gstatic.com/mapfiles/place_api/icons/v2/restaurant_pinlet","name":"East","opening_hours":{"open_now":true},"photos":[{"height":1908,"html_attributions":["<a href=\"https://maps.google.com/maps/contrib/107093977192171817812\">Philip Modig</a>"],"photo_reference":"AeJbb3cUKnBuhRZ9V-HD-w14ts41cK2J2oIjpRmQsRK8dPtIerh0_XFhJMDWDqq-225l8jka2GYCVTVBkSqO4lSNcCChMKA9aejlTXVISYPu3piAMD_jzcOyImL62Fuc-oG-U02336Zaew06zPXVFNSXvJRjpczGdhEX_gUp2tpfjMK_gZd2","width":4032}],"place_id":"ChIJ-bZYX0GdX0YRRnWbBw_apaI","plus_code":{"compound_code":"83PC+7X Stockholm","global_code":"9FFW83PC+7X"},"price_level":3,"rating":3.9,"reference":"ChIJ-bZYX0GdX0YRRnWbBw_apaI","types":["restaurant","food","point_of_interest","establishment"],"user_ratings_total":1262},{"business_status":"OPERATIONAL","formatted_address":"Gustav III:s Boulevard 6, 169 72 Solna","geometry":{"location":{"lat":59.3679414,"lng":18.015833},"viewport":{"northeast":{"lat":59.36933692989272,"lng":18.01706602989272},"southwest":{"lat":59.36663727010728,"lng":18.01436637010728}}},"icon":"https://maps.gstatic.com/mapfiles/place_api/icons/v1/png_71/restaurant-71.png","icon_background_color":"#FF9E67","icon_mask_base_uri":"https://maps.gstatic.com/mapfiles/place_api/icons/v2/restaurant_pinlet","name":"Danang Garden","opening_hours":{"open_now":true},"photos":[{"height":3024,"html_attributions":["<a href=\"https://maps.google.com/maps/contrib/101071480303523277805\">Oskar Kallenbach</a>"],"photo_reference":"AeJbb3eMCnlhGim8rt1srkH37Jw3T6cSJJuaUEmVMMfQuE1q5O8kCsXwBq3XWiVV_J8YJfhyXW2MjmgVXiQPLo3ebk_qg63_97xJZT7TceJzKGDRJJ2eIl0SJMI-62dspuUv9JGAlmpk_GMMn2XWPDoRZScIcVzItL-OUrGsHiA4LZq42nMK","width":4032}],"place_id":"ChIJn81DIbqdX0YR_S4FiKaz8Ug","plus_code":{"compound_code":"9298+58 Solna","global_code":"9FFW9298+58"},"price_level":2,"rating":3.9,"reference":"ChIJn81DIbqdX0YR_S4FiKaz8Ug","types":["restaurant","food","point_of_interest","establishment"],"user_ratings_total":130},{"business_status":"OPERATIONAL","formatted_address":"Rosenlundsgatan 60, 118 63 Stockholm","geometry":{"location":{"lat":59.3111808,"lng":18.0580282},"viewport":{"northeast":{"lat":59.31248327989272,"lng":18.05952867989272},"southwest":{"lat":59.30978362010728,"lng":18.05682902010728}}},"icon":"https://maps.gstatic.com/mapfiles/place_api/icons/v1/png_71/restaurant-71.png","icon_background_color":"#FF9E67","icon_mask_base_uri":"https://maps.gstatic.com/mapfiles/place_api/icons/v2/restaurant_pinlet","name":"Zhao-Ye Restaurang AB","opening_hours":{"open_now":true},"place_id":"ChIJ96zRle53X0YRoCQAFdQmIEI","plus_code":{"compound_code":"8365+F5 Stockholm","global_code":"9FFW8365+F5"},"rating":3.8,"reference":"ChIJ96zRle53X0YRoCQAFdQmIEI","types":["restaurant","food","point_of_interest","establishment"],"user_ratings_total":8},{"business_status":"OPERATIONAL","formatted_address":"183 70 Täby","geometry":{"location":{"lat":59.445163,"lng":18.0728054},"viewport":{"northeast":{"lat":59.44603252989273,"lng":18.07473202989272},"southwest":{"lat":59.44333287010728,"lng":18.07203237010728}}},"icon":"https://maps.gstatic.com/mapfiles/place_api/icons/v1/png_71/restaurant-71.png","icon_background_color":"#FF9E67","icon_mask_base_uri":"https://maps.gstatic.com/mapfiles/place_api/icons/v2/restaurant_pinlet","name":"Mama Viet i Täby","opening_hours":{"open_now":true},"photos":[{"height":2736,"html_attributions":["<a href=\"https://maps.google.com/maps/contrib/104770571771013111192\">Hao Wang</a>"],"photo_reference":"AeJbb3el4a-5b5NX7QT5Yun2KTerXSVYLj0QZJT90nmO_EU8PLLlxQiCZ-6WIUXN2lT8-x3OV8JUfjyKjucgxJZxf52JPZcCujolFdwFMESljg13WrWoGVR6ObyoFWzz8_2nHe1RnXqgGnvmLBvQKa8oyXHaYjA4MTi-zApKP5F6TTl31YIv","width":3648}],"place_id":"ChIJWS-ze4CbX0YRHE-7wma3Tqs","plus_code":{"compound_code":"C3WF+34 Täby","global_code":"9FFWC3WF+34"},"rating":3.7,"reference":"ChIJWS-ze4CbX0YRHE-7wma3Tqs","types":["restaurant","food","point_of_interest","establishment"],"user_ratings_total":85}]