[{"business_status":"OPERATIONAL","formatted_address":"Solmsstraße 52, 60486 Frankfurt am Main","geometry":{"location":{"lat":50.1186805,"lng":8.6304927},"viewport":{"northeast":{"lat":50.12003017989272,"lng":8.631843979892722},"southwest":{"lat":50.11733052010728,"lng":8.629144320107278}}},"icon":"https://maps.gstatic.com/mapfiles/place_api/icons/v1/png_71/restaurant-71.png","icon_background_color":"#FF9E67","icon_mask_base_uri":"https://maps.gstatic.com/mapfiles/place_api/icons/v2/restaurant_pinlet","name":"A Casa Lamian 回家拉麵","opening_hours":{"open_now":false},"photos":[{"height":1920,"html_attributions":["<a href=\"https://maps.google.com/maps/contrib/118396687806464797844\">A Google User</a>"],"photo_reference":"AeJbb3dosaZJZaZ2J3X711V8EpKYCP_ivN56-KJnZbMvk7YN4IoeQJVzkldfWVx46PqA8rmmZqfIS7li96zgynAPzfTVbTkyaLVnVokzwM-Lcbg3y7yMU6TvNCdZjxeKNxGco-R1Fp89X1gC8RMo5j2Pe4w9Cx-KCpF5h2qtPdaIP8KivDXu","width":2560}],"place_id":"ChIJ82jWyDYJvUcRQrugCTd8yVc","plus_code":{"compound_code":"4J9J+F5 Frankfurt","global_code":"9F2C4J9J+F5"},"price_level":2,"rating":4.9,"reference":"ChIJ82jWyDYJvUcRQrugCTd8yVc","types":["restaurant","food","point_of_interest","establishment"],"user_ratings_total":241},{"business_status":"OPERATIONAL","formatted_address":"Düsseldorfer Str. 15-17, 60329 Frankfurt am Main","geometry":{"location":{"lat":50.10902360000001,"lng":8.6610353},"viewport":{"northeast":{"lat":50.11042787989273,"lng":8.66244012989272},"southwest":{"lat":50.10772822010728,"lng":8.659740470107277}}},"icon":"https://maps.gstatic.com/mapfiles/place_api/icons/v1/png_71/restaurant-71.png","icon_background_color":"#FF9E67","icon_mask_base_uri":"https://maps.gstatic.com/mapfiles/place_api/icons/v2/restaurant_pinlet","name":"Aunty Zhong’s","opening_hours":{"open_now":false},"photos":[{"height":2304,"html_attributions":["<a href=\"https://maps.google.com/maps/contrib/111924435555590534926\">Max</a>"],"photo_reference":"AeJbb3dXepFYlNIdSl4dgxq_bk7jHnWWHzW4zBWxSxVRQWFPnxqEyITjiUYM0cazNyiYWY5SM3ddXMFZGe2D2UO6knK6XoAwrbPwBoW5m63ShffXQRoyVsdb8vWf6MPpb-20N1bH_knlxw8d7zd0yFxP2l4C4DuQ6zNzv9LIfjuWA1dSjgyd","width":4608}],"place_id":"ChIJWccTDtAJvUcRpDTy7nQd20c","plus_code":{"compound_code":"4M56+JC Frankfurt","global_code":"9F2C4M56+JC"},"price_level":2,"rating":4.7,"reference":"ChIJWccTDtAJvUcRpDTy7nQd20c","types":["restaurant","food","point_of_interest","establishment"],"user_ratings_total":460},{"business_status":"OPERATIONAL","formatted_address":"Europa-Allee 41, 60327 Frankfurt am Main","geometry":{"location":{"lat":50.1083857,"lng":8.6477686},"viewport":{"northeast":{"lat":50.10973552989272,"lng":8.64911842989272},"southwest":{"lat":50.10703587010727,"lng":8.646418770107276}}},"icon":"https://maps.gstatic.com/mapfiles/place_api/icons/v1/png_71/restaurant-71.png","icon_background_color":"#FF9E67","icon_mask_base_uri":"https://maps.gstatic.com/mapfiles/place_api/icons/v2/restaurant_pinlet","name":"The noodlemaker","opening_hours":{"open_now":false},"photos":[{"height":4032,"html_attributions":["<a href=\"https://maps.google.com/maps/contrib/101847768140228618434\">Sebastian Busse</a>"],"photo_reference":"AeJbb3cSiMCzsT-51gXpckcKRePG1OSergWtATHirnVGnyxDTYPLLrZMojxuKq5DJHW_nP5aU7-Z7TpcTXOAAZwlASd-719PjkxI4QVTIDQp90O05ktlCNzXIkp8qEFRELr4v1krG1d4gq0EQov2jV0NCSzsnysJrOaOhXC6wK_0McUHFMfs","width":3024}],"place_id":"ChIJV9j-fyILvUcRi2y1Erd3TUk","plus_code":{"compound_code":"4J5X+94 Frankfurt","global_code":"9F2C4J5X+94"},"price_level":2,"rating":4.6,"reference":"ChIJV9j-fyILvUcRi2y1Erd3TUk","types":["meal_takeaway","restaurant","food","point_of_interest","establishment"],"user_ratings_total":543},{"business_status":"OPERATIONAL","formatted_address":"Leipziger Str. 26, 60487 Frankfurt am Main","geometry":{"location":{"lat":50.12137260000001,"lng":8.6483531},"viewport":{"northeast":{"lat":50.12270382989272,"lng":8.649677329892722},"southwest":{"lat":50.12000417010727,"lng":8.646977670107278}}},"icon":"https://maps.gstatic.com/mapfiles/place_api/icons/v1/png_71/restaurant-71.png","icon_background_color":"#FF9E67","icon_mask_base_uri":"https://maps.gstatic.com/mapfiles/place_api/icons/v2/restaurant_pinlet","name":"Bistro Hong Kong","opening_hours":{"open_now":false},"photos":[{"height":3675,"html_attributions":["<a href=\"https://maps.google.com/maps/contrib/103481540335987429751\">chou sei</a>"],"photo_reference":"AeJbb3egYgWvbHIlIIm9BFYejBPbt_tnYdyS7ULjQ1bu9VFILM83lkN8txXDFJwI9InLt5gPdjFJHp8rTefSPaHSHVfYWqdL46qoRJ6b5LXd9cDmAt53bAW0gxcgdwvP0lxgoCwOKP5CIp0ftAZdVjvZztpjLQp1SZlv8O9kLlECv1GzFzV8","width":3024}],"place_id":"ChIJA3kKBkMJvUcRn0kDxAAO2FU","plus_code":{"compound_code":"4JCX+H8 Frankfurt","global_code":"9F2C4JCX+H8"},"price_level":1,"rating":4.6,"reference":"ChIJA3kKBkMJvUcRn0kDxAAO2FU","types":["restaurant","food","point_of_interest","establishment"],"user_ratings_total":320},{"business_status":"OPERATIONAL","formatted_address":"Berliner Str. 64, 60311 Frankfurt am Main","geometry":{"location":{"lat":50.1112706,"lng":8.678815799999999},"viewport":{"northeast":{"lat":50.11256047989272,"lng":8.680055429892722},"southwest":{"lat":50.10986082010728,"lng":8.677355770107278}}},"icon":"https://maps.gstatic.com/mapfiles/place_api/icons/v1/png_71/restaurant-71.png","icon_background_color":"#FF9E67","icon_mask_base_uri":"https://maps.gstatic.com/mapfiles/place_api/icons/v2/restaurant_pinlet","name":"香香麻辣烫 XiangXiang Malatang(Spicy Hot Pot)","opening_hours":{"open_now":false},"photos":[{"height":3024,"html_attributions":["<a href=\"https://maps.google.com/maps/contrib/105129235294208350902\">A Google User</a>"],"photo_reference":"AeJbb3dVCmMgTFHWfCm0Ij7eT6DAbKdWxKvGiElcpUhPvye72o-SxOI9I4xuMV2uL9lLeLODuHHA9VuO1cyFkw5a_lLYeP8wZANPI2Sqteb2CugvjpLWJ6kZp9gDxUOrmzws-pOrP1jCuTzdhCWpTp8425nl4B2wZI7IXaSRhxyNbQU70-Yv","width":4032}],"place_id":"ChIJLUqYFYUPvUcRlm6IPc4kmaw","plus_code":{"compound_code":"4M6H+GG Frankfurt","global_code":"9F2C4M6H+GG"},"rating":4.6,"reference":"ChIJLUqYFYUPvUcRlm6IPc4kmaw","types":["restaurant","food","point_of_interest","establishment"],"user_ratings_total":143},{"business_status":"OPERATIONAL","formatted_address":"Niddastraße 52, 60329 Frankfurt am Main","geometry":{"location":{"lat":50.1098771,"lng":8.6644728},"viewport":{"northeast":{"lat":50.11120637989272,"lng":8.66580972989272},"southwest":{"lat":50.10850672010728,"lng":8.663110070107276}}},"icon":"https://maps.gstatic.com/mapfiles/place_api/icons/v1/png_71/restaurant-71.png","icon_background_color":"#FF9E67","icon_mask_base_uri":"https://maps.gstatic.com/mapfiles/place_api/icons/v2/restaurant_pinlet","name":"Mian Nudelhaus","opening_hours":{"open_now":false},"photos":[{"height":3024,"html_attributions":["<a href=\"https://maps.google.com/maps/contrib/116108156764194557100\">Al Stan</a>"],"photo_reference":"AeJbb3cTXrVu9Hr5gew-wo8CkjObyttmmu5zo5AI5aLUZBdDCJq9KEtZZ31MqW5YdwgPPtQ5phsg0fK-NOKo654Ay3vLvRSgIcpx5IsoC31JqS5S5JwSy_ko0XS06ziFgx3zjcfK9C1Q1NNccaKVXMeDwHWP8b8PxHjWCCCBspsondPM5Aw8","width":4032}],"place_id":"ChIJRZ63BFUJvUcRtalfKLi5bpY","plus_code":{"compound_code":"4M57+XP Frankfurt","global_code":"9F2C4M57+XP"},"price_level":1,"rating":4.5,"reference":"ChIJRZ63BFUJvUcRtalfKLi5bpY","types":["restaurant","food","point_of_interest","establishment"],"user_ratings_total":502},{"business_status":"OPERATIONAL","formatted_address":"Schloßstraße 52, 60486 Frankfurt am Main","geometry":{"location":{"lat":50.1206841,"lng":8.6406323},"viewport":{"northeast":{"lat":50.12212557989272,"lng":8.641880829892724},"southwest":{"lat":50.11942592010728,"lng":8.63918117010728}}},"icon":"https://maps.gstatic.com/mapfiles/place_api/icons/v1/png_71/restaurant-71.png","icon_background_color":"#FF9E67","icon_mask_base_uri":"https://maps.gstatic.com/mapfiles/place_api/icons/v2/restaurant_pinlet","name":"China Haus 小時代","opening_hours":{"open_now":false},"photos":[{"height":1080,"html_attributions":["<a href=\"https://maps.google.com/maps/contrib/108339883817088320504\">Sergey Lazarev</a>"],"photo_reference":"AeJbb3ewmQLL5MovICkL6Iu-gXA7gYPwlJNszjWNx2oFYfjVh1NL_EDtefROVk2mo3eChsHGnuc_6KaxZa3xYZYEgnGJ3OEeItL5guhvOXExhs5sMnGvVD4e8tQBOtEZWDOOvqlm91eQPwgNYZ4_93SKzTcjzCTMursXP1gxUMNGwkdAOdcS","width":1920}],"place_id":"ChIJH3bpiWgJvUcRzqCfyi7BVKc","plus_code":{"compound_code":"4JCR+76 Frankfurt","global_code":"9F2C4JCR+76"},"price_level":2,"rating":4.5,"reference":"ChIJH3bpiWgJvUcRzqCfyi7BVKc","types":["restaurant","food","point_of_interest","establishment"],"user_ratings_total":343},{"business_status":"OPERATIONAL","formatted_address":"Ottostraße 6, 60329 Frankfurt am Main","geometry":{"location":{"lat":50.1081312,"lng":8.660666299999999},"viewport":{"northeast":{"lat":50.10951882989271,"lng":8.66188937989272},"southwest":{"lat":50.10681917010727,"lng":8.659189720107277}}},"icon":"https://maps.gstatic.com/mapfiles/place_api/icons/v1/png_71/restaurant-71.png","icon_background_color":"#FF9E67","icon_mask_base_uri":"https://maps.gstatic.com/mapfiles/place_api/icons/v2/restaurant_pinlet","name":"Wenzhou","opening_hours":{"open_now":false},"photos":[{"height":3024,"html_attributions":["<a href=\"https://maps.google.com/maps/contrib/117380875151258459470\">A Google User</a>"],"photo_reference":"AeJbb3cVyyv9cUKiv4xrMNskzUNj7oHsB3_Gq32vTr8b__MY5KSzcQ93L2Zjt8Hjf2my3time9bawEqYD0WsKPFNN7dO6mFwNSl_BPkORQoJFt6SBoZQoVS69Vvmy6xX_Mynmo3bORvaz5SAZ7OQfEWxNh0dQjUmaEpWcP7zkFGQwNGXce4x","width":4032}],"place_id":"ChIJHxBm-VUJvUcRlidwX7deMXk","plus_code":{"compound_code":"4M56+67 Frankfurt","global_code":"9F2C4M56+67"},"rating":4.5,"reference":"ChIJHxBm-VUJvUcRlidwX7deMXk","types":["restaurant","food","point_of_interest","establishment"],"user_ratings_total":218},{"business_status":"OPERATIONAL","formatted_address":"Alte G. 4, 60313 Frankfurt am Main","geometry":{"location":{"lat":50.1171617,"lng":8.686001500000001},"viewport":{"northeast":{"lat":50.11851117989271,"lng":8.687278729892723},"southwest":{"lat":50.11581152010727,"lng":8.68457907010728}}},"icon":"https://maps.gstatic.com/mapfiles/place_api/icons/v1/png_71/generic_business-71.png","icon_background_color":"#7B9EB0","icon_mask_base_uri":"https://maps.gstatic.com/mapfiles/place_api/icons/v2/generic_pinlet","name":"China Leckerbissen","opening_hours":{"open_now":false},"photos":[{"height":809,"html_attributions":["<a href=\"https://maps.google.com/maps/contrib/116343542925739133233\">A Google User</a>"],"photo_reference":"AeJbb3daUxRh2RzYhiSvIjSJUbSzZ5sDw4b2MHKveWOfsFUf-krozruuRRmzm75KqQP-9-2X2HM0vL4g76Bj9AF6lSCN_9-Vx64yOf9-XxL9a5AECU_HNIYJ3IWse1wl8jaQzV10R8HvFDD2WhdEThjK2mJa1yWbtNiI-uaVQVOeZYV5gk-A","width":1440}],"place_id":"ChIJCUzd2LoOvUcRfIoqXvVaXG0","plus_code":{"compound_code":"4M8P+VC Frankfurt","global_code":"9F2C4M8P+VC"},"price_level":1,"rating":4.5,"reference":"ChIJCUzd2LoOvUcRfIoqXvVaXG0","types":["meal_delivery","meal_takeaway","restaurant","food","point_of_interest","establishment"],"user_ratings_total":217},{"business_status":"OPERATIONAL","formatted_address":"Friedberger Landstraße 88, 60316 Frankfurt am Main","geometry":{"location":{"lat":50.12495209999999,"lng":8.6919962},"viewport":{"northeast":{"lat":50.12630452989272,"lng":8.69329627989272},"southwest":{"lat":50.12360487010728,"lng":8.690596620107277}}},"icon":"https://maps.gstatic.com/mapfiles/place_api/icons/v1/png_71/restaurant-71.png","icon_background_color":"#FF9E67","icon_mask_base_uri":"https://maps.gstatic.com/mapfiles/place_api/icons/v2/restaurant_pinlet","name":"Gangjiu","opening_hours":{"open_now":false},"photos":[{"height":3024,"html_attributions":["<a href=\"https://maps.google.com/maps/contrib/111156379261825823760\">Jilber Marazyan</a>"],"photo_reference":"AeJbb3delhW2OHT3wbwOSRdz3kyrcL0PXIDOdEJJcJk8pPirn4Abk0nGzZeD5Hh7qAyLqMiNzkiect2GaUFhDOlYKtHWjwdoNR4StD0ItUaomEGFxQ9IGNR-G4MzE3edi5siLCsIT8ZyXlQDntbyHsychXqo7xALmEuMRMSMpqKGuahUy9dT","width":4032}],"place_id":"ChIJX4dxSr8OvUcRB3ZLQx48NlY","plus_code":{"compound_code":"4MFR+XR Frankfurt","global_code":"9F2C4MFR+XR"},"price_level":1,"rating":4.5,"reference":"ChIJX4dxSr8OvUcRB3ZLQx48NlY","types":["restaurant","food","point_of_interest","establishment"],"user_ratings_total":117},{"business_status":"OPERATIONAL","formatted_address":"Münchener Str. 52, 60329 Frankfurt am Main","geometry":{"location":{"lat":50.1070861,"lng":8.6663828},"viewport":{"northeast":{"lat":50.10840942989272,"lng":8.66774967989272},"southwest":{"lat":50.10570977010727,"lng":8.665050020107277}}},"icon":"https://maps.gstatic.com/mapfiles/place_api/icons/v1/png_71/restaurant-71.png","icon_background_color":"#FF9E67","icon_mask_base_uri":"https://maps.gstatic.com/mapfiles/place_api/icons/v2/restaurant_pinlet","name":"Selera Malaysian Restaurant","opening_hours":{"open_now":false},"photos":[{"height":3456,"html_attributions":["<a href=\"https://maps.google.com/maps/contrib/101399341549399628639\">Teo H W Jenny</a>"],"photo_reference":"AeJbb3dsWSrVWzTc8uBPzCa7hkdSj_VFPykWKr9SE2JnDgOJefTpH6dzKntl3RCTlwklDzCpK0JIyOwXhoc41X_hrH2QVVRehZNgTmGKFzE426B1fLFcVb80VTCveidSv4ZtZReb-vrrWG6DUMBXZ1CSYUG8_YDMxr__083Dlg8CCF9aqla0","width":4608}],"place_id":"ChIJoeJR__8LvUcRQ92_yYijyW8","plus_code":{"compound_code":"4M48+VG Frankfurt","global_code":"9F2C4M48+VG"},"price_level":2,"rating":4.4,"reference":"ChIJoeJR__8LvUcRQ92_yYijyW8","types":["restaurant","food","point_of_interest","establishment"],"user_ratings_total":795},{"business_status":"OPERATIONAL","formatted_address":"Oeder Weg 32, 60318 Frankfurt am Main","geometry":{"location":{"lat":50.1200292,"lng":8.6800269},"viewport":{"northeast":{"lat":50.12139282989273,"lng":8.68128412989272},"southwest":{"lat":50.11869317010729,"lng":8.678584470107277}}},"icon":"https://maps.gstatic.com/mapfiles/place_api/icons/v1/png_71/restaurant-71.png","icon_background_color":"#FF9E67","icon_mask_base_uri":"https://maps.gstatic.com/mapfiles/place_api/icons/v2/restaurant_pinlet","name":"China Restaurant Yung","opening_hours":{"open_now":false},"photos":[{"height":3840,"html_attributions":["<a href=\"https://maps.google.com/maps/contrib/115451733495139473933\">A Google User</a>"],"photo_reference":"AeJbb3f-D3bKEqMejUPb5aiTMfzlrj17BVh5apCzj0cfOgzgvCcnZxHD72YbWa4z-VJ25DFC7x9iUMZP3Ir5m3UllxhS4UcRSO3FiFPWmjO9KqtTMA1hezGgkHjGKjkNh_RF3K25htg94oJJI3ge5pHwBQf8SIfXyXPp69LfxR8B63CHZbfu","width":5760}],"place_id":"ChIJnXuf5ycJvUcR_Wp-LIIW-X0","plus_code":{"compound_code":"4MCJ+22 Frankfurt","global_code":"9F2C4MCJ+22"},"price_level":2,"rating":4.4,"reference":"ChIJnXuf5ycJvUcR_Wp-LIIW-X0","types":["restaurant","food","point_of_interest","establishment"],"user_ratings_total":770},{"business_status":"OPERATIONAL","formatted_address":"Eckenheimer Landstraße 93, 60318 Frankfurt am Main","geometry":{"location":{"lat":50.1258116,"lng":8.6857397},"viewport":{"northeast":{"lat":50.12716912989272,"lng":8.687143979892722},"southwest":{"lat":50.12446947010728,"lng":8.684444320107279}}},"icon":"https://maps.gstatic.com/mapfiles/place_api/icons/v1/png_71/restaurant-71.png","icon_background_color":"#FF9E67","icon_mask_base_uri":"https://maps.gstatic.com/mapfiles/place_api/icons/v2/restaurant_pinlet","name":"Sampan - China Restaurant","opening_hours":{"open_now":false},"photos":[{"height":4032,"html_attributions":["<a href=\"https://maps.google.com/maps/contrib/107431874027388441175\">Dino</a>"],"photo_reference":"AeJbb3eR4DEV6eCrytmBIhWrGSjrSSiLouY6pybFWyZZag6aU-7F1MittvB87vMhLO39zc_NOggxqAPX_U5xl4wA2XuPi-BDCQIoc5F-uJyXjJia4GC8cPkcqbKXCT2YhczGcGulWdui6Ymk0Xq4v6vuF-Q8BLdpgB5qsMbqdkB3da4rSnT8","width":3024}],"place_id":"ChIJ1ROWG7gOvUcRk714xd72uZo","plus_code":{"compound_code":"4MGP+87 Frankfurt","global_code":"9F2C4MGP+87"},"price_level":2,"rating":4.4,"reference":"ChIJ1ROWG7gOvUcRk714xd72uZo","types":["restaurant","food","point_of_interest","establishment"],"user_ratings_total":422},{"business_status":"OPERATIONAL","formatted_address":"Melibocusstraße 35C, 60528 Frankfurt am Main","geometry":{"location":{"lat":50.08407949999999,"lng":8.6387704},"viewport":{"northeast":{"lat":50.08533582989271,"lng":8.639993879892721},"southwest":{"lat":50.08263617010727,"lng":8.637294220107277}}},"icon":"https://maps.gstatic.com/mapfiles/place_api/icons/v1/png_71/restaurant-71.png","icon_background_color":"#FF9E67","icon_mask_base_uri":"https://maps.gstatic.com/mapfiles/place_api/icons/v2/restaurant_pinlet","name":"Asia Imbiss","opening_hours":{"open_now":false},"photos":[{"height":3840,"html_attributions":["<a href=\"https://maps.google.com/maps/contrib/115369003139945997157\">Veronika Indigo</a>"],"photo_reference":"AeJbb3ecu-3TDFiXCNF_nSAozU8QItFjWmekjKZbQkVQl_pLD3srW_H82hfxfRu43afP0eNlUjwHTpw8IhYwulqwY5VcH0-t_33s4zN3GpKozUzRRczdjXHW286gqfOFJpRmhYcTWqFxpsdlucbT1ENBrflM7ZxiznFA2WJ_DtZMo-ZUAQUi","width":5120}],"place_id":"ChIJnW7VGpQLvUcRGQNRUuwWrgM","plus_code":{"compound_code":"3JMQ+JG Frankfurt","global_code":"9F2C3JMQ+JG"},"price_level":1,"rating":4.4,"reference":"ChIJnW7VGpQLvUcRGQNRUuwWrgM","types":["meal_takeaway","restaurant","food","point_of_interest","establishment"],"user_ratings_total":257},{"business_status":"OPERATIONAL","formatted_address":"Kleyerstraße 99, 60326 Frankfurt am Main","geometry":{"location":{"lat":50.0964284,"lng":8.6182682},"viewport":{"northeast":{"lat":50.09785637989272,"lng":8.619625529892723},"southwest":{"lat":50.09515672010728,"lng":8.616925870107279}}},"icon":"https://maps.gstatic.com/mapfiles/place_api/icons/v1/png_71/restaurant-71.png","icon_background_color":"#FF9E67","icon_mask_base_uri":"https://maps.gstatic.com/mapfiles/place_api/icons/v2/restaurant_pinlet","name":"Yeon","opening_hours":{"open_now":false},"photos":[{"height":3024,"html_attributions":["<a href=\"https://maps.google.com/maps/contrib/114574525898880165659\">A Google User</a>"],"photo_reference":"AeJbb3f6IUzqmADZZNWjGXm545HKjZPG4MNC9aogYzDPtMkjsYaYpbmlxGAfM7i2jJRSxT8O8oTPceP7qDG66515nhyd7VoxI2IW7k49WrZulP_aF1AD7EzFv2CcMNYjPweA_I-lq6sbmbeeEtL7-nPdVn088JITjglOhH2lawnnYsI7itcx","width":4032}],"place_id":"ChIJWatfizkLvUcR5ZsRR8wwkU0","plus_code":{"compound_code":"3JW9+H8 Frankfurt","global_code":"9F2C3JW9+H8"},"rating":4.4,"reference":"ChIJWatfizkLvUcR5ZsRR8wwkU0","types":["restaurant","food","point_of_interest","establishment"],"user_ratings_total":73},{"business_status":"OPERATIONAL","formatted_address":"Ginnheimer Stadtweg 129, 60431 Frankfurt am Main","geometry":{"location":{"lat":50.1378162,"lng":8.653073899999999},"viewport":{"northeast":{"lat":50.13917137989272,"lng":8.65451017989272},"southwest":{"lat":50.13647172010728,"lng":8.651810520107276}}},"icon":"https://maps.gstatic.com/mapfiles/place_api/icons/v1/png_71/restaurant-71.png","icon_background_color":"#FF9E67","icon_mask_base_uri":"https://maps.gstatic.com/mapfiles/place_api/icons/v2/restaurant_pinlet","name":"栗园烤吧 Grillhaus Kastanien","opening_hours":{"open_now":false},"photos":[{"height":3024,"html_attributions":["<a href=\"https://maps.google.com/maps/contrib/115854791807291870322\">林雨力</a>"],"photo_reference":"AeJbb3e9LJ9pt132F_Bn4p_YRVoa4ScWxKknSMSoEpATV9hsiaatyRVnEnQavVK7QaEXh4x2biAen4Mrjnc-lCpZ47pGKzdb8LkF3yLf0LdQcEFSY1uOcNV7-0DoLnUmZ5MQPNOCTR8w8pKXynDVLMhaLVi_c8PIePxryVJ4IrapL9auIQLx","width":4032}],"place_id":"ChIJ02WQOZgJvUcRCDIyRhwbsBA","plus_code":{"compound_code":"4MQ3+46 Frankfurt","global_code":"9F2C4MQ3+46"},"rating":4.4,"reference":"ChIJ02WQOZgJvUcRCDIyRhwbsBA","types":["restaurant","food","point_of_interest","establishment"],"user_ratings_total":70},{"business_status":"OPERATIONAL","formatted_address":"Kettenhofweg 64, 60325 Frankfurt am Main","geometry":{"location":{"lat":50.115875,"lng":8.6633218},"viewport":{"northeast":{"lat":50.11721167989272,"lng":8.664676079892722},"southwest":{"lat":50.11451202010727,"lng":8.661976420107278}}},"icon":"https://maps.gstatic.com/mapfiles/place_api/icons/v1/png_71/restaurant-71.png","icon_background_color":"#FF9E67","icon_mask_base_uri":"https://maps.gstatic.com/mapfiles/place_api/icons/v2/restaurant_pinlet","name":"Das Nudel Ding","opening_hours":{"open_now":false},"photos":[{"height":2325,"html_attributions":["<a href=\"https://maps.google.com/maps/contrib/117783777765819968476\">Johann-Lukas Voigt</a>"],"photo_reference":"AeJbb3fHfkQQRXuI29Dxsvuz9WBbIDQ2U31AR0TRHbHXuiCNTNw4ddjO_T_7_Qnb17hmldl8xeYVtc6xxZix24dRin4u20eOGny7lxWl46NV_jrb9swhlnXNPHO3Ayt98rJCg0tZgXRLDdbsyZHb9IIRtSAok-RuHs5LuLmAQSP8wAG7Lgo-","width":6880}],"place_id":"ChIJ7-sjMFIJvUcRqE1BIh60iV0","plus_code":{"compound_code":"4M87+98 Frankfurt","global_code":"9F2C4M87+98"},"price_level":2,"rating":4.3,"reference":"ChIJ7-sjMFIJvUcRqE1BIh60iV0","types":["restaurant","food","point_of_interest","establishment"],"user_ratings_total":603},{"business_status":"OPERATIONAL","formatted_address":"Rödelheimer Str. 59, 65760 Eschborn","geometry":{"location":{"lat":50.1429798,"lng":8.5756409},"viewport":{"northeast":{"lat":50.14428737989272,"lng":8.576895979892724},"southwest":{"lat":50.14158772010728,"lng":8.57419632010728}}},"icon":"https://maps.gstatic.com/mapfiles/place_api/icons/v1/png_71/restaurant-71.png","icon_background_color":"#FF9E67","icon_mask_base_uri":"https://maps.gstatic.com/mapfiles/place_api/icons/v2/restaurant_pinlet","name":"Goldene Krone","opening_hours":{"open_now":false},"photos":[{"height":2988,"html_attributions":["<a href=\"https://maps.google.com/maps/contrib/116511839556766303334\">이지원</a>"],"photo_reference":"AeJbb3f6PNApULj0n9VyPFRC2pgMobdigDLXCPBJExIUDXEmDQRxyL6OaDUxvqZ0J4PgXsCBb0qRm57tz__8IMF0EfOc2zAHRAHQe-uK2jMPudzQpFk730V7wgq7yOxYE3PfubLId8oGz5eL7Fna5eYgssLa3-t58lWsxdKLTV3DQ7wz3xZg","width":5312}],"place_id":"ChIJL2CoqNkJvUcRu-rDUSQ9L3c","plus_code":{"compound_code":"4HVG+57 Eschborn","global_code":"9F2C4HVG+57"},"price_level":1,"rating":4.3,"reference":"ChIJL2CoqNkJvUcRu-rDUSQ9L3c","types":["restaurant","food","point_of_interest","establishment"],"user_ratings_total":184},{"business_status":"OPERATIONAL","formatted_address":"Oeserstraße 219, 60486 Frankfurt am Main","geometry":{"location":{"lat":50.11153669999999,"lng":8.6033315},"viewport":{"northeast":{"lat":50.11288652989271,"lng":8.60468132989272},"southwest":{"lat":50.11018687010727,"lng":8.601981670107277}}},"icon":"https://maps.gstatic.com/mapfiles/place_api/icons/v1/png_71/restaurant-71.png","icon_background_color":"#FF9E67","icon_mask_base_uri":"https://maps.gstatic.com/mapfiles/place_api/icons/v2/restaurant_pinlet","name":"China town restaurant","opening_hours":{"open_now":false},"photos":[{"height":2976,"html_attributions":["<a href=\"https://maps.google.com/maps/contrib/112296769470827556249\">sam ng</a>"],"photo_reference":"AeJbb3dJMXj5nNh19bozzw3jNxM_p1Ii7wN4rvAvhlziu5iaBXO_ljk6UYum9efzU6TPqS7N1aHkz43X6jmeLfPNL2Sd5mCFGTB4XuU2LBefZt0Ze4NEEZQA51p7aQQXhYjB7NykbRPLpXijvakulNeGb32tAVLzTOS-Eo8UzKBJ1TOavAvo","width":3968}],"place_id":"ChIJuz_BwTIJvUcRUgvPoYqwNNE","plus_code":{"compound_code":"4J63+J8 Frankfurt","global_code":"9F2C4J63+J8"},"price_level":2,"rating":4.3,"reference":"ChIJuz_BwTIJvUcRUgvPoYqwNNE","types":["restaurant","food","point_of_interest","establishment"],"user_ratings_total":179},{"business_status":"OPERATIONAL","formatted_address":"Am Erlenbruch 94, 60386 Frankfurt am Main","geometry":{"location":{"lat":50.1308479,"lng":8.732497799999999},"viewport":{"northeast":{"lat":50.13226822989272,"lng":8.733814829892722},"southwest":{"lat":50.12956857010728,"lng":8.731115170107278}}},"icon":"https://maps.gstatic.com/mapfiles/place_api/icons/v1/png_71/restaurant-71.png","icon_background_color":"#FF9E67","icon_mask_base_uri":"https://maps.gstatic.com/mapfiles/place_api/icons/v2/restaurant_pinlet","name":"Ruyi Garden","opening_hours":{"open_now":false},"photos":[{"height":722,"html_attributions":["<a href=\"https://maps.google.com/maps/contrib/111830741870775722513\">Hao Ming Luo</a>"],"photo_reference":"AeJbb3fXE77V1dXSU78nYCkQH-ApaNiR7s2-8MpYogynOhXwYI_JawdVHzZHuZ4QFi60D3GOZIbAgCBlA5QMq3AOsSm4xYWezeTd7FoWWczJqt2VS7SlineB0gZfciB_bGeGhKLLpKyzb8X5BAeJyUVYzzMReCewCJo00JTaZFIdJC_MFsya","width":1280}],"place_id":"ChIJUbyMdlkOvUcR9XD2VJTc8HA","plus_code":{"compound_code":"4PJJ+8X Frankfurt","global_code":"9F2C4PJJ+8X"},"price_level":2,"rating":4.3,"reference":"ChIJUbyMdlkOvUcR9XD2VJTc8HA","types":["restaurant","food","point_of_interest","establishment"],"user_ratings_total":126},{"business_status":"OPERATIONAL","formatted_address":"Niddastraße 101, 60329 Frankfurt am Main","geometry":{"location":{"lat":50.1073253,"lng":8.6582628},"viewport":{"northeast":{"lat":50.10869557989272,"lng":8.659556179892723},"southwest":{"lat":50.10599592010728,"lng":8.65685652010728}}},"icon":"https://maps.gstatic.com/mapfiles/place_api/icons/v1/png_71/restaurant-71.png","icon_background_color":"#FF9E67","icon_mask_base_uri":"https://maps.gstatic.com/mapfiles/place_api/icons/v2/restaurant_pinlet","name":"Restaurant Hunan 岳阳楼湘菜馆","opening_hours":{"open_now":false},"photos":[{"height":1080,"html_attributions":["<a href=\"https://maps.google.com/maps/contrib/108514502738720688525\">A Google User</a>"],"photo_reference":"AeJbb3dSfWUkfzHu-4rx69y5PyI6Nlx5Q4LV2ObGLLs-5In1N75Egp1EgGA2TVQi6_O2weEMDjJ02jUmxjw2v7blFJclLH2s_XMDoEaY-SF6aGblhSU2We6P8ecISZ-j7biJkJ2CrCWNiO6Jm5GlhO9rr1wKmpu18UMPXIgfStVJFIwCVyAN","width":1440}],"place_id":"ChIJ0dpIFRELvUcRg2r_aK2uZoI","plus_code":{"compound_code":"4M45+W8 Frankfurt","global_code":"9F2C4M45+W8"},"rating":4.3,"reference":"ChIJ0dpIFRELvUcRg2r_aK2uZoI","types":["restaurant","food","point_of_interest","establishment"],"user_ratings_total":97},{"business_status":"OPERATIONAL","formatted_address":"Friedberger Anlage, In Der Zoopassage 1-3, 60314 Frankfurt am Main","geometry":{"location":{"lat":50.1137348,"lng":8.6957287},"viewport":{"northeast":{"lat":50.11502042989272,"lng":8.696725179892724},"southwest":{"lat":50.11232077010728,"lng":8.69402552010728}}},"icon":"https://maps.gstatic.com/mapfiles/place_api/icons/v1/png_71/restaurant-71.png","icon_background_color":"#FF9E67","icon_mask_base_uri":"https://maps.gstatic.com/mapfiles/place_api/icons/v2/restaurant_pinlet","name":"Wangfu Restaurant","opening_hours":{"open_now":false},"photos":[{"height":2976,"html_attributions":["<a href=\"https://maps.google.com/maps/contrib/101779380994235573045\">sneha patra</a>"],"photo_reference":"AeJbb3cTUq9iXsQe_glyKItkCWzlZ7tWIGpnz4vlN0Toe1Poh2A6dRIrL3Vx4N4g2P-kzNLZhJb9QiLojhH4M5wOat7JlYQ_kHcT3nMgRbSkM7njlaMY7KVXMoDRUxXc7bAmpiMQz_dqgSiWHf2UbwD_1eFNlYnc4FgnGWnj2IvA6iyeoFIY","width":3968}],"place_id":"ChIJbWS3yP0PvUcRtGLS6lM-2mw","plus_code":{"compound_code":"4M7W+F7 Frankfurt","global_code":"9F2C4M7W+F7"},"rating":4.2,"reference":"ChIJbWS3yP0PvUcRtGLS6lM-2mw","types":["restaurant","food","point_of_interest","establishment"],"user_ratings_total":1037},{"business_status":"OPERATIONAL","formatted_address":"Börsenstraße 17, 60313 Frankfurt am Main","geometry":{"location":{"lat":50.1158265,"lng":8.676428399999999},"viewport":{"northeast":{"lat":50.11719332989272,"lng":8.677847479892721},"southwest":{"lat":50.11449367010728,"lng":8.675147820107277}}},"icon":"https://maps.gstatic.com/mapfiles/place_api/icons/v1/png_71/restaurant-71.png","icon_background_color":"#FF9E67","icon_mask_base_uri":"https://maps.gstatic.com/mapfiles/place_api/icons/v2/restaurant_pinlet","name":"Madame Mei","opening_hours":{"open_now":false},"photos":[{"height":1840,"html_attributions":["<a href=\"https://maps.google.com/maps/contrib/111979075123079651024\">A Google User</a>"],"photo_reference":"AeJbb3ccWX1DE2HuDmlqFfeUJnwg-xJ9-sbKkEuc7EY8oW9d4C7npvDG5P5oUBjMqngfxOmr2bGVNI0BxGJciLY1-AzKO58CjJN8M0obxXe1Xr_z2eEM5GDagDyTD9DdLJuTIaSZSqQpWAfArKzxjvxP5Skj8G27VGs029rlRYkkchw1tjTT","width":3264}],"place_id":"ChIJj9aQDa4OvUcRBcG4DoTC80k","plus_code":{"compound_code":"4M8G+8H Frankfurt","global_code":"9F2C4M8G+8H"},"price_level":2,"rating":4.2,"reference":"ChIJj9aQDa4OvUcRBcG4DoTC80k","types":["restaurant","food","point_of_interest","establishment"],"user_ratings_total":731},{"business_status":"OPERATIONAL","formatted_address":"Düsseldorfer Str. 11, 60329 Frankfurt am Main","geometry":{"location":{"lat":50.1088889,"lng":8.6613889},"viewport":{"northeast":{"lat":50.11029077989272,"lng":8.662780579892722},"southwest":{"lat":50.10759112010728,"lng":8.660080920107278}}},"icon":"https://maps.gstatic.com/mapfiles/place_api/icons/v1/png_71/restaurant-71.png","icon_background_color":"#FF9E67","icon_mask_base_uri":"https://maps.gstatic.com/mapfiles/place_api/icons/v2/restaurant_pinlet","name":"Ichiban-Taiwan","opening_hours":{"open_now":false},"photos":[{"height":3096,"html_attributions":["<a href=\"https://maps.google.com/maps/contrib/116677723625150773679\">Torsten Kambach</a>"],"photo_reference":"AeJbb3d7_DZH-KZJARZpsAFnrWssV1SJLajnpoOcpOI3IPE6fmzGy2S6aNY13Fd5ly_psRqQsGpyjg1pvoN5vF2bt_I_kWz0Hwioejaw5aYkUa5zixAYTSVhkEGPG9_oYMqF-Su9MX5h-Ac0-BWqO8Adm_s80Tz6IT5CPCItFEZ6D7itGjS9","width":5504}],"place_id":"ChIJERbg6FUJvUcRipXjRyhkLp0","plus_code":{"compound_code":"4M56+HH Frankfurt","global_code":"9F2C4M56+HH"},"price_level":2,"rating":4.2,"reference":"ChIJERbg6FUJvUcRipXjRyhkLp0","types":["restaurant","food","point_of_interest","establishment"],"user_ratings_total":564},{"business_status":"OPERATIONAL","formatted_address":"Münchener Str. 46, 60329 Frankfurt am Main","geometry":{"location":{"lat":50.1071754,"lng":8.6667205},"viewport":{"northeast":{"lat":50.10850667989273,"lng":8.668073279892722},"southwest":{"lat":50.10580702010728,"lng":8.665373620107278}}},"icon":"https://maps.gstatic.com/mapfiles/place_api/icons/v1/png_71/bar-71.png","icon_background_color":"#FF9E67","icon_mask_base_uri":"https://maps.gstatic.com/mapfiles/place_api/icons/v2/bar_pinlet","name":"零点串吧 (Língdiǎn chuàn ba)","opening_hours":{"open_now":false},"photos":[{"height":3024,"html_attributions":["<a href=\"https://maps.google.com/maps/contrib/108880174494279873184\">강순호</a>"],"photo_reference":"AeJbb3cDFa_V102frvYV-EGWSfg-6oFp5hF7TPip4ES9j8Tu-QLilFJrErxmhfDVtdlsQvBIwhX5g2o4-HpSP-NFGb_m8rvv_26oGgHOweWoL1eWvSrWUn7GLsP6jDxA-Yj7YigSP5KPrgK2EUXdDNLTSnUyiXUt-dwuXx79nCIcvAUGp10E","width":4032}],"place_id":"ChIJLRDYpQgNvUcRhZIFQQE0bj4","plus_code":{"compound_code":"4M48+VM Frankfurt","global_code":"9F2C4M48+VM"},"rating":4.2,"reference":"ChIJLRDYpQgNvUcRhZIFQQE0bj4","types":["bar","restaurant","food","point_of_interest","establishment"],"user_ratings_total":446},{"business_status":"OPERATIONAL","formatted_address":"Ludwigstraße 6, 60327 Frankfurt am Main","geometry":{"location":{"lat":50.10790129999999,"lng":8.6588569},"viewport":{"northeast":{"lat":50.10915817989272,"lng":8.660287379892722},"southwest":{"lat":50.10645852010727,"lng":8.657587720107278}}},"icon":"https://maps.gstatic.com/mapfiles/place_api/icons/v1/png_71/restaurant-71.png","icon_background_color":"#FF9E67","icon_mask_base_uri":"https://maps.gstatic.com/mapfiles/place_api/icons/v2/restaurant_pinlet","name":"True Tasty","opening_hours":{"open_now":false},"photos":[{"height":2988,"html_attributions":["<a href=\"https://maps.google.com/maps/contrib/102390001961622260591\">Markus Roth</a>"],"photo_reference":"AeJbb3eGq7WF7cbyWVFTIOZGPKfEkKEhOSLARNAX8GsV4PCqo6MvYjzDnN67EMhp-93Qwg46nhAg6tzHtV7LxMd9Xj10YeDDradXL1Cod5zOKKOfdoozIoFfbAgSkF5cAOAOIGGLNKAzPEkk5IE4kJBQEb6--c96tP_9oGidvkkj1ObDcA6Z","width":5312}],"place_id":"ChIJNZ9b9P0LvUcRcG-2_yxQQO4","plus_code":{"compound_code":"4M55+5G Frankfurt","global_code":"9F2C4M55+5G"},"rating":4.2,"reference":"ChIJNZ9b9P0LvUcRcG-2_yxQQO4","types":["restaurant","food","point_of_interest","establishment"],"user_ratings_total":345},{"business_status":"OPERATIONAL","formatted_address":"Homburger Landstraße 146, 60435 Frankfurt am Main","geometry":{"location":{"lat":50.152083,"lng":8.6910254},"viewport":{"northeast":{"lat":50.15342882989273,"lng":8.69233122989272},"southwest":{"lat":50.15072917010728,"lng":8.689631570107275}}},"icon":"https://maps.gstatic.com/mapfiles/place_api/icons/v1/png_71/restaurant-71.png","icon_background_color":"#FF9E67","icon_mask_base_uri":"https://maps.gstatic.com/mapfiles/place_api/icons/v2/restaurant_pinlet","name":"Asia Snack Frankfurt","opening_hours":{"open_now":false},"photos":[{"height":1960,"html_attributions":["<a href=\"https://maps.google.com/maps/contrib/105832236465603811829\">Al M</a>"],"photo_reference":"AeJbb3fhapFPHCRwU1Tx2P_zVE4QkHtVAnkvH5bisZ_j0ehexrH9VRxRNx4k7OntWaiQAFolHWNnX57gyg6L9_LcvqiWSIsd-bf135X2TzLkHEFExWNsYDsVCuItMGR2UIzcA54CaLRIsMWWZC-VciWTlwwbsLl4iKDYeW8G_w5A-qTlDkh0","width":4032}],"place_id":"ChIJyU-nwygPvUcRDLJP7NfYYQ8","plus_code":{"compound_code":"5M2R+RC Frankfurt","global_code":"9F2C5M2R+RC"},"price_level":1,"rating":4.2,"reference":"ChIJyU-nwygPvUcRDLJP7NfYYQ8","types":["restaurant","food","point_of_interest","establishment"],"user_ratings_total":296},{"business_status":"OPERATIONAL","formatted_address":"Friedberger Str. 1, 61118 Bad Vilbel","geometry":{"location":{"lat":50.1846476,"lng":8.7433053},"viewport":{"northeast":{"lat":50.18601952989273,"lng":8.744716829892722},"southwest":{"lat":50.18331987010728,"lng":8.742017170107278}}},"icon":"https://maps.gstatic.com/mapfiles/place_api/icons/v1/png_71/restaurant-71.png","icon_background_color":"#FF9E67","icon_mask_base_uri":"https://maps.gstatic.com/mapfiles/place_api/icons/v2/restaurant_pinlet","name":"Loc Phat China Imbiss & Schnellrestaurant","opening_hours":{"open_now":false},"photos":[{"height":4160,"html_attributions":["<a href=\"https://maps.google.com/maps/contrib/116525386868921521577\">Daniel Schaefer</a>"],"photo_reference":"AeJbb3fsbw_bPchr4UbsCZWqett_fY55jcZwHYkSnUMAv8q3WxQ-WgBbWkrhSNLg4jP-hESn4FAJogWzKcBpS9DybX4Sots2IaD-PipNAar_e86-CxY513u0QbcZDXb_HXmYemviEa2dXFdICDYS7YOqlRuvsUjUNwC-cz_wqvLkEviAGhVb","width":3120}],"place_id":"ChIJTxLdAIAFvUcR7-CBG9VcbFo","plus_code":{"compound_code":"5PMV+V8 Bad Vilbel","global_code":"9F2C5PMV+V8"},"price_level":1,"rating":4.2,"reference":"ChIJTxLdAIAFvUcR7-CBG9VcbFo","types":["meal_takeaway","restaurant","food","point_of_interest","establishment"],"user_ratings_total":160},{"business_status":"OPERATIONAL","formatted_address":"Leuchte 2, 60388 Frankfurt am Main","geometry":{"location":{"lat":50.14288519999999,"lng":8.7557824},"viewport":{"northeast":{"lat":50.14428037989272,"lng":8.757176279892722},"southwest":{"lat":50.14158072010728,"lng":8.754476620107278}}},"icon":"https://maps.gstatic.com/mapfiles/place_api/icons/v1/png_71/restaurant-71.png","icon_background_color":"#FF9E67","icon_mask_base_uri":"https://maps.gstatic.com/mapfiles/place_api/icons/v2/restaurant_pinlet","name":"China-Thai Snack","opening_hours":{"open_now":false},"photos":[{"height":2176,"html_attributions":["<a href=\"https://maps.google.com/maps/contrib/101492094575076152506\">Wolf Hoehn</a>"],"photo_reference":"AeJbb3fr6b439Ub0LtMQmBVRGpx7EuVzZNdGPF7yjlIWJGtz0RRlgqj0WCJDgrbSjgUs_WDwoOpTURYO8mNXSkBD6ewh81LY3flBSmDNmkCKE9sO0Qd1h6OmtTRP6DlaQsLxwHLc9N3NsJfguw02X4brF1gNzpWPrYcdEGaK3sEKIAKQbMN_","width":4608}],"place_id":"ChIJ7yTqRrUPvUcRllxg2vQ8ygM","plus_code":{"compound_code":"4QV4+58 Frankfurt","global_code":"9F2C4QV4+58"},"price_level":1,"rating":4.2,"reference":"ChIJ7yTqRrUPvUcRllxg2vQ8ygM","types":["meal_takeaway","restaurant","food","point_of_interest","establishment"],"user_ratings_total":150},{"business_status":"OPERATIONAL","formatted_address":"Mendelssohnstraße 44, 60325 Frankfurt am Main","geometry":{"location":{"lat":50.1145398,"lng":8.6575068},"viewport":{"northeast":{"lat":50.11593552989272,"lng":8.658827529892722},"southwest":{"lat":50.11323587010728,"lng":8.656127870107278}}},"icon":"https://maps.gstatic.com/mapfiles/place_api/icons/v1/png_71/restaurant-71.png","icon_background_color":"#FF9E67","icon_mask_base_uri":"https://maps.gstatic.com/mapfiles/place_api/icons/v2/restaurant_pinlet","name":"Höfchen Chinesisches Restaurant Westend","opening_hours":{"open_now":false},"photos":[{"height":3000,"html_attributions":["<a href=\"https://maps.google.com/maps/contrib/108020207073970490225\">A Google User</a>"],"photo_reference":"AeJbb3d0vCdd40yj8JEBGWlFchIVWOSbH6DrFRPoBB_vLUuU8tFTyPJVquC72XQpwCIy1J3qkSI1QKDGzNVj6pqaUt7jlnLwu8e0Gn31AvPoZHIP3O0i8KnWQJDqB1BWzYgy0gYpUUquPiDGAtPXLGunsf9SRlkujDnEJAZUq2B7GO_U-Pk","width":4000}],"place_id":"ChIJGbwpzV8JvUcRMGW17W-TtwM","plus_code":{"compound_code":"4M75+R2 Frankfurt","global_code":"9F2C4M75+R2"},"rating":4.2,"reference":"ChIJGbwpzV8JvUcRMGW17W-TtwM","types":["restaurant","food","point_of_interest","establishment"],"user_ratings_total":104},{"business_status":"OPERATIONAL","formatted_address":"Ottostraße 17, 60329 Frankfurt am Main","geometry":{"location":{"lat":50.1084878,"lng":8.6599264},"viewport":{"northeast":{"lat":50.10986492989272,"lng":8.661344329892723},"southwest":{"lat":50.10716527010728,"lng":8.658644670107279}}},"icon":"https://maps.gstatic.com/mapfiles/place_api/icons/v1/png_71/restaurant-71.png","icon_background_color":"#FF9E67","icon_mask_base_uri":"https://maps.gstatic.com/mapfiles/place_api/icons/v2/restaurant_pinlet","name":"China Restaurant Meng Yuan","opening_hours":{"open_now":false},"photos":[{"height":4032,"html_attributions":["<a href=\"https://maps.google.com/maps/contrib/107136044869056078172\">A Google User</a>"],"photo_reference":"AeJbb3dAIw8Z87_SYdRuFYTOISdd5S9e84uH7PpVhsUJUjqMIQAEBsRc_ZatUKcIIPGM_Bh650sOiIfFPIQpmRlkhp9w2O1otcd9rUXjeYWteM59jKfT5Q9sXxkc2wXn5Qv9BjKYZejV8nxA9R1dJqCPn4idpgQHb21M6Xu05IQkDUzkNJgb","width":3024}],"place_id":"ChIJRSGmCFYJvUcRlhGhecXqVk4","plus_code":{"compound_code":"4M55+9X Frankfurt","global_code":"9F2C4M55+9X"},"rating":4.2,"reference":"ChIJRSGmCFYJvUcRlhGhecXqVk4","types":["restaurant","food","point_of_interest","establishment"],"user_ratings_total":87},{"business_status":"OPERATIONAL","formatted_address":"Schweizer Str. 78, 60594 Frankfurt am Main","geometry":{"location":{"lat":50.1005727,"lng":8.6814618},"viewport":{"northeast":{"lat":50.10191467989272,"lng":8.68294052989272},"southwest":{"lat":50.09921502010728,"lng":8.680240870107276}}},"icon":"https://maps.gstatic.com/mapfiles/place_api/icons/v1/png_71/restaurant-71.png","icon_background_color":"#FF9E67","icon_mask_base_uri":"https://maps.gstatic.com/mapfiles/place_api/icons/v2/restaurant_pinlet","name":"Bon78 Restaurant","opening_hours":{"open_now":false},"photos":[{"height":3024,"html_attributions":["<a href=\"https://maps.google.com/maps/contrib/115586660580424502998\">A Google User</a>"],"photo_reference":"AeJbb3fKKEVsA8LT56RqKrRUxHlSLbEzKJgEp8Bc6dFYBcuTKba8eCBPtOzq3FNTca-BHU0JYSZetkNs_VsqrS9KfMx4J3mKDMYnZH7Z0rLpCxuVpz_R0D-OFdWOuVrndvmfM8K8Vg6ZDh6skavWluoww5qA0HyWhnQeWyZcsyxPuAVCQJvA","width":4032}],"place_id":"ChIJbQIsSswNvUcRiJAxrauZREc","plus_code":{"compound_code":"4M2J+6H Frankfurt","global_code":"9F2C4M2J+6H"},"rating":4.2,"reference":"ChIJbQIsSswNvUcRiJAxrauZREc","types":["restaurant","food","point_of_interest","establishment"],"user_ratings_total":35},{"business_status":"OPERATIONAL","formatted_address":"Elbestraße 12, 60329 Frankfurt am Main","geometry":{"location":{"lat":50.1073456,"lng":8.669447},"viewport":{"northeast":{"lat":50.10865917989273,"lng":8.670718729892723},"southwest":{"lat":50.10595952010728,"lng":8.66801907010728}}},"icon":"https://maps.gstatic.com/mapfiles/place_api/icons/v1/png_71/restaurant-71.png","icon_background_color":"#FF9E67","icon_mask_base_uri":"https://maps.gstatic.com/mapfiles/place_api/icons/v2/restaurant_pinlet","name":"Pak Choi","opening_hours":{"open_now":false},"photos":[{"height":3024,"html_attributions":["<a href=\"https://maps.google.com/maps/contrib/107775792193675003883\">김민</a>"],"photo_reference":"AeJbb3c7ywSoF_GnRQqBwF1lllsfPNZ2cCvhoeRuZr3_DfMUqxepHqZyWb4kPveoYEkdC0ks6Gp4hZbDIUBW2L5isNSW5hq10sboCxfAipismmxdmL6d8AmFzc9I1f1lfTYVYoJ__8Bj3b9qKJPq_F6APgx_Qbog8DAeQz4WkLp1-3Lq_ndc","width":4032}],"place_id":"ChIJGQ93gaoOvUcRLz_lEKVNucc","plus_code":{"compound_code":"4M49+WQ Frankfurt","global_code":"9F2C4M49+WQ"},"price_level":1,"rating":4.1,"reference":"ChIJGQ93gaoOvUcRLz_lEKVNucc","types":["restaurant","food","point_of_interest","establishment"],"user_ratings_total":1266},{"business_status":"OPERATIONAL","formatted_address":"Vilbeler Str. 27, 60313 Frankfurt am Main","geometry":{"location":{"lat":50.1164554,"lng":8.6867486},"viewport":{"northeast":{"lat":50.11804442989272,"lng":8.687920529892722},"southwest":{"lat":50.11534477010728,"lng":8.685220870107278}}},"icon":"https://maps.gstatic.com/mapfiles/place_api/icons/v1/png_71/restaurant-71.png","icon_background_color":"#FF9E67","icon_mask_base_uri":"https://maps.gstatic.com/mapfiles/place_api/icons/v2/restaurant_pinlet","name":"Dim Sum House","opening_hours":{"open_now":false},"photos":[{"height":2592,"html_attributions":["<a href=\"https://maps.google.com/maps/contrib/102239905266751653768\">Patrick Effland</a>"],"photo_reference":"AeJbb3dbGc-5fd7f_1TdF9zIe40smkJjaA0TBTP4NvNcVCTvgef1OZwNfczNMaAYSb-rEfay_6EzOWpQLJwr-5kX8KdsQ04NuFl0db64bInz5ZU2Ui4MHGbPSIVVY-f_-H2e0rtbS9s36h7ZJ13KmFuYNAJSOyfWG4Zn1JR7XX96Rw7-rp1A","width":1944}],"place_id":"ChIJuSj8JLsOvUcRyqFc4fCkSck","plus_code":{"compound_code":"4M8P+HM Frankfurt","global_code":"9F2C4M8P+HM"},"price_level":2,"rating":4.1,"reference":"ChIJuSj8JLsOvUcRyqFc4fCkSck","types":["restaurant","food","point_of_interest","establishment"],"user_ratings_total":832},{"business_status":"OPERATIONAL","formatted_address":"Am Hauptbahnhof 8, 60329 Frankfurt am Main","geometry":{"location":{"lat":50.1073483,"lng":8.6654074},"viewport":{"northeast":{"lat":50.10868017989272,"lng":8.666682979892721},"southwest":{"lat":50.10598052010728,"lng":8.663983320107278}}},"icon":"https://maps.gstatic.com/mapfiles/place_api/icons/v1/png_71/restaurant-71.png","icon_background_color":"#FF9E67","icon_mask_base_uri":"https://maps.gstatic.com/mapfiles/place_api/icons/v2/restaurant_pinlet","name":"XiaoLongKan Hotpot Restaurant","opening_hours":{"open_now":false},"photos":[{"height":3024,"html_attributions":["<a href=\"https://maps.google.com/maps/contrib/102672779957444123071\">Xintong Lau</a>"],"photo_reference":"AeJbb3fl2JMb1_6EpQnDgiwD8hMGPZXCsA0GR9lVQA5TNvA0H77Bjs9Ra1eh35jMDyHb0tSpkeSCsO4ZU7lqHd4C27pI2N-pJ7B-s_rx2rptAKo7S4tq1OuOj2Y1Z4ZyXmH2PqDy4yUHXwag_msA9hZVetih0gzoElWbcgHugZ1pPh1zHCJD","width":4032}],"place_id":"ChIJa2RIpG4LvUcRYjaKzeoyQug","plus_code":{"compound_code":"4M48+W5 Frankfurt","global_code":"9F2C4M48+W5"},"rating":4.1,"reference":"ChIJa2RIpG4LvUcRYjaKzeoyQug","types":["meal_delivery","restaurant","food","point_of_interest","establishment"],"user_ratings_total":407},{"business_status":"OPERATIONAL","formatted_address":"Gutleutstraße 152, 60327 Frankfurt am Main","geometry":{"location":{"lat":50.101175,"lng":8.658062},"viewport":{"northeast":{"lat":50.10243647989272,"lng":8.659479529892721},"southwest":{"lat":50.09973682010727,"lng":8.656779870107277}}},"icon":"https://maps.gstatic.com/mapfiles/place_api/icons/v1/png_71/restaurant-71.png","icon_background_color":"#FF9E67","icon_mask_base_uri":"https://maps.gstatic.com/mapfiles/place_api/icons/v2/restaurant_pinlet","name":"常湘汇 Xiang China Restaurant","opening_hours":{"open_now":false},"photos":[{"height":3264,"html_attributions":["<a href=\"https://maps.google.com/maps/contrib/114646538907400771594\">A Google User</a>"],"photo_reference":"AeJbb3esY8GZykvQ_4VWs91o9DPVNA7PFra6wXAqCWuVMc2uwfbGfQjLJ42OxDnWRafGoN5JuTSIMcmVi7IhjDuxf-7V3uw6MwB8UKnamAIO6m8RSMjoyUWSDxP5Pk5tsAlRen76ZgGZ6tHeCfwqAD0gVQKKKMYNEmuMbKoUBOEYvIT7KRix","width":2448}],"place_id":"ChIJ0dAXYvkLvUcR53r8KTHVqZc","plus_code":{"compound_code":"4M25+F6 Frankfurt","global_code":"9F2C4M25+F6"},"price_level":2,"rating":4.1,"reference":"ChIJ0dAXYvkLvUcR53r8KTHVqZc","types":["restaurant","food","point_of_interest","establishment"],"user_ratings_total":251},{"business_status":"OPERATIONAL","formatted_address":"Alt-Rödelheim 10, 60489 Frankfurt am Main","geometry":{"location":{"lat":50.1247335,"lng":8.6130477},"viewport":{"northeast":{"lat":50.12612217989272,"lng":8.61431627989272},"southwest":{"lat":50.12342252010728,"lng":8.611616620107275}}},"icon":"https://maps.gstatic.com/mapfiles/place_api/icons/v1/png_71/restaurant-71.png","icon_background_color":"#FF9E67","icon_mask_base_uri":"https://maps.gstatic.com/mapfiles/place_api/icons/v2/restaurant_pinlet","name":"Zum Goldenen Löwen","opening_hours":{"open_now":false},"photos":[{"height":3024,"html_attributions":["<a href=\"https://maps.google.com/maps/contrib/116651752346746655923\">A Google User</a>"],"photo_reference":"AeJbb3ej_VevpwaVmw69zmjoPt2W1eXkGnMOttl8-JucKeIguHAhpD_umydqTuSGa_HjxDZEn0asE26p0Eyasy35MzOSxpbE-di2jIFOL53fX8coU1IcSStcxSFwr8tTo9SpBamhUMXH-28VrzKTVePi9mljDHgJ_L4KscZ0DBSOjEqXKDjd","width":4032}],"place_id":"ChIJ2VaNepwJvUcRx2Ig4DTcbwU","plus_code":{"compound_code":"4JF7+V6 Frankfurt","global_code":"9F2C4JF7+V6"},"price_level":2,"rating":4.1,"reference":"ChIJ2VaNepwJvUcRx2Ig4DTcbwU","types":["bowling_alley","restaurant","food","point_of_interest","establishment"],"user_ratings_total":236},{"business_status":"OPERATIONAL","formatted_address":"Kaiserstraße 54, 60329 Frankfurt am Main","geometry":{"location":{"lat":50.1085913,"lng":8.6685351},"viewport":{"northeast":{"lat":50.10987787989272,"lng":8.669889229892721},"southwest":{"lat":50.10717822010728,"lng":8.667189570107277}}},"icon":"https://maps.gstatic.com/mapfiles/place_api/icons/v1/png_71/restaurant-71.png","icon_background_color":"#FF9E67","icon_mask_base_uri":"https://maps.gstatic.com/mapfiles/place_api/icons/v2/restaurant_pinlet","name":"Jade","opening_hours":{"open_now":false},"photos":[{"height":4608,"html_attributions":["<a href=\"https://maps.google.com/maps/contrib/103698493824637015764\">Vitali Graf</a>"],"photo_reference":"AeJbb3eLDTRlt5Q_E2aYbDLD_75iGO9sxgHwkbm1Dz-1F2aTYI6C3Z0rvGoA0jnm-mPrsBFWrU-W5kkWQ80iEbzk1WRPQAT1h1ku62d1L9cWkvWRpasN2xjpKRWerFETNGzIY-Fn3vKHj7zFENuhoie0_xDrqwivCaLQjtUHyWMal_hya0mG","width":2184}],"place_id":"ChIJFYQ_wKoOvUcR9LsZyjG5I7k","plus_code":{"compound_code":"4M59+CC Frankfurt","global_code":"9F2C4M59+CC"},"rating":4.1,"reference":"ChIJFYQ_wKoOvUcR9LsZyjG5I7k","types":["restaurant","food","point_of_interest","establishment"],"user_ratings_total":193},{"business_status":"OPERATIONAL","formatted_address":"Am Stock 16, 61118 Bad Vilbel","geometry":{"location":{"lat":50.1932763,"lng":8.7249939},"viewport":{"northeast":{"lat":50.19458347989273,"lng":8.726434979892721},"southwest":{"lat":50.19188382010728,"lng":8.723735320107277}}},"icon":"https://maps.gstatic.com/mapfiles/place_api/icons/v1/png_71/restaurant-71.png","icon_background_color":"#FF9E67","icon_mask_base_uri":"https://maps.gstatic.com/mapfiles/place_api/icons/v2/restaurant_pinlet","name":"China & Thai Bistro","opening_hours":{"open_now":false},"photos":[{"height":3456,"html_attributions":["<a href=\"https://maps.google.com/maps/contrib/114268667803784313147\">Colin Dyson</a>"],"photo_reference":"AeJbb3eRbya1jtPnLAAKP5fMNcYwQbo9DIN46P-AriwmE1zQFcSllMuI_DpXR9B4ClWQJV3NSoaU7p1A_dVkuDTrHXMGV2G9qpO8f4ahmlhe3vr-nL3pPIXgmGD_iUVAts0gtUGdb7X7mN2IMd7TwbUBteZt3Jcu2WvX1yVE45JdG4bsIRnJ","width":4608}],"place_id":"ChIJaT_tNowFvUcRqmP5ZUiV2Lc","plus_code":{"compound_code":"5PVF+8X Bad Vilbel","global_code":"9F2C5PVF+8X"},"price_level":1,"rating":4.1,"reference":"ChIJaT_tNowFvUcRqmP5ZUiV2Lc","types":["restaurant","food","point_of_interest","establishment"],"user_ratings_total":174},{"business_status":"OPERATIONAL","formatted_address":"An der Hauptwache 7, B-Ebene Allianzpassage Laden 45, 60313 Frankfurt am Main","geometry":{"location":{"lat":50.11414449999999,"lng":8.6766829},"viewport":{"northeast":{"lat":50.11549977989272,"lng":8.677981629892722},"southwest":{"lat":50.11280012010727,"lng":8.675281970107278}}},"icon":"https://maps.gstatic.com/mapfiles/place_api/icons/v1/png_71/restaurant-71.png","icon_background_color":"#FF9E67","icon_mask_base_uri":"https://maps.gstatic.com/mapfiles/place_api/icons/v2/restaurant_pinlet","name":"Feinschmecker 好味道","opening_hours":{"open_now":true},"photos":[{"height":2884,"html_attributions":["<a href=\"https://maps.google.com/maps/contrib/109750583375370615234\">A Google User</a>"],"photo_reference":"AeJbb3fFrTCcKsbZdwYeYbX0vVrTJLxjoiiGgKEyTob9Uq4D7bv4vofAcxDu4naE-UbKtUME3SgXuH5rB1e8iOlCdwkl6JWVQSYKUpLgJfP3uHYvA5ghZL63wP4so4K-N3nkY_1OL9zrF8j0QN42RZEWobc7qVIkiXmx6zDIzFzxzoVijKmD","width":3845}],"place_id":"ChIJ3fQiBFEPvUcRR43vftCOr5k","plus_code":{"compound_code":"4M7G+MM Frankfurt","global_code":"9F2C4M7G+MM"},"rating":4.1,"reference":"ChIJ3fQiBFEPvUcRR43vftCOr5k","types":["restaurant","food","point_of_interest","establishment"],"user_ratings_total":159},{"business_status":"CLOSED_PERMANENTLY","formatted_address":"Konrad-Adenauer-Straße 7, 60313 Frankfurt am Main","geometry":{"location":{"lat":50.1161111,"lng":8.687222199999999},"viewport":{"northeast":{"lat":50.11720202989272,"lng":8.688680929892719},"southwest":{"lat":50.11450237010727,"lng":8.685981270107275}}},"icon":"https://maps.gstatic.com/mapfiles/place_api/icons/v1/png_71/restaurant-71.png","icon_background_color":"#FF9E67","icon_mask_base_uri":"https://maps.gstatic.com/mapfiles/place_api/icons/v2/restaurant_pinlet","name":"San San Restaurant","permanently_closed":true,"photos":[{"height":2988,"html_attributions":["<a href=\"https://maps.google.com/maps/contrib/112129420047812318318\">A Google User</a>"],"photo_reference":"AeJbb3dm_33PV3GAm90KHpoe8TL3ScIBRVFSPv693z7pSxHLpH11L30mCGKUAi67no7FDqK9SK1mkj6GXz7_DEGqfigElCRVfeOB6GuVBflXFYxerwxn4sUP6MmgdM_0gr1pTFHRJiKY459tVDEN0YBtCQsqWR_Zdfnnji29HYqgRIt5YIG3","width":5312}],"place_id":"ChIJj2W2yaQOvUcRNEK48HYq67E","plus_code":{"compound_code":"4M8P+CV Frankfurt","global_code":"9F2C4M8P+CV"},"price_level":2,"rating":4.1,"reference":"ChIJj2W2yaQOvUcRNEK48HYq67E","types":["restaurant","food","point_of_interest","establishment"],"user_ratings_total":136},{"business_status":"OPERATIONAL","formatted_address":"Bethmannstraße 11, 60311 Frankfurt am Main","geometry":{"location":{"lat":50.1101799,"lng":8.6786066},"viewport":{"northeast":{"lat":50.11159582989272,"lng":8.67994002989272},"southwest":{"lat":50.10889617010728,"lng":8.677240370107276}}},"icon":"https://maps.gstatic.com/mapfiles/place_api/icons/v1/png_71/restaurant-71.png","icon_background_color":"#FF9E67","icon_mask_base_uri":"https://maps.gstatic.com/mapfiles/place_api/icons/v2/restaurant_pinlet","name":"China Garten","opening_hours":{"open_now":false},"photos":[{"height":4032,"html_attributions":["<a href=\"https://maps.google.com/maps/contrib/103555952717969286425\">Cameron Haugen</a>"],"photo_reference":"AeJbb3dLveRwbmt4A21C8Q7XgodFJh7Wx10xFIWZUz9fmuZ5kfbjR8N3SiT_qCPcmeC8UlXGZZuUyknaL0wFIIvo1EZqqp2ebUBs1vu_tcZnWGrOQJiXFyFMCtNYjO0weIWgrRA_gsbGYU4kip083-1Eh9jQVBa0y4vKfC9Csvnq3pepq7je","width":3024}],"place_id":"ChIJQ9DQv6gOvUcRl2WVvE-dq70","plus_code":{"compound_code":"4M6H+3C Frankfurt","global_code":"9F2C4M6H+3C"},"price_level":1,"rating":4,"reference":"ChIJQ9DQv6gOvUcRl2WVvE-dq70","types":["meal_delivery","restaurant","food","point_of_interest","establishment"],"user_ratings_total":372},{"business_status":"OPERATIONAL","formatted_address":"Sandweg 18, 60316 Frankfurt am Main","geometry":{"location":{"lat":50.1172658,"lng":8.696328099999999},"viewport":{"northeast":{"lat":50.11860392989272,"lng":8.697565679892723},"southwest":{"lat":50.11590427010728,"lng":8.694866020107279}}},"icon":"https://maps.gstatic.com/mapfiles/place_api/icons/v1/png_71/restaurant-71.png","icon_background_color":"#FF9E67","icon_mask_base_uri":"https://maps.gstatic.com/mapfiles/place_api/icons/v2/restaurant_pinlet","name":"Asia-Express","opening_hours":{"open_now":false},"photos":[{"height":2988,"html_attributions":["<a href=\"https://maps.google.com/maps/contrib/101457855139060408850\">Philipp Birmes</a>"],"photo_reference":"AeJbb3cC1R-pgo1PmxUs-JGRIA_I4N7tnjmV33zaf2THzG8nnGj3rCffSXyQYtzVS4kG6LJeBh61TU_1JuyBHoitATHPavJ7_H55DbpRmNaNz-1TnkeCQeD2mnTgiegy2qfcDyKEZht9mrbyJkSlRbphuGBFxQao5v1agcpnc6JSKV9sVMIx","width":3984}],"place_id":"ChIJ905v2ZcOvUcRjrZ797mlFc8","plus_code":{"compound_code":"4M8W+WG Frankfurt","global_code":"9F2C4M8W+WG"},"price_level":1,"rating":4,"reference":"ChIJ905v2ZcOvUcRjrZ797mlFc8","types":["restaurant","food","point_of_interest","establishment"],"user_ratings_total":71},{"business_status":"OPERATIONAL","formatted_address":"Mainzer Landstraße 793, 65934 Frankfurt am Main","geometry":{"location":{"lat":50.0990034,"lng":8.5625575},"viewport":{"northeast":{"lat":50.10044977989272,"lng":8.564056029892722},"southwest":{"lat":50.09775012010728,"lng":8.561356370107278}}},"icon":"https://maps.gstatic.com/mapfiles/place_api/icons/v1/png_71/restaurant-71.png","icon_background_color":"#FF9E67","icon_mask_base_uri":"https://maps.gstatic.com/mapfiles/place_api/icons/v2/restaurant_pinlet","name":"Der Goldene Wok","opening_hours":{"open_now":false},"photos":[{"height":2268,"html_attributions":["<a href=\"https://maps.google.com/maps/contrib/113097229733425764605\">Udo W.</a>"],"photo_reference":"AeJbb3ejQT9knN5eOX_s_XLYimOFmzblKOG2YZg4ySCRkT2nznO9CipQI0_T_hIbcOZEJl_6i-nNddTl5UM186S4A3WRvF-l-l3jlGQCCnpo0tJIYgmJVrA836FkZZcq8eoEKo5PSWbzMvOPw2y3JpeIbvomorV3SAQN2I8Om7ILv-yB_QKE","width":4032}],"place_id":"ChIJEcZQ3AsKvUcRejJFzdvlZD4","plus_code":{"compound_code":"3HX7+J2 Frankfurt","global_code":"9F2C3HX7+J2"},"price_level":1,"rating":3.9,"reference":"ChIJEcZQ3AsKvUcRejJFzdvlZD4","types":["restaurant","food","point_of_interest","establishment"],"user_ratings_total":1675},{"business_status":"OPERATIONAL","formatted_address":"Frankfurter Str. 148, 61118 Bad Vilbel","geometry":{"location":{"lat":50.1764778,"lng":8.734404999999999},"viewport":{"northeast":{"lat":50.17780017989273,"lng":8.735848779892722},"southwest":{"lat":50.17510052010728,"lng":8.733149120107278}}},"icon":"https://maps.gstatic.com/mapfiles/place_api/icons/v1/png_71/restaurant-71.png","icon_background_color":"#FF9E67","icon_mask_base_uri":"https://maps.gstatic.com/mapfiles/place_api/icons/v2/restaurant_pinlet","name":"China Restaurant Mongolei","opening_hours":{"open_now":false},"photos":[{"height":3936,"html_attributions":["<a href=\"https://maps.google.com/maps/contrib/117640371834605084537\">Dieter Dehler</a>"],"photo_reference":"AeJbb3fG5S0TsHNB6mnhIza4ivi6OjC5nN89PtHL2iS3KadssPAFkC8iJdOKJeaPyxp0ehdYbLD9tUfTjiNkHc9kTMrYrdMr8iLsw55jiW0FJayn68U9QHeux1S75YF1hFKVD3AYSvSUwGfyhixd7EZU--M9m8kltJDYuSVTLnTII5Vwdmdh","width":5248}],"place_id":"ChIJ8_5WJnoPvUcRRZH-JHWcPn4","plus_code":{"compound_code":"5PGM+HQ Bad Vilbel","global_code":"9F2C5PGM+HQ"},"price_level":1,"rating":3.9,"reference":"ChIJ8_5WJnoPvUcRRZH-JHWcPn4","types":["restaurant","food","point_of_interest","establishment"],"user_ratings_total":398},{"business_status":"OPERATIONAL","formatted_address":"Porzellanhofstraße 10, 60313 Frankfurt am Main","geometry":{"location":{"lat":50.1153904,"lng":8.688649},"viewport":{"northeast":{"lat":50.11673917989272,"lng":8.689943229892721},"southwest":{"lat":50.11403952010728,"lng":8.687243570107277}}},"icon":"https://maps.gstatic.com/mapfiles/place_api/icons/v1/png_71/restaurant-71.png","icon_background_color":"#FF9E67","icon_mask_base_uri":"https://maps.gstatic.com/mapfiles/place_api/icons/v2/restaurant_pinlet","name":"Li River","opening_hours":{"open_now":false},"photos":[{"height":3024,"html_attributions":["<a href=\"https://maps.google.com/maps/contrib/111959286289275592851\">C Vanessa</a>"],"photo_reference":"AeJbb3cB6V3QvUzOO9Pwv369rXnj7dLFzP2ffbHiVjVki7Zp07iU8rS7ssVtK4iLyqfCXf8SH-_RUOwKAD3JW2C-9EjDr95nG8qA3eSGnoktbXlozOHKK7w4D3OVvllJLdXx6-U_nMDSbRAYaLhI_wigA305dbcyD0qmekLlmEWL1g8CXGEG","width":3024}],"place_id":"ChIJF5MypqQOvUcRhHRABUVdbxg","plus_code":{"compound_code":"4M8Q+5F Frankfurt","global_code":"9F2C4M8Q+5F"},"rating":3.9,"reference":"ChIJF5MypqQOvUcRhHRABUVdbxg","types":["restaurant","food","point_of_interest","establishment"],"user_ratings_total":125},{"business_status":"OPERATIONAL","formatted_address":"Neue Mainzer Str. 24, 60311 Frankfurt am Main","geometry":{"location":{"lat":50.1097764,"lng":8.6745004},"viewport":{"northeast":{"lat":50.11109447989272,"lng":8.675765879892722},"southwest":{"lat":50.10839482010728,"lng":8.673066220107279}}},"icon":"https://maps.gstatic.com/mapfiles/place_api/icons/v1/png_71/restaurant-71.png","icon_background_color":"#FF9E67","icon_mask_base_uri":"https://maps.gstatic.com/mapfiles/place_api/icons/v2/restaurant_pinlet","name":"Grandma's Kitchen","opening_hours":{"open_now":false},"photos":[{"height":1080,"html_attributions":["<a href=\"https://maps.google.com/maps/contrib/105244954819112759883\">Christian Christian</a>"],"photo_reference":"AeJbb3fVRwWoZKk6OgFJdI_OQEhM5ZtvmkafROFpsMqmTdfR99BgFQKdjiBJ-QEsIYuINwWtt7AQbNZuUlDutHaJm549tdV6nPgWBNmlOYzSvOl0P_L_AvuG-ew0n5QmnU98I3iFWty12ry8UTfGvwzzvUqpTeUt-XRqMlySoNAf45dd_uhy","width":1440}],"place_id":"ChIJKxM1eqkOvUcRJil9U22YJdI","plus_code":{"compound_code":"4M5F+WR Frankfurt","global_code":"9F2C4M5F+WR"},"rating":3.8,"reference":"ChIJKxM1eqkOvUcRJil9U22YJdI","types":["restaurant","food","point_of_interest","establishment"],"user_ratings_total":94},{"business_status":"OPERATIONAL","formatted_address":"Fasanenweg 3, 65451 Kelsterbach","geometry":{"location":{"lat":50.0498371,"lng":8.5422978},"viewport":{"northeast":{"lat":50.05113672989272,"lng":8.54367302989272},"southwest":{"lat":50.04843707010728,"lng":8.540973370107276}}},"icon":"https://maps.gstatic.com/mapfiles/place_api/icons/v1/png_71/restaurant-71.png","icon_background_color":"#FF9E67","icon_mask_base_uri":"https://maps.gstatic.com/mapfiles/place_api/icons/v2/restaurant_pinlet","name":"Asia Imbiss Mango","opening_hours":{"open_now":false},"photos":[{"height":2592,"html_attributions":["<a href=\"https://maps.google.com/maps/contrib/105123890223187650169\">Bernd Pfennig</a>"],"photo_reference":"AeJbb3cB-D3GbpBjguSnW8VwZtrU7hXgk-XHhPBaITPRJBs0R8AvI38PlRKWkNetnIWgrMu5Z4tq3LlIQq6bjFDKU3YPnZdZC7w1U6VZg_BW7Glzh-dKZxQ-jBgtaAHYDC3x2QrVwVwapwZPT7EzFC6aIEX_mHkPIC4SnQC9E0K7s2prVfsV","width":4608}],"place_id":"ChIJLTYvBQqgvUcR3h5PLAMkSOs","plus_code":{"compound_code":"2GXR+WW Kelsterbach","global_code":"9F2C2GXR+WW"},"price_level":1,"rating":3.8,"reference":"ChIJLTYvBQqgvUcR3h5PLAMkSOs","types":["meal_takeaway","restaurant","food","point_of_interest","establishment"],"user_ratings_total":90},{"business_status":"OPERATIONAL","formatted_address":"Moselstraße 23, 60329 Frankfurt am Main","geometry":{"location":{"lat":50.1073223,"lng":8.6672754},"viewport":{"northeast":{"lat":50.10864887989272,"lng":8.668607729892722},"southwest":{"lat":50.10594922010728,"lng":8.665908070107278}}},"icon":"https://maps.gstatic.com/mapfiles/place_api/icons/v1/png_71/restaurant-71.png","icon_background_color":"#FF9E67","icon_mask_base_uri":"https://maps.gstatic.com/mapfiles/place_api/icons/v2/restaurant_pinlet","name":"Ding Ding Sheng","opening_hours":{"open_now":false},"photos":[{"height":4048,"html_attributions":["<a href=\"https://maps.google.com/maps/contrib/105384093641608080957\">Christopher Isak</a>"],"photo_reference":"AeJbb3cNm_B0zyHU0gN_D_L9AniVNMIZlWymLhUmTHoMEjT7qAQq0qKi1MVU5M1z3mrqabkJOwTNc19gT2ooLmrAKkSEtHCJcEBIZ_O5-wUwj7p1PG-bEmDcSDStISPN02HXwk1iupzmj36FpV9NCOHqI20VuITaTmUT4Sdk1k-7oroQ-Oi6","width":3036}],"place_id":"ChIJ91xDqKoOvUcRDxBQJPvjxDI","plus_code":{"compound_code":"4M48+XV Frankfurt","global_code":"9F2C4M48+XV"},"price_level":2,"rating":3.7,"reference":"ChIJ91xDqKoOvUcRDxBQJPvjxDI","types":["restaurant","food","point_of_interest","establishment"],"user_ratings_total":379},{"business_status":"OPERATIONAL","formatted_address":"Lyoner Str. 44-48, 60528 Frankfurt am Main","geometry":{"location":{"lat":50.0776603,"lng":8.627428199999999},"viewport":{"northeast":{"lat":50.07914052989272,"lng":8.628806279892721},"southwest":{"lat":50.07644087010727,"lng":8.626106620107278}}},"icon":"https://maps.gstatic.com/mapfiles/place_api/icons/v1/png_71/restaurant-71.png","icon_background_color":"#FF9E67","icon_mask_base_uri":"https://maps.gstatic.com/mapfiles/place_api/icons/v2/restaurant_pinlet","name":"Asia Restaurant Hahaa Frankfurt am Main","opening_hours":{"open_now":false},"photos":[{"height":2448,"html_attributions":["<a href=\"https://maps.google.com/maps/contrib/104748390579367388240\">K Ffm13</a>"],"photo_reference":"AeJbb3dglUbgMBYs7blrR5BNNUEgPNKmTdEooJt3Q7hzO8vQ91RYyXagiC-LtfV_4GjzBQUAysFbkGsMGAvBVmPbg17K6Lmk73s_ou4qmLiqRY8nDatTmQjUamisQLgdsccj6S9HrM4bQ6VCY5IK8tUJS5Ard6MeJBhd6bR6_qGkgE-oyI8_","width":3264}],"place_id":"ChIJ62WniDoKvUcR8Wi0dFyl0WM","plus_code":{"compound_code":"3JHG+3X Frankfurt","global_code":"9F2C3JHG+3X"},"price_level":1,"rating":3.5,"reference":"ChIJ62WniDoKvUcR8Wi0dFyl0WM","types":["meal_takeaway","bar","restaurant","food","point_of_interest","establishment"],"user_ratings_total":275},{"business_status":"OPERATIONAL","formatted_address":"Nidacorso 3, 60439 Frankfurt am Main","geometry":{"location":{"lat":50.15805,"lng":8.63344},"viewport":{"northeast":{"lat":50.15935872989272,"lng":8.634785279892721},"southwest":{"lat":50.15665907010727,"lng":8.632085620107278}}},"icon":"https://maps.gstatic.com/mapfiles/place_api/icons/v1/png_71/restaurant-71.png","icon_background_color":"#FF9E67","icon_mask_base_uri":"https://maps.gstatic.com/mapfiles/place_api/icons/v2/restaurant_pinlet","name":"China Lotus Bistro","opening_hours":{"open_now":false},"photos":[{"height":4032,"html_attributions":["<a href=\"https://maps.google.com/maps/contrib/118396569328889188782\">A Google User</a>"],"photo_reference":"AeJbb3cDDmaZN2t0zZga33-KeYzFSgNPkOlJwSo86DUIaYYIZqiVEHL0ZAuxLUvHSDbkjM61ARlGtTyswTf8Zl0MQrl15c3qR7GGW7g43pjcyGS27X90QhQ7CofuKEw2puTbGkvowjHw1sxh7oMN-SxlhGmoYlErfpEgFFbu5n-x_xidaMn1","width":3024}],"place_id":"ChIJF84tqs4JvUcR_CmbaxMUwck","plus_code":{"compound_code":"5J5M+69 Frankfurt","global_code":"9F2C5J5M+69"},"rating":3.5,"reference":"ChIJF84tqs4JvUcR_CmbaxMUwck","types":["restaurant","food","point_of_interest","establishment"],"user_ratings_total":39},{"business_status":"OPERATIONAL","formatted_address":"Zeil 39, 60313 Frankfurt am Main","geometry":{"location":{"lat":50.1146103,"lng":8.6893992},"viewport":{"northeast":{"lat":50.11605932989272,"lng":8.690723979892724},"southwest":{"lat":50.11335967010727,"lng":8.68802432010728}}},"icon":"https://maps.gstatic.com/mapfiles/place_api/icons/v1/png_71/restaurant-71.png","icon_background_color":"#FF9E67","icon_mask_base_uri":"https://maps.gstatic.com/mapfiles/place_api/icons/v2/restaurant_pinlet","name":"China Box","opening_hours":{"open_now":false},"photos":[{"height":1080,"html_attributions":["<a href=\"https://maps.google.com/maps/contrib/113241190889970901751\">A Google User</a>"],"photo_reference":"AeJbb3eMaz30IbmNg0kSA5H9pogf2oEGaJr_RPVjfqNqyVkkCSsYaVCeDdaAboSgqbMFSe2_gorCnVGmHpL3IkppBr91p9NA6M_ztlTkyrsBDHCsrgL8uMBDRvurZS0eDQlwLnqy977mYS0LR5U66FfeUiN54myQkV4Q1Aw-gn4b0Ohibsa5","width":1440}],"place_id":"ChIJtWY2ZqMOvUcRVTo1Y-Rlo_M","plus_code":{"compound_code":"4M7Q+RQ Frankfurt","global_code":"9F2C4M7Q+RQ"},"price_level":1,"rating":3.4,"reference":"ChIJtWY2ZqMOvUcRVTo1Y-Rlo_M","types":["restaurant","food","point_of_interest","establishment"],"user_ratings_total":387},{"business_status":"OPERATIONAL","formatted_address":"The Squaire am Flughafen Ebene 3 West Flughafen Fernbahnhof, 60549 Frankfurt am Main","geometry":{"location":{"lat":50.0528481,"lng":8.5695181},"viewport":{"northeast":{"lat":50.05431447989272,"lng":8.570587329892723},"southwest":{"lat":50.05161482010728,"lng":8.567887670107279}}},"icon":"https://maps.gstatic.com/mapfiles/place_api/icons/v1/png_71/restaurant-71.png","icon_background_color":"#FF9E67","icon_mask_base_uri":"https://maps.gstatic.com/mapfiles/place_api/icons/v2/restaurant_pinlet","name":"JINGJING Express 京京快餐店","opening_hours":{"open_now":false},"photos":[{"height":3024,"html_attributions":["<a href=\"https://maps.google.com/maps/contrib/106347130393361051456\">A Google User</a>"],"photo_reference":"AeJbb3fQQadiAOONmOQbL08M5CYKFhS1EMJLe9N1L0PgmrEM2c-FnVCxD2tvTWcSzeGXCDQSKvaEp8eIZL6qAMHZCDyf9t1XSwZxuGLBHYodnzj42J3eqNiYYq7jlQPe1GGA7yULqdknXyqeFnqV64xiAvZ9zpiLGcYo-FYhETBU0Edxr4c","width":4032}],"place_id":"ChIJFzNVKsoKvUcR6VX-ZolUa08","plus_code":{"compound_code":"3H39+4R Frankfurt","global_code":"9F2C3H39+4R"},"price_level":2,"rating":3.4,"reference":"ChIJFzNVKsoKvUcR6VX-ZolUa08","types":["cafe","meal_takeaway","restaurant","food","point_of_interest","establishment"],"user_ratings_total":315},{"business_status":"OPERATIONAL","formatted_address":"Eckenheimer Landstraße 453, 60435 Frankfurt am Main","geometry":{"location":{"lat":50.1479094,"lng":8.681871899999999},"viewport":{"northeast":{"lat":50.14926677989272,"lng":8.68323927989272},"southwest":{"lat":50.14656712010728,"lng":8.680539620107275}}},"icon":"https://maps.gstatic.com/mapfiles/place_api/icons/v1/png_71/restaurant-71.png","icon_background_color":"#FF9E67","icon_mask_base_uri":"https://maps.gstatic.com/mapfiles/place_api/icons/v2/restaurant_pinlet","name":"Ni Hao Kaiser","opening_hours":{"open_now":false},"photos":[{"height":1920,"html_attributions":["<a href=\"https://maps.google.com/maps/contrib/109401476075222989593\">Michael Tillner</a>"],"photo_reference":"AeJbb3eGTbWarFsEFLJ50ph2V304guuX4fVNeh_8mDIKJjdnacTO12o-hWEcev4BHr7WyYGn08juRTgPHJZq3qfsiW7D16-bakXv6KGqU6zpAEYRv1dKJ-Qe4FvwtV7Jz8rzCj71qwc0hIRBLsx0fOBiF5uomCcSGHcGdBDRFiDijKxOgau9","width":1080}],"place_id":"ChIJh8DFgyoPvUcReh0KEMQTTj8","plus_code":{"compound_code":"4MXJ+5P Frankfurt","global_code":"9F2C4MXJ+5P"},"price_level":1,"rating":3.4,"reference":"ChIJh8DFgyoPvUcReh0KEMQTTj8","types":["meal_takeaway","restaurant","food","point_of_interest","establishment"],"user_ratings_total":228},{"business_status":"OPERATIONAL","formatted_address":"Heerstraße 155, 60488 Frankfurt am Main","geometry":{"location":{"lat":50.1463194,"lng":8.6114404},"viewport":{"northeast":{"lat":50.14771497989273,"lng":8.612788479892723},"southwest":{"lat":50.14501532010728,"lng":8.61008882010728}}},"icon":"https://maps.gstatic.com/mapfiles/place_api/icons/v1/png_71/generic_business-71.png","icon_background_color":"#7B9EB0","icon_mask_base_uri":"https://maps.gstatic.com/mapfiles/place_api/icons/v2/generic_pinlet","name":"Enjoy Food","opening_hours":{"open_now":false},"photos":[{"height":1920,"html_attributions":["<a href=\"https://maps.google.com/maps/contrib/103552170069078026382\">Joerg Falkenberg</a>"],"photo_reference":"AeJbb3cysPLeZoYJjtKtHNlb9K1QxBAtx-L9rDgdqdd8983-7m_a2rF2U9klU8w7NVu6ZhbHt__LaZxPTGqYRaAHJ3LVQKgrYEd355hAp5n3UMG3vFH-7QgOvgOnichDr0NzY5NtKQ-fMJe1WwPn6avVHFpkxtnXPA92F_0IL_j3cf8SohUb","width":1080}],"place_id":"ChIJt7SZwrEJvUcRJKm0uXLoEEg","plus_code":{"compound_code":"4JW6+GH Frankfurt","global_code":"9F2C4JW6+GH"},"rating":3.1,"reference":"ChIJt7SZwrEJvUcRJKm0uXLoEEg","types":["meal_delivery","restaurant","food","point_of_interest","establishment"],"user_ratings_total":247},{"business_status":"OPERATIONAL","formatted_address":"Europa-Allee 6, 60327 Frankfurt am Main","geometry":{"location":{"lat":50.1094488,"lng":8.6523597},"viewport":{"northeast":{"lat":50.11057252989273,"lng":8.65342432989272},"southwest":{"lat":50.10787287010729,"lng":8.650724670107277}}},"icon":"https://maps.gstatic.com/mapfiles/place_api/icons/v1/png_71/restaurant-71.png","icon_background_color":"#FF9E67","icon_mask_base_uri":"https://maps.gstatic.com/mapfiles/place_api/icons/v2/restaurant_pinlet","name":"MR PHUNG","opening_hours":{"open_now":true},"photos":[{"height":1291,"html_attributions":["<a href=\"https://maps.google.com/maps/contrib/116951371603411368650\">Unbe Kannt</a>"],"photo_reference":"AeJbb3f_cscwc1uMrhbzYS9JFoay72WdwdMVZX6f_ffwnWXECfCqLGP4or0CnCxNeDtvin4R_yu0kj2JeRaZ-PwYnGZDnPolPO4rvrkDpQK_Rz5b1ATgxpDFf06WHF8Ksam-3FmQgoNiz8gPexD_eUxY6CTbfg5aRwGKfbSf3uFX5ZzGuLuC","width":2048}],"place_id":"ChIJoeGYFFgJvUcRx9w6Cbx9TjA","plus_code":{"compound_code":"4M52+QW Frankfurt","global_code":"9F2C4M52+QW"},"price_level":1,"rating":3,"reference":"ChIJoeGYFFgJvUcRx9w6Cbx9TjA","types":["restaurant","food","point_of_interest","establishment"],"user_ratings_total":97},{"business_status":"OPERATIONAL","formatted_address":"Große Bockenheimer Str. 37, 60313 Frankfurt am Main","geometry":{"location":{"lat":50.1145538,"lng":8.673818299999999},"viewport":{"northeast":{"lat":50.11600122989272,"lng":8.67522292989272},"southwest":{"lat":50.11330157010728,"lng":8.672523270107277}}},"icon":"https://maps.gstatic.com/mapfiles/place_api/icons/v1/png_71/restaurant-71.png","icon_background_color":"#FF9E67","icon_mask_base_uri":"https://maps.gstatic.com/mapfiles/place_api/icons/v2/restaurant_pinlet","name":"China Restaurant Jasmin","place_id":"ChIJ364Ss60OvUcR6-hae24j8_0","plus_code":{"compound_code":"4M7F+RG Frankfurt","global_code":"9F2C4M7F+RG"},"rating":3,"reference":"ChIJ364Ss60OvUcR6-hae24j8_0","types":["restaurant","food","point_of_interest","establishment"],"user_ratings_total":2},{"business_status":"OPERATIONAL","formatted_address":"Börsenstraße 13-15, 60313 Frankfurt am Main","geometry":{"location":{"lat":50.11580559999999,"lng":8.6763961},"viewport":{"northeast":{"lat":50.11717917989272,"lng":8.677833779892723},"southwest":{"lat":50.11447952010728,"lng":8.675134120107279}}},"icon":"https://maps.gstatic.com/mapfiles/place_api/icons/v1/png_71/restaurant-71.png","icon_background_color":"#FF9E67","icon_mask_base_uri":"https://maps.gstatic.com/mapfiles/place_api/icons/v2/restaurant_pinlet","name":"Chinese Restaurant","opening_hours":{"open_now":true},"photos":[{"height":4032,"html_attributions":["<a href=\"https://maps.google.com/maps/contrib/107865460514744134328\">A Google User</a>"],"photo_reference":"AeJbb3eaoX2x62PnPBZGQyteaiUoPNP_SDv0ZOPIA5jxoyUKew4uGcGxfjPplN-7vJ5UEJlixohBd6o3jovdy9EScKJar7ayuDUU6sIJ3LrfcIa-xGdhsnCNuXBn1fHTSN60MtcNRTwTkGaUA6t2KJJ7NfWph41m1OVIDdYRiqKHZPR3vAh1","width":3024}],"place_id":"ChIJp20ZDa4OvUcRSaiya4FG81Y","plus_code":{"compound_code":"4M8G+8H Frankfurt","global_code":"9F2C4M8G+8H"},"rating":0,"reference":"ChIJp20ZDa4OvUcRSaiya4FG81Y","types":["restaurant","food","point_of_interest","establishment"],"user_ratings_total":0},{"business_status":"OPERATIONAL","formatted_address":"Neue Mainzer Str. 24, 60311 Frankfurt am Main","geometry":{"location":{"lat":50.10979709999999,"lng":8.674510100000001},"viewport":{"northeast":{"lat":50.11111112989272,"lng":8.675764929892722},"southwest":{"lat":50.10841147010728,"lng":8.673065270107278}}},"icon":"https://maps.gstatic.com/mapfiles/place_api/icons/v1/png_71/restaurant-71.png","icon_background_color":"#FF9E67","icon_mask_base_uri":"https://maps.gstatic.com/mapfiles/place_api/icons/v2/restaurant_pinlet","name":"China Retaurant Waipo Jia","opening_hours":{"open_now":false},"place_id":"ChIJ34LAgvcPvUcRkT8DgXUEGJQ","plus_code":{"compound_code":"4M5F+WR Frankfurt","global_code":"9F2C4M5F+WR"},"rating":0,"reference":"ChIJ34LAgvcPvUcRkT8DgXUEGJQ","types":["restaurant","food","point_of_interest","establishment"],"user_ratings_total":0},{"business_status":"OPERATIONAL","formatted_address":"Poststraße 10, 60329 Frankfurt am Main","geometry":{"location":{"lat":50.1078009,"lng":8.6610508},"viewport":{"northeast":{"lat":50.10912367989272,"lng":8.662426479892721},"southwest":{"lat":50.10642402010728,"lng":8.659726820107277}}},"icon":"https://maps.gstatic.com/mapfiles/place_api/icons/v1/png_71/restaurant-71.png","icon_background_color":"#FF9E67","icon_mask_base_uri":"https://maps.gstatic.com/mapfiles/place_api/icons/v2/restaurant_pinlet","name":"Chinarestaurant Gua Xian","place_id":"ChIJMajV91UJvUcRLwIioVS7GSA","plus_code":{"compound_code":"4M56+4C Frankfurt","global_code":"9F2C4M56+4C"},"rating":0,"reference":"ChIJMajV91UJvUcRLwIioVS7GSA","types":["restaurant","food","point_of_interest","establishment"],"user_ratings_total":0}]