[{"business_status":"OPERATIONAL","formatted_address":"Unit A3, 24 Rosyth Rd, Glasgow G5 0YD","geometry":{"location":{"lat":55.8366199,"lng":-4.235060799999999},"viewport":{"northeast":{"lat":55.83803747989272,"lng":-4.233862320107278},"southwest":{"lat":55.83533782010728,"lng":-4.236561979892722}}},"icon":"https://maps.gstatic.com/mapfiles/place_api/icons/v1/png_71/restaurant-71.png","icon_background_color":"#FF9E67","icon_mask_base_uri":"https://maps.gstatic.com/mapfiles/place_api/icons/v2/restaurant_pinlet","name":"Thyme Glasgow","opening_hours":{"open_now":true},"photos":[{"height":2208,"html_attributions":["<a href=\"https://maps.google.com/maps/contrib/104657887542220246704\">Reem key</a>"],"photo_reference":"AeJbb3d98JZnSQBjE6fF55a6jC23JHg5P0f5p0JaBKGdDmkZkojwSI2zWNgRTS9iC3r6i6bg-BEtlgxnW-xv_J_RfjmXqaMY7PFpvwHE6CDNkXcD3LvDYH4qDGiAKO2fCFtfjFPwDwBr-cotn5yQaHGI9F2ceyWLPwBWAU-sdiz21r9R79TI","width":1242}],"place_id":"ChIJZc_-AkdHiEgRQoyPcpwz3mE","plus_code":{"compound_code":"RQP7+JX Glasgow","global_code":"9C7QRQP7+JX"},"rating":5,"reference":"ChIJZc_-AkdHiEgRQoyPcpwz3mE","types":["meal_takeaway","restaurant","food","point_of_interest","establishment"],"user_ratings_total":12},{"business_status":"OPERATIONAL","formatted_address":"16 Park Rd, Glasgow G4 9JG","geometry":{"location":{"lat":55.8739101,"lng":-4.2784669},"viewport":{"northeast":{"lat":55.87523967989272,"lng":-4.277052720107279},"southwest":{"lat":55.87254002010727,"lng":-4.279752379892723}}},"icon":"https://maps.gstatic.com/mapfiles/place_api/icons/v1/png_71/restaurant-71.png","icon_background_color":"#FF9E67","icon_mask_base_uri":"https://maps.gstatic.com/mapfiles/place_api/icons/v2/restaurant_pinlet","name":"levantpies","photos":[{"height":1200,"html_attributions":["<a href=\"https://maps.google.com/maps/contrib/103665252114794506718\">A Google User</a>"],"photo_reference":"AeJbb3dk7HvJvrcPHkX_4h9K7S8XeAgYSxJ2uxHwL9GYEC4mETK9lWpDFyX-vWUWkoPnfdyLhVaFo8KKFA3uzDMdbY8j79OA0eCXmkEaphC7rkImPBaLlRFiaXK8gzNCO3OV13UBBw8gjzUyUnsWClrIo6gksT5pR8a5wT7YHBxIOmgDUJGU","width":1600}],"place_id":"ChIJ3ygRG7tFiEgRNZtb17reBtQ","plus_code":{"compound_code":"VPFC+HJ Glasgow","global_code":"9C7QVPFC+HJ"},"rating":5,"reference":"ChIJ3ygRG7tFiEgRNZtb17reBtQ","types":["restaurant","food","point_of_interest","establishment"],"user_ratings_total":6},{"business_status":"OPERATIONAL","formatted_address":"116 Sauchiehall St, Glasgow G2 3DH","geometry":{"location":{"lat":55.86488139999999,"lng":-4.257325199999999},"viewport":{"northeast":{"lat":55.86622182989271,"lng":-4.255893670107278},"southwest":{"lat":55.86352217010727,"lng":-4.258593329892721}}},"icon":"https://maps.gstatic.com/mapfiles/place_api/icons/v1/png_71/restaurant-71.png","icon_background_color":"#FF9E67","icon_mask_base_uri":"https://maps.gstatic.com/mapfiles/place_api/icons/v2/restaurant_pinlet","name":"Falafel To Go","opening_hours":{"open_now":true},"photos":[{"height":4608,"html_attributions":["<a href=\"https://maps.google.com/maps/contrib/104725407889795350176\">Ian Moffat</a>"],"photo_reference":"AeJbb3e4maSKc8-xwuWrgZHBNmMJgiNo8FOgbirbrQZT550BF8Ng2HTJIBC8CddNgFpvwsa4KLxtbNiqeh79D1DH6iiqsVuzKHq1pazc_IAsTrBzSi3PXiKgzAP_CAMjJ_3c92eOsfr2V8O7cm5db7VYIYuzZaZthC2M3qgx0dUFQXp2i0F-","width":3456}],"place_id":"ChIJY2pC4SBEiEgRCWk9coGU7oA","plus_code":{"compound_code":"VP7V+X3 Glasgow","global_code":"9C7QVP7V+X3"},"price_level":1,"rating":4.8,"reference":"ChIJY2pC4SBEiEgRCWk9coGU7oA","types":["meal_takeaway","restaurant","food","point_of_interest","establishment"],"user_ratings_total":473},{"business_status":"OPERATIONAL","formatted_address":"1527 Shettleston Rd, Glasgow G32 9AS","geometry":{"location":{"lat":55.8509179,"lng":-4.1562715},"viewport":{"northeast":{"lat":55.85221937989272,"lng":-4.154939620107278},"southwest":{"lat":55.84951972010727,"lng":-4.157639279892722}}},"icon":"https://maps.gstatic.com/mapfiles/place_api/icons/v1/png_71/restaurant-71.png","icon_background_color":"#FF9E67","icon_mask_base_uri":"https://maps.gstatic.com/mapfiles/place_api/icons/v2/restaurant_pinlet","name":"Grill & Chill","opening_hours":{"open_now":true},"photos":[{"height":2268,"html_attributions":["<a href=\"https://maps.google.com/maps/contrib/108811571671358535884\">A Google User</a>"],"photo_reference":"AeJbb3cpkHyZe9QIoeNX96wBraKCfBIU9-6gsjagA14PxwKpqC7mY4aYfhtSrOK8NGAnZRKFG_505jqTXt70qnBGkVCLYDkS3QOPVLv8M4OzXxT4T1aH0Rmp-Nip3RJmQQwZTARTs7K0HbnZKLryUzu7QShkOUOTaqf-dNjw2RKfKO0Aka36","width":4032}],"place_id":"ChIJXQPyo9hBiEgRIXDX5cXDwKM","plus_code":{"compound_code":"VR2V+9F Glasgow","global_code":"9C7QVR2V+9F"},"rating":4.7,"reference":"ChIJXQPyo9hBiEgRIXDX5cXDwKM","types":["restaurant","food","store","point_of_interest","establishment"],"user_ratings_total":46},{"business_status":"OPERATIONAL","formatted_address":"142 Battlefield Rd, Langside, Glasgow G42 9JT","geometry":{"location":{"lat":55.8263867,"lng":-4.2653885},"viewport":{"northeast":{"lat":55.82773797989272,"lng":-4.264035370107278},"southwest":{"lat":55.82503832010728,"lng":-4.266735029892722}}},"icon":"https://maps.gstatic.com/mapfiles/place_api/icons/v1/png_71/restaurant-71.png","icon_background_color":"#FF9E67","icon_mask_base_uri":"https://maps.gstatic.com/mapfiles/place_api/icons/v2/restaurant_pinlet","name":"The baldy chef’s kitchen","opening_hours":{"open_now":true},"photos":[{"height":4032,"html_attributions":["<a href=\"https://maps.google.com/maps/contrib/104685669512809533889\">Maureen Moore</a>"],"photo_reference":"AeJbb3e192dhBxnQ1i17Nv6LiZFlUtOISA4RNfneRwSGTOJX0mfroFR6lZQMOUZ6XspSGH0nWgmClxeWX5s7mK1hUDa6_rys9wxJHwyCishBhhZ_QOv68s_FPeYJdlYB0XehqX_ZVE9VX0QH2et6TzISZBS9MjY9pXr5gjwP-OIsBkLmiwYf","width":3024}],"place_id":"ChIJzTzKuy9HiEgR5veqph6WZg8","plus_code":{"compound_code":"RPGM+GQ Glasgow","global_code":"9C7QRPGM+GQ"},"rating":4.7,"reference":"ChIJzTzKuy9HiEgR5veqph6WZg8","types":["restaurant","food","point_of_interest","establishment"],"user_ratings_total":24},{"business_status":"OPERATIONAL","formatted_address":"174-176 Saracen St, Possilpark, Glasgow G22 5EP","geometry":{"location":{"lat":55.8824841,"lng":-4.2540151},"viewport":{"northeast":{"lat":55.88384627989272,"lng":-4.252800670107278},"southwest":{"lat":55.88114662010728,"lng":-4.255500329892722}}},"icon":"https://maps.gstatic.com/mapfiles/place_api/icons/v1/png_71/restaurant-71.png","icon_background_color":"#FF9E67","icon_mask_base_uri":"https://maps.gstatic.com/mapfiles/place_api/icons/v2/restaurant_pinlet","name":"Palmyra Restaurant","opening_hours":{"open_now":true},"photos":[{"height":768,"html_attributions":["<a href=\"https://maps.google.com/maps/contrib/108260762295280244477\">A Google User</a>"],"photo_reference":"AeJbb3f5dLjYgjKyYoA4EZ5Co9-I1htMsUAnmYpZchpxeQsEQ3xwd37L0GQGd3wJ1zx9e7TsjLxweoDwMlNBHVvPpCx3KrzJ_PKuTDAJfDbRXUUumLrBpbNUdbP6tRg8aw7C53ZWXcYuQVVLhZE6cBshieIR0bN4rDxmez_udv9DqlXB7X1q","width":1024}],"place_id":"ChIJ9bm80L5FiEgRacMbzUdzQTw","plus_code":{"compound_code":"VPJW+X9 Glasgow","global_code":"9C7QVPJW+X9"},"rating":4.7,"reference":"ChIJ9bm80L5FiEgRacMbzUdzQTw","types":["restaurant","food","point_of_interest","establishment"],"user_ratings_total":21},{"business_status":"OPERATIONAL","formatted_address":"113 King St, Glasgow G1 5RB","geometry":{"location":{"lat":55.8550372,"lng":-4.2471197},"viewport":{"northeast":{"lat":55.85639282989272,"lng":-4.245830070107278},"southwest":{"lat":55.85369317010728,"lng":-4.248529729892722}}},"icon":"https://maps.gstatic.com/mapfiles/place_api/icons/v1/png_71/restaurant-71.png","icon_background_color":"#FF9E67","icon_mask_base_uri":"https://maps.gstatic.com/mapfiles/place_api/icons/v2/restaurant_pinlet","name":"Shawarma King","opening_hours":{"open_now":true},"photos":[{"height":3024,"html_attributions":["<a href=\"https://maps.google.com/maps/contrib/100070222826236660712\">فواز زبن العربيد</a>"],"photo_reference":"AeJbb3dqLLFyyBFMycIrY5uBpXhLJIlteuIHIPiiVjPbuMwT5B2N5u5wlVyRwjsUUnuaUL_quJZdyren8WIEqvISRUTSJiieHTrBLPqQ55w3vF0CoEYZ0WnRe9fYebTGCNtroFg7_UqO2TyMBIY-Xo1T0xgsKLBP9zbjIAddJrKBnR0U0_YY","width":4032}],"place_id":"ChIJ6WIzTaJGiEgRbfXxsDb9zB8","plus_code":{"compound_code":"VQ43+25 Glasgow","global_code":"9C7QVQ43+25"},"price_level":1,"rating":4.6,"reference":"ChIJ6WIzTaJGiEgRbfXxsDb9zB8","types":["meal_takeaway","restaurant","food","point_of_interest","establishment"],"user_ratings_total":1210},{"business_status":"OPERATIONAL","formatted_address":"33 Howard St, Glasgow G1 4BA","geometry":{"location":{"lat":55.8569914,"lng":-4.2560123},"viewport":{"northeast":{"lat":55.85830102989272,"lng":-4.254683670107279},"southwest":{"lat":55.85560137010728,"lng":-4.257383329892723}}},"icon":"https://maps.gstatic.com/mapfiles/place_api/icons/v1/png_71/restaurant-71.png","icon_background_color":"#FF9E67","icon_mask_base_uri":"https://maps.gstatic.com/mapfiles/place_api/icons/v2/restaurant_pinlet","name":"Lazord Syrian Street Food","opening_hours":{"open_now":true},"photos":[{"height":918,"html_attributions":["<a href=\"https://maps.google.com/maps/contrib/115841260327014415141\">A Google User</a>"],"photo_reference":"AeJbb3dGa3vBqcgHU7AVPtiLxJ89SRNKaPRIRQZms48elECDqesoFFwoQj4946sjW0NEMIU5urEIUmxZwbg0B7EsS0jYkO8J2RBMMjDXdfl0LBmO7ehJW0FXC4Uf4XlJR3BJNhKYX91tchnY_m6zp0rlEa4cYihe5Reby3ESws1Yd2uaEQMW","width":918}],"place_id":"ChIJRZOBy55GiEgRSEpXAxm_ZMc","plus_code":{"compound_code":"VP4V+QH Glasgow","global_code":"9C7QVP4V+QH"},"price_level":1,"rating":4.6,"reference":"ChIJRZOBy55GiEgRSEpXAxm_ZMc","types":["meal_takeaway","restaurant","food","point_of_interest","establishment"],"user_ratings_total":480},{"business_status":"OPERATIONAL","formatted_address":"22 Bridge St, Glasgow G5 9HR","geometry":{"location":{"lat":55.8538852,"lng":-4.2587496},"viewport":{"northeast":{"lat":55.85516377989272,"lng":-4.257371520107276},"southwest":{"lat":55.85246412010728,"lng":-4.26007117989272}}},"icon":"https://maps.gstatic.com/mapfiles/place_api/icons/v1/png_71/restaurant-71.png","icon_background_color":"#FF9E67","icon_mask_base_uri":"https://maps.gstatic.com/mapfiles/place_api/icons/v2/restaurant_pinlet","name":"Palmtree Kitchen - مطعم النخلة","opening_hours":{"open_now":true},"photos":[{"height":3024,"html_attributions":["<a href=\"https://maps.google.com/maps/contrib/101979569496322308959\">Eri Willy</a>"],"photo_reference":"AeJbb3fSse6MuB2pIPwSLUM0_eswEozsrdRHcfPckRbL_HiauVoSHNn7XJByqKBU0FVbcQ-LmXFZB8J37HOEVGQl7AW3Cd0XChy5EfzNJkPGVyYRXoZyasrIUV7A8DhOhcJ0G3iV9FGe9H67hH5UWZb7F9dHboBix7-JVrERxOTatIgnMUhl","width":4032}],"place_id":"ChIJVxLmtVJHiEgRSpYbPTSD1Ds","plus_code":{"compound_code":"VP3R+HG Glasgow","global_code":"9C7QVP3R+HG"},"rating":4.6,"reference":"ChIJVxLmtVJHiEgRSpYbPTSD1Ds","types":["restaurant","food","point_of_interest","establishment"],"user_ratings_total":239},{"business_status":"OPERATIONAL","formatted_address":"211 Wallace St, Glasgow G5 8NT","geometry":{"location":{"lat":55.8523678,"lng":-4.2673602},"viewport":{"northeast":{"lat":55.85387072989272,"lng":-4.265915620107277},"southwest":{"lat":55.85117107010727,"lng":-4.268615279892721}}},"icon":"https://maps.gstatic.com/mapfiles/place_api/icons/v1/png_71/restaurant-71.png","icon_background_color":"#FF9E67","icon_mask_base_uri":"https://maps.gstatic.com/mapfiles/place_api/icons/v2/restaurant_pinlet","name":"Syrian Pie","opening_hours":{"open_now":true},"photos":[{"height":1920,"html_attributions":["<a href=\"https://maps.google.com/maps/contrib/110193390671157034290\">Abbas Kasim Mohammed</a>"],"photo_reference":"AeJbb3eovIuMWQNqYl4cNOm7DIwNFgpD148_C31fz6suEYotGiM4CXKc82bkyNez8M2eMy3iFyDfXx-bT9vV4leWldzKnDfx4JcNC-PwqBJuudmTlVNO1YaH6lSMl4MPuWSX_jmsm6uW6egpITIx4gcr-QpgtKjNyOjEaAs2lfGBqFkd3M4J","width":1080}],"place_id":"ChIJdaEXvKBHiEgRqdOcu_qCFE0","plus_code":{"compound_code":"VP2M+W3 Glasgow","global_code":"9C7QVP2M+W3"},"rating":4.6,"reference":"ChIJdaEXvKBHiEgRqdOcu_qCFE0","types":["restaurant","food","point_of_interest","establishment"],"user_ratings_total":230},{"business_status":"OPERATIONAL","formatted_address":"1 Ashley St, Glasgow G3 6DR","geometry":{"location":{"lat":55.8691597,"lng":-4.2736243},"viewport":{"northeast":{"lat":55.87048917989272,"lng":-4.272204220107279},"southwest":{"lat":55.86778952010728,"lng":-4.274903879892722}}},"icon":"https://maps.gstatic.com/mapfiles/place_api/icons/v1/png_71/restaurant-71.png","icon_background_color":"#FF9E67","icon_mask_base_uri":"https://maps.gstatic.com/mapfiles/place_api/icons/v2/restaurant_pinlet","name":"Mrs Falafel","opening_hours":{"open_now":true},"photos":[{"height":3456,"html_attributions":["<a href=\"https://maps.google.com/maps/contrib/108022746894823708971\">A Google User</a>"],"photo_reference":"AeJbb3eTh0Ey6Iiq2slLN6N9W_yN2mqjSI05uI6PwqiFVRhh80oMmcXFx5WAJ_XRr13oOjZ6fOemDTngOmzX0WM29_it3NFhkv1M49ANx9NNgBew-urBiG7PBN0ClgISjC7LCnVL1ZQeIKdvmP4gHvXAQHHGZ5s7VLPpMYc4tz8pp00s9qlW","width":4608}],"place_id":"ChIJV63WzoZFiEgRAO0qk63sznY","plus_code":{"compound_code":"VP9G+MH Glasgow","global_code":"9C7QVP9G+MH"},"rating":4.6,"reference":"ChIJV63WzoZFiEgRAO0qk63sznY","types":["meal_takeaway","restaurant","food","point_of_interest","establishment"],"user_ratings_total":111},{"business_status":"OPERATIONAL","formatted_address":"73 Lister St, Glasgow G4 0BZ","geometry":{"location":{"lat":55.8669842,"lng":-4.242526199999999},"viewport":{"northeast":{"lat":55.86836597989272,"lng":-4.241003220107277},"southwest":{"lat":55.86566632010727,"lng":-4.243702879892721}}},"icon":"https://maps.gstatic.com/mapfiles/place_api/icons/v1/png_71/shopping-71.png","icon_background_color":"#4B96F3","icon_mask_base_uri":"https://maps.gstatic.com/mapfiles/place_api/icons/v2/shoppingcart_pinlet","name":"Zad foods","opening_hours":{"open_now":true},"photos":[{"height":654,"html_attributions":["<a href=\"https://maps.google.com/maps/contrib/112334544206802099667\">A Google User</a>"],"photo_reference":"AeJbb3cIljsLKgVvf1N7TI78poaQYu4YaUK67V8hIbASVcUCN_7SfI3cBvOju5jO7hjtj886EGyebqHMKQvMnwmFQLjKZEEmcaT4ofTLT3-AtylnpMuCwbOlxtMjdVJZ8_F56sbYuELQUoM8PL8nJ1lC53iRy-aLHdBkgY7w4CXv6a_GBldh","width":1022}],"place_id":"ChIJd2g62zdFiEgRSvXqGgHxXuU","plus_code":{"compound_code":"VQ84+QX Glasgow","global_code":"9C7QVQ84+QX"},"rating":4.6,"reference":"ChIJd2g62zdFiEgRSvXqGgHxXuU","types":["grocery_or_supermarket","restaurant","food","store","point_of_interest","establishment"],"user_ratings_total":50},{"business_status":"OPERATIONAL","formatted_address":"49 W Nile St, Glasgow G1 2PT","geometry":{"location":{"lat":55.8618441,"lng":-4.2552198},"viewport":{"northeast":{"lat":55.86317857989272,"lng":-4.253788220107277},"southwest":{"lat":55.86047892010728,"lng":-4.256487879892721}}},"icon":"https://maps.gstatic.com/mapfiles/place_api/icons/v1/png_71/restaurant-71.png","icon_background_color":"#FF9E67","icon_mask_base_uri":"https://maps.gstatic.com/mapfiles/place_api/icons/v2/restaurant_pinlet","name":"'BABS","opening_hours":{"open_now":true},"photos":[{"height":1367,"html_attributions":["<a href=\"https://maps.google.com/maps/contrib/112217994746279415410\">&#39;BABS</a>"],"photo_reference":"AeJbb3eRi_pfTE6dzxI6ge167VFPWCd-J6gHwArsdaWDdkA8vQD6gvAc5X0RLpRMflaKbwLcnrbn2jLjl6M8AdpuzBcbxhcPnydPEyeWmXQbagAz_xWziEJB9nom432VTPDCn5MuQkUyW08frx93_pv-Xf--mWoVu4CJXm3IrLGtMGrcq5jA","width":2048}],"place_id":"ChIJ0SPs0p9GiEgR0Q_WtiJs2io","plus_code":{"compound_code":"VP6V+PW Glasgow","global_code":"9C7QVP6V+PW"},"price_level":1,"rating":4.5,"reference":"ChIJ0SPs0p9GiEgR0Q_WtiJs2io","types":["restaurant","food","point_of_interest","establishment"],"user_ratings_total":1291},{"business_status":"OPERATIONAL","formatted_address":"48 North Frederick Street, Glasgow G1 2BS","geometry":{"location":{"lat":55.8621667,"lng":-4.2483992},"viewport":{"northeast":{"lat":55.86352482989271,"lng":-4.247138020107278},"southwest":{"lat":55.86082517010727,"lng":-4.249837679892722}}},"icon":"https://maps.gstatic.com/mapfiles/place_api/icons/v1/png_71/restaurant-71.png","icon_background_color":"#FF9E67","icon_mask_base_uri":"https://maps.gstatic.com/mapfiles/place_api/icons/v2/restaurant_pinlet","name":"Pasha Glasgow","opening_hours":{"open_now":true},"photos":[{"height":1960,"html_attributions":["<a href=\"https://maps.google.com/maps/contrib/117950432185809199196\">David Gibson</a>"],"photo_reference":"AeJbb3etjLkLsYf44yl49DkbNJ56fF3n7nSdnBNHXWXx_pqe7nkO56AfJjhL75ShWaGV7xYTEn2hKe6Q5K0lPoITgvXTdLU8quanKAv0jZhLWef_0yptT459ruRWvxeEzKx90cDWuqS-KrexFWVpwEBfrtq84ZbwmMKw89dgNmOxAlzGLvKU","width":4032}],"place_id":"ChIJ1WYWfKBGiEgRA5TQGaKRGcU","plus_code":{"compound_code":"VQ62+VJ Glasgow","global_code":"9C7QVQ62+VJ"},"price_level":1,"rating":4.5,"reference":"ChIJ1WYWfKBGiEgRA5TQGaKRGcU","types":["restaurant","food","point_of_interest","establishment"],"user_ratings_total":809},{"business_status":"OPERATIONAL","formatted_address":"450 Paisley Rd W, Glasgow G51 1PX","geometry":{"location":{"lat":55.85151860000001,"lng":-4.2986882},"viewport":{"northeast":{"lat":55.85276852989272,"lng":-4.297283170107278},"southwest":{"lat":55.85006887010728,"lng":-4.299982829892722}}},"icon":"https://maps.gstatic.com/mapfiles/place_api/icons/v1/png_71/restaurant-71.png","icon_background_color":"#FF9E67","icon_mask_base_uri":"https://maps.gstatic.com/mapfiles/place_api/icons/v2/restaurant_pinlet","name":"Beirut Star","opening_hours":{"open_now":true},"photos":[{"height":3024,"html_attributions":["<a href=\"https://maps.google.com/maps/contrib/104785587722131305362\">Fabs Man</a>"],"photo_reference":"AeJbb3ebSVcybBwQ8l9uhbkhBIL3lKRSSk1HbUi_4QOzNHiwK_p9zf_HO_GNA0E9sb7gC1I5SKN41Wjyp2JG5DvUWU71NUPNJv2bY2urdoL1hHDcyuTZO-L3j546l7jE7NMWHSBdbzTLA0eyVA89ry-yWtxQ4w7a72-CNrMi6XbU5bHVL-OL","width":4032}],"place_id":"ChIJfwyLc4dGiEgRDshrPLu0Ji4","plus_code":{"compound_code":"VP22+JG Glasgow","global_code":"9C7QVP22+JG"},"price_level":2,"rating":4.5,"reference":"ChIJfwyLc4dGiEgRDshrPLu0Ji4","types":["restaurant","food","point_of_interest","establishment"],"user_ratings_total":592},{"business_status":"OPERATIONAL","formatted_address":"8 High St, Glasgow G1 1NL","geometry":{"location":{"lat":55.856817,"lng":-4.2432393},"viewport":{"northeast":{"lat":55.85817072989271,"lng":-4.241993870107279},"southwest":{"lat":55.85547107010727,"lng":-4.244693529892722}}},"icon":"https://maps.gstatic.com/mapfiles/place_api/icons/v1/png_71/restaurant-71.png","icon_background_color":"#FF9E67","icon_mask_base_uri":"https://maps.gstatic.com/mapfiles/place_api/icons/v2/restaurant_pinlet","name":"Eda Restaurant","opening_hours":{"open_now":true},"photos":[{"height":4032,"html_attributions":["<a href=\"https://maps.google.com/maps/contrib/102132318495948517874\">Badr Ali</a>"],"photo_reference":"AeJbb3cLvjASkyvHreEMV-fiRprKaYC-DNUm8cnAVWEJrwiG69fjZiRBWTd8S_g5vfzDsbuhztEobZFsmEuyxtUhZWdC7wHxl1uIDfrUZE8aPWueYJMHx_wGrcghXANfz_UexyNAU6iCFE4i9ryBb2pm3KZpd47kCL3w26Ui0EHpyG0pnPf_","width":3024}],"place_id":"ChIJ76BfsH5HiEgRgaTQMybCENA","plus_code":{"compound_code":"VQ44+PP Glasgow","global_code":"9C7QVQ44+PP"},"rating":4.5,"reference":"ChIJ76BfsH5HiEgRgaTQMybCENA","types":["restaurant","food","point_of_interest","establishment"],"user_ratings_total":440},{"business_status":"OPERATIONAL","formatted_address":"12-14 Allison St, Glasgow G42 8NN","geometry":{"location":{"lat":55.8368617,"lng":-4.2687314},"viewport":{"northeast":{"lat":55.83827237989272,"lng":-4.267374620107278},"southwest":{"lat":55.83557272010728,"lng":-4.270074279892722}}},"icon":"https://maps.gstatic.com/mapfiles/place_api/icons/v1/png_71/restaurant-71.png","icon_background_color":"#FF9E67","icon_mask_base_uri":"https://maps.gstatic.com/mapfiles/place_api/icons/v2/restaurant_pinlet","name":"Kurdish Street Food","opening_hours":{"open_now":true},"photos":[{"height":1960,"html_attributions":["<a href=\"https://maps.google.com/maps/contrib/109683541696303753558\">M Ali</a>"],"photo_reference":"AeJbb3eqVTwUJ-VdfMAbyn5dOhQ20OolMJTZJsNPn9VDIacnVp_VtAOdOow47Mi7GpZ5f5p0JRyOyeSlx5avB0mvOoUgPa5KsQ2Zxq7jk01xcpEL2xt1TlMOZC6QnRkGVoefmbN_tmEG4RprMpufrUlnDWUzY-6K8vmIaSaouJtHNwAilbRP","width":4032}],"place_id":"ChIJOYsof_RGiEgRrdysO85EVw4","plus_code":{"compound_code":"RPPJ+PG Glasgow","global_code":"9C7QRPPJ+PG"},"price_level":1,"rating":4.5,"reference":"ChIJOYsof_RGiEgRrdysO85EVw4","types":["restaurant","food","point_of_interest","establishment"],"user_ratings_total":414},{"business_status":"OPERATIONAL","formatted_address":"17 Hyndland St, Partick, Glasgow G11 5QE","geometry":{"location":{"lat":55.8713059,"lng":-4.3027712},"viewport":{"northeast":{"lat":55.87263797989272,"lng":-4.301332670107278},"southwest":{"lat":55.86993832010727,"lng":-4.304032329892721}}},"icon":"https://maps.gstatic.com/mapfiles/place_api/icons/v1/png_71/restaurant-71.png","icon_background_color":"#FF9E67","icon_mask_base_uri":"https://maps.gstatic.com/mapfiles/place_api/icons/v2/restaurant_pinlet","name":"BBQ Wrap Salad","opening_hours":{"open_now":true},"photos":[{"height":5504,"html_attributions":["<a href=\"https://maps.google.com/maps/contrib/109679735494431834491\">A Google User</a>"],"photo_reference":"AeJbb3dE5zPJ5b76qKzFnuYg3wHvAN05Tem9Acm5jFogLnV5dqlec1rReuPz0oOqTWquPTMrGq9od_9Zl1UE6PoXZqK0M5OC-BFZ1QqsDvpQKayyT7pwSgJ1_uWVMErAdNhSSWqZYLkrCVifw2eSHJVX4gu4J4l4Hgaq1L1qkhxYghNjhkBy","width":8256}],"place_id":"ChIJy8AbYcRFiEgRRraW7nw87Dc","plus_code":{"compound_code":"VMCW+GV Glasgow","global_code":"9C7QVMCW+GV"},"rating":4.5,"reference":"ChIJy8AbYcRFiEgRRraW7nw87Dc","types":["restaurant","food","point_of_interest","establishment"],"user_ratings_total":191},{"business_status":"OPERATIONAL","formatted_address":"21 Forth St, Pollokshields, Glasgow G41 2SP","geometry":{"location":{"lat":55.84320160000001,"lng":-4.2698003},"viewport":{"northeast":{"lat":55.84456122989272,"lng":-4.268545120107278},"southwest":{"lat":55.84186157010728,"lng":-4.271244779892722}}},"icon":"https://maps.gstatic.com/mapfiles/place_api/icons/v1/png_71/restaurant-71.png","icon_background_color":"#FF9E67","icon_mask_base_uri":"https://maps.gstatic.com/mapfiles/place_api/icons/v2/restaurant_pinlet","name":"Desi Dhabba","opening_hours":{"open_now":true},"photos":[{"height":2013,"html_attributions":["<a href=\"https://maps.google.com/maps/contrib/115348292307104099187\">Imran Sajid</a>"],"photo_reference":"AeJbb3fwf3CyPRn8orzFkrHjuDJqx64tkHu1d_bWZZ1ZFk-2ITgi9ZnhWJyay1rijsaMsrWM41KtUfb7A51m8leUqSeA5Nm1O7G9zAO4r3BKypUTDskcgXXqK4hA31yYMwz6A_llc72Bg56PZVeia16VGIVvMj16wOi6t3MMHjeN418Ca1Iu","width":1800}],"place_id":"ChIJZQWnW3hHiEgRrXPEYWgLx1Y","plus_code":{"compound_code":"RPVJ+73 Glasgow","global_code":"9C7QRPVJ+73"},"rating":4.5,"reference":"ChIJZQWnW3hHiEgRrXPEYWgLx1Y","types":["restaurant","food","point_of_interest","establishment"],"user_ratings_total":109},{"business_status":"OPERATIONAL","formatted_address":"17-23 Bridge St, Glasgow G5 9JB","geometry":{"location":{"lat":55.853964,"lng":-4.258210399999999},"viewport":{"northeast":{"lat":55.85530567989272,"lng":-4.256940970107278},"southwest":{"lat":55.85260602010728,"lng":-4.259640629892722}}},"icon":"https://maps.gstatic.com/mapfiles/place_api/icons/v1/png_71/restaurant-71.png","icon_background_color":"#FF9E67","icon_mask_base_uri":"https://maps.gstatic.com/mapfiles/place_api/icons/v2/restaurant_pinlet","name":"Namak Mandi","opening_hours":{"open_now":true},"photos":[{"height":3024,"html_attributions":["<a href=\"https://maps.google.com/maps/contrib/105230036479104682008\">raghav ragh</a>"],"photo_reference":"AeJbb3dWntlVlxkap44A7ABQr930aKKK7jUlBw_E8BdeY5P1oKjMX2e22gmRXIZhA8PXs2fhN48RLnUINsrXuAxuGF68UWVFzv9Le0RQX5Qdjh9654wZzSAIihkR28EpXLsO3ZhTgC55_WZwI51GUF0Tv-6xcPh7LY9JakQdjI3KcWNMa9GS","width":4032}],"place_id":"ChIJj_ToLppGiEgRvZ00FNzMjG0","plus_code":{"compound_code":"VP3R+HP Glasgow","global_code":"9C7QVP3R+HP"},"rating":4.4,"reference":"ChIJj_ToLppGiEgRvZ00FNzMjG0","types":["restaurant","food","point_of_interest","establishment"],"user_ratings_total":1319},{"business_status":"OPERATIONAL","formatted_address":"Nithsdale Rd, Glasgow G41 2AL","geometry":{"location":{"lat":55.8365845,"lng":-4.2715215},"viewport":{"northeast":{"lat":55.83798547989272,"lng":-4.270042420107278},"southwest":{"lat":55.83528582010728,"lng":-4.272742079892722}}},"icon":"https://maps.gstatic.com/mapfiles/place_api/icons/v1/png_71/bar-71.png","icon_background_color":"#FF9E67","icon_mask_base_uri":"https://maps.gstatic.com/mapfiles/place_api/icons/v2/bar_pinlet","name":"The Bungo","opening_hours":{"open_now":true},"photos":[{"height":3012,"html_attributions":["<a href=\"https://maps.google.com/maps/contrib/101832156102117814668\">The Bungo</a>"],"photo_reference":"AeJbb3dsoFmlxzfcgG5qJJiGYaRCM58TMtCEdXURJPKHLdtIIjtUjdwO6xq1o1BV7Tdetz9KqXwEqfBsD3FqAsroGwz057x6o-i1njl0aLuSn6dtVA-LYCct7ldCOs5HVPrgEc5tV5owBSav5nd_MwzJmen_7j68E0ft1prOcrRVp_SJsGY","width":4519}],"place_id":"ChIJR0_qYfRGiEgR6JcKQOE8-1Q","plus_code":{"compound_code":"RPPH+J9 Glasgow","global_code":"9C7QRPPH+J9"},"price_level":2,"rating":4.4,"reference":"ChIJR0_qYfRGiEgR6JcKQOE8-1Q","types":["bar","restaurant","food","point_of_interest","establishment"],"user_ratings_total":891},{"business_status":"OPERATIONAL","formatted_address":"109 Candleriggs, Glasgow G1 1NP","geometry":{"location":{"lat":55.859042,"lng":-4.2454876},"viewport":{"northeast":{"lat":55.86038902989272,"lng":-4.244105920107279},"southwest":{"lat":55.85768937010727,"lng":-4.246805579892722}}},"icon":"https://maps.gstatic.com/mapfiles/place_api/icons/v1/png_71/restaurant-71.png","icon_background_color":"#FF9E67","icon_mask_base_uri":"https://maps.gstatic.com/mapfiles/place_api/icons/v2/restaurant_pinlet","name":"KoolBa","opening_hours":{"open_now":true},"photos":[{"height":3000,"html_attributions":["<a href=\"https://maps.google.com/maps/contrib/116211079173572644849\">Adebimpe Ismaila</a>"],"photo_reference":"AeJbb3eWKxig-lgN4oC06NepTdt_x0QFEHJMVpan6DrSe7lSrN9QuG8M5oj5BeeErI7qdSlUmfVCxe-gqQHXLlI7l0Q48uO_keGlgUM4x3bMjRX6aDthEcbDqgA19t5w_gFSRZRXlq8kosgEwPGzWdq0KPnpnF267JSCrh3x5GaNIslVSkw","width":4000}],"place_id":"ChIJUZFfPKFGiEgRhWfBCjErw5k","plus_code":{"compound_code":"VQ53+JQ Glasgow","global_code":"9C7QVQ53+JQ"},"price_level":2,"rating":4.4,"reference":"ChIJUZFfPKFGiEgRhWfBCjErw5k","types":["meal_takeaway","bar","restaurant","food","point_of_interest","establishment"],"user_ratings_total":862},{"business_status":"OPERATIONAL","formatted_address":"94 Saltmarket, Glasgow G1 5LD","geometry":{"location":{"lat":55.8554833,"lng":-4.2452349},"viewport":{"northeast":{"lat":55.85680592989272,"lng":-4.243808870107278},"southwest":{"lat":55.85410627010728,"lng":-4.246508529892722}}},"icon":"https://maps.gstatic.com/mapfiles/place_api/icons/v1/png_71/restaurant-71.png","icon_background_color":"#FF9E67","icon_mask_base_uri":"https://maps.gstatic.com/mapfiles/place_api/icons/v2/restaurant_pinlet","name":"Damasqino Restaurant & Cafe","opening_hours":{"open_now":true},"photos":[{"height":4144,"html_attributions":["<a href=\"https://maps.google.com/maps/contrib/104144754473946130655\">Eryk Rubianto</a>"],"photo_reference":"AeJbb3cF9yd9wEU7vTk9BVuC7B9QLROtG7ERpkLWJRQYqonvPrfWDGIAV7Y41Jx5JMauHWsKh3g7NXj_6WxPAVIy03axSsD2foOQFg6HUlyaOzLDxu_Gml4yB5M40uKAJdbdThp6AACZsvnnwZ2v6x4NDzyujaLankwtVr8oVYPfk1KrYKMi","width":5520}],"place_id":"ChIJoR0cjolHiEgRUPBwogqjpeg","plus_code":{"compound_code":"VQ43+5W Glasgow","global_code":"9C7QVQ43+5W"},"rating":4.4,"reference":"ChIJoR0cjolHiEgRUPBwogqjpeg","types":["restaurant","food","point_of_interest","establishment"],"user_ratings_total":670},{"business_status":"OPERATIONAL","formatted_address":"411-413 Great Western Rd, Glasgow G4 9JA","geometry":{"location":{"lat":55.8741841,"lng":-4.2783919},"viewport":{"northeast":{"lat":55.87558977989273,"lng":-4.277028570107278},"southwest":{"lat":55.87289012010728,"lng":-4.279728229892722}}},"icon":"https://maps.gstatic.com/mapfiles/place_api/icons/v1/png_71/restaurant-71.png","icon_background_color":"#FF9E67","icon_mask_base_uri":"https://maps.gstatic.com/mapfiles/place_api/icons/v2/restaurant_pinlet","name":"Saffron by Paradise","opening_hours":{"open_now":true},"photos":[{"height":3024,"html_attributions":["<a href=\"https://maps.google.com/maps/contrib/118136761815043416936\">E M</a>"],"photo_reference":"AeJbb3fLty1M5OmT_EqQXYL4wox8GDyfGvu4E3i3GFoPotZjk1x2huG3uzm4FaIl3LULcAmaVq7HwvyutI4GdkoW846eBFBvHjeeCuvUjF3PNRGve1w6Brcm5GlVmhrx-LghvosoyCAFsv1vHS9UAzb9HZcnxMFtVKyLkD6LCSfSzi6PCaO_","width":4032}],"place_id":"ChIJG20vKYNFiEgRhPf7Y0xQmVo","plus_code":{"compound_code":"VPFC+MJ Glasgow","global_code":"9C7QVPFC+MJ"},"rating":4.4,"reference":"ChIJG20vKYNFiEgRhPf7Y0xQmVo","types":["restaurant","food","point_of_interest","establishment"],"user_ratings_total":570},{"business_status":"OPERATIONAL","formatted_address":"146-148, Nelson St, Glasgow G5 8EJ","geometry":{"location":{"lat":55.853515,"lng":-4.2644112},"viewport":{"northeast":{"lat":55.85478792989272,"lng":-4.26303812010728},"southwest":{"lat":55.85208827010727,"lng":-4.265737779892723}}},"icon":"https://maps.gstatic.com/mapfiles/place_api/icons/v1/png_71/restaurant-71.png","icon_background_color":"#FF9E67","icon_mask_base_uri":"https://maps.gstatic.com/mapfiles/place_api/icons/v2/restaurant_pinlet","name":"Sholeh Persian Restaurant","opening_hours":{"open_now":true},"photos":[{"height":2268,"html_attributions":["<a href=\"https://maps.google.com/maps/contrib/117940379692806089788\">Abdul Jabbar Abd Hamid</a>"],"photo_reference":"AeJbb3eyVqId8pVHZSmD3KnwxYPQntDThs---UH_qeEV0dmfI-1nCV8UlCAW5YTe7KTqZV0cBLupso9RXs8S5J_dc3p-GYp6Go-g7IBfJF-udN5FUNZvWSXJiS53nGzoG1XijgZ5dPTcvOW2pHt29QDqj_wLnm5iUjsnopGDihio4kHXXLGo","width":4032}],"place_id":"ChIJXZi225pGiEgRBx1OSHr4ljE","plus_code":{"compound_code":"VP3P+C6 Glasgow","global_code":"9C7QVP3P+C6"},"price_level":2,"rating":4.4,"reference":"ChIJXZi225pGiEgRBx1OSHr4ljE","types":["restaurant","food","point_of_interest","establishment"],"user_ratings_total":544},{"business_status":"OPERATIONAL","formatted_address":"1363 Dumbarton Rd, Glasgow G14 9UZ","geometry":{"location":{"lat":55.8760159,"lng":-4.3434583},"viewport":{"northeast":{"lat":55.87737922989272,"lng":-4.342067320107278},"southwest":{"lat":55.87467957010727,"lng":-4.344766979892722}}},"icon":"https://maps.gstatic.com/mapfiles/place_api/icons/v1/png_71/restaurant-71.png","icon_background_color":"#FF9E67","icon_mask_base_uri":"https://maps.gstatic.com/mapfiles/place_api/icons/v2/restaurant_pinlet","name":"Lotus Lebanese Restaurant","opening_hours":{"open_now":true},"photos":[{"height":4032,"html_attributions":["<a href=\"https://maps.google.com/maps/contrib/103586216747886992312\">5 star barber 5 star barber</a>"],"photo_reference":"AeJbb3deyHNp6xPwL3wTFIgDniuVpFX6Kf3PB56ZMiOh1mAEwAuet_sD3837F6pbfhdIqhaABQrO7J0sCxnZCIYzFpjo-LzPjej4eCEDs0vjNe5m29YaZyu6fsteUuGDN0VEkyGzk8gqDQhKIqeb2KqizsSHxvqiBW15WzSR-jzZ1iRIO6Bd","width":3024}],"place_id":"ChIJl9gkrVhPiEgRXJQR26h8GNo","plus_code":{"compound_code":"VMG4+CJ Glasgow","global_code":"9C7QVMG4+CJ"},"rating":4.4,"reference":"ChIJl9gkrVhPiEgRXJQR26h8GNo","types":["restaurant","food","point_of_interest","establishment"],"user_ratings_total":318},{"business_status":"OPERATIONAL","formatted_address":"92 Kilbirnie St, Glasgow G5 8JD","geometry":{"location":{"lat":55.8470111,"lng":-4.264324},"viewport":{"northeast":{"lat":55.84830702989272,"lng":-4.263021620107278},"southwest":{"lat":55.84560737010728,"lng":-4.265721279892722}}},"icon":"https://maps.gstatic.com/mapfiles/place_api/icons/v1/png_71/cafe-71.png","icon_background_color":"#FF9E67","icon_mask_base_uri":"https://maps.gstatic.com/mapfiles/place_api/icons/v2/cafe_pinlet","name":"Velvet Lounge","opening_hours":{"open_now":true},"photos":[{"height":1600,"html_attributions":["<a href=\"https://maps.google.com/maps/contrib/111273382003721796033\">Velvet Lounge</a>"],"photo_reference":"AeJbb3cvObidrX0uaq9Ob-6wEYKSbHZ5mIpqyJtLdXlt-iGoitRMX3ZkBjosjnT7vUkBymXMpUXk7l8ju9X8WgZwieS95KH_WapYmk9SGZ8RAaJlS_MfR3T8Uly7Gs2EOejZCWhKrqlQtCnSXcJa6kJAOpwJ2aPsap6KbnJ73psnYRa3zxyv","width":1200}],"place_id":"ChIJS8z9II5GiEgRZpAK9NuqAZE","plus_code":{"compound_code":"RPWP+R7 Glasgow","global_code":"9C7QRPWP+R7"},"price_level":2,"rating":4.4,"reference":"ChIJS8z9II5GiEgRZpAK9NuqAZE","types":["cafe","restaurant","food","store","point_of_interest","establishment"],"user_ratings_total":197},{"business_status":"OPERATIONAL","formatted_address":"Unit 5, Greenlaw Village, Newton Mearns, Glasgow G77 6NP","geometry":{"location":{"lat":55.7828105,"lng":-4.3472293},"viewport":{"northeast":{"lat":55.78403277989272,"lng":-4.345868520107278},"southwest":{"lat":55.78133312010728,"lng":-4.348568179892722}}},"icon":"https://maps.gstatic.com/mapfiles/place_api/icons/v1/png_71/restaurant-71.png","icon_background_color":"#FF9E67","icon_mask_base_uri":"https://maps.gstatic.com/mapfiles/place_api/icons/v2/restaurant_pinlet","name":"Truth Truly Tasty","opening_hours":{"open_now":true},"photos":[{"height":312,"html_attributions":["<a href=\"https://maps.google.com/maps/contrib/103698910295165781303\">A Google User</a>"],"photo_reference":"AeJbb3d0pcVXSR9UlaygNmwSe4UPklL9E8YJnkgv28b9ta_5cZAqm4UKlgQvOCYxn2ZtDSxXUOxxGejCABgIp3wtTTOx3eli3rQDPLZ0BKk1ZuvgWRE8HfLXPnrerBFNffInlskDIpM5lpn5W3vWToIpDfTTiQXGXqpWFbZ8Y-zW-0Qxbqcj","width":820}],"place_id":"ChIJHRppZAxJiEgRVsO2PwPe59A","plus_code":{"compound_code":"QMM3+44 Newton Mearns, Glasgow","global_code":"9C7QQMM3+44"},"rating":4.4,"reference":"ChIJHRppZAxJiEgRVsO2PwPe59A","types":["restaurant","food","point_of_interest","establishment"],"user_ratings_total":55},{"business_status":"OPERATIONAL","formatted_address":"61 Bridge St, Glasgow G5 9JB","geometry":{"location":{"lat":55.85303,"lng":-4.2583136},"viewport":{"northeast":{"lat":55.85441252989271,"lng":-4.257174420107278},"southwest":{"lat":55.85171287010727,"lng":-4.259874079892722}}},"icon":"https://maps.gstatic.com/mapfiles/place_api/icons/v1/png_71/restaurant-71.png","icon_background_color":"#FF9E67","icon_mask_base_uri":"https://maps.gstatic.com/mapfiles/place_api/icons/v2/restaurant_pinlet","name":"Al Sultan","opening_hours":{"open_now":true},"photos":[{"height":2988,"html_attributions":["<a href=\"https://maps.google.com/maps/contrib/107943086754678737812\">Mo So</a>"],"photo_reference":"AeJbb3cuWqKNmuhx3C-PU0bNc-VUapkYwdOLYCa2rDb5wHdzmX1RdpTXC-178O7yUg2FSaEOH36dSq3Ye5hKV-Vq2LntKa4iaprGTWU2CZWNIgIFn34cMRp62WUKk9sqHTrE0_hLy7BcMzqTYYh-R8s2LJ_3IjyCVKV_6Aw5PWEZgxc1MHzY","width":5312}],"place_id":"ChIJU8LVJJpGiEgRpv7LkPK17P8","plus_code":{"compound_code":"VP3R+6M Glasgow","global_code":"9C7QVP3R+6M"},"price_level":2,"rating":4.3,"reference":"ChIJU8LVJJpGiEgRpv7LkPK17P8","types":["restaurant","food","point_of_interest","establishment"],"user_ratings_total":773},{"business_status":"OPERATIONAL","formatted_address":"11 Forth St, Pollokshields, Glasgow G41 2SP","geometry":{"location":{"lat":55.8432666,"lng":-4.2694482},"viewport":{"northeast":{"lat":55.84464192989272,"lng":-4.268349820107279},"southwest":{"lat":55.84194227010727,"lng":-4.271049479892723}}},"icon":"https://maps.gstatic.com/mapfiles/place_api/icons/v1/png_71/restaurant-71.png","icon_background_color":"#FF9E67","icon_mask_base_uri":"https://maps.gstatic.com/mapfiles/place_api/icons/v2/restaurant_pinlet","name":"AMBALA RESTAURANT GLASGOW","opening_hours":{"open_now":true},"photos":[{"height":2448,"html_attributions":["<a href=\"https://maps.google.com/maps/contrib/115767298229550840545\">A Google User</a>"],"photo_reference":"AeJbb3e3txtURStc4Q2ERpHYwpB59zFYuyGOsNiyK8UtgdcBfk1Gs8lwob3V_e3y8XW-v1hy70u0G_RQ99wxsnOJvq5hHMieaetI1ScD9S3m_NrvYFJ4dGlUp2d7iuTYtjvZRRP3hLKAlL5fJk-3L8dLh9GXGlHIdgH3HDXOaoUf_FKxa0Bo","width":3264}],"place_id":"ChIJ50YVfItGiEgRMdvl-Y2_bUQ","plus_code":{"compound_code":"RPVJ+86 Glasgow","global_code":"9C7QRPVJ+86"},"price_level":2,"rating":4.3,"reference":"ChIJ50YVfItGiEgRMdvl-Y2_bUQ","types":["meal_delivery","bar","restaurant","food","point_of_interest","establishment"],"user_ratings_total":735},{"business_status":"OPERATIONAL","formatted_address":"351 Paisley Rd W, Glasgow G51 1LX","geometry":{"location":{"lat":55.8518544,"lng":-4.2929721},"viewport":{"northeast":{"lat":55.85325852989273,"lng":-4.291629020107277},"southwest":{"lat":55.85055887010728,"lng":-4.294328679892721}}},"icon":"https://maps.gstatic.com/mapfiles/place_api/icons/v1/png_71/restaurant-71.png","icon_background_color":"#FF9E67","icon_mask_base_uri":"https://maps.gstatic.com/mapfiles/place_api/icons/v2/restaurant_pinlet","name":"Shawarma Grill Restaurant","opening_hours":{"open_now":true},"photos":[{"height":3024,"html_attributions":["<a href=\"https://maps.google.com/maps/contrib/100070222826236660712\">فواز زبن العربيد</a>"],"photo_reference":"AeJbb3fMamdbkdHR3zuHlhLM_mJXxnABkyON7pQ0a10Q_O5m87WZprsmo6yvC-U68Eiu1JqCn9-SyEjINaxsobbMr6rhNDl4s1r3dOmBXL0uVhHKLF4CPrhsbIgC14KV5sP5Y588gkp8kWncDJGLVhYoVEiwtBOgIsqlqRlpnBbG6-CKma_L","width":4032}],"place_id":"ChIJURQbk3pGiEgR-PAkGfAHwIY","plus_code":{"compound_code":"VP24+PR Glasgow","global_code":"9C7QVP24+PR"},"price_level":1,"rating":4.3,"reference":"ChIJURQbk3pGiEgR-PAkGfAHwIY","types":["restaurant","food","point_of_interest","establishment"],"user_ratings_total":664},{"business_status":"OPERATIONAL","formatted_address":"1032 Argyle St, Finnieston, Glasgow G3 8LX","geometry":{"location":{"lat":55.8642265,"lng":-4.2823194},"viewport":{"northeast":{"lat":55.86556347989272,"lng":-4.280986070107279},"southwest":{"lat":55.86286382010728,"lng":-4.283685729892722}}},"icon":"https://maps.gstatic.com/mapfiles/place_api/icons/v1/png_71/restaurant-71.png","icon_background_color":"#FF9E67","icon_mask_base_uri":"https://maps.gstatic.com/mapfiles/place_api/icons/v2/restaurant_pinlet","name":"Meze Meze","opening_hours":{"open_now":true},"photos":[{"height":4032,"html_attributions":["<a href=\"https://maps.google.com/maps/contrib/108196902378419622267\">Diana Ogarkova</a>"],"photo_reference":"AeJbb3eKPzsJ9sEcSgH4ObsnLsfd6EIAEXaOiQzsh1tf_NY7ZmvwE2QjN9PouwAxqH8_H9yoa7KVKU2rdDFeWwNXwU1iDXl-vhTePFn8gPTFN1Ecn3JtUa_1BdmHoK6dHIz0zJpWWp6XlFb1kDR2-RKPugbTgm9_QMY7l3fNJKaBthEN_dgN","width":3024}],"place_id":"ChIJVVXYKdVFiEgR4rJ6XQXmDGQ","plus_code":{"compound_code":"VP79+P3 Glasgow","global_code":"9C7QVP79+P3"},"rating":4.3,"reference":"ChIJVVXYKdVFiEgR4rJ6XQXmDGQ","types":["restaurant","food","point_of_interest","establishment"],"user_ratings_total":324},{"business_status":"OPERATIONAL","formatted_address":"403 Great Western Rd, Glasgow G4 9HY","geometry":{"location":{"lat":55.8740266,"lng":-4.2778941},"viewport":{"northeast":{"lat":55.87542077989273,"lng":-4.276498620107278},"southwest":{"lat":55.87272112010729,"lng":-4.279198279892722}}},"icon":"https://maps.gstatic.com/mapfiles/place_api/icons/v1/png_71/restaurant-71.png","icon_background_color":"#FF9E67","icon_mask_base_uri":"https://maps.gstatic.com/mapfiles/place_api/icons/v2/restaurant_pinlet","name":"The Bay Tree","opening_hours":{"open_now":true},"photos":[{"height":750,"html_attributions":["<a href=\"https://maps.google.com/maps/contrib/105552294776671568169\">The Bay Tree Mediterranean Restaurant</a>"],"photo_reference":"AeJbb3fv0Glzv-rSi2WGJ2a7o_zVcdQJm1tPK8XNk90T2tMQg1ruFIcH5X80vQF9XXIh0yZLfzl_s0FYpccArlsvxf9c9tzeH6C1jso3M4nhO90WQdOdAVd_MaQ29elPOKPPVohKX6Cz_dMPr4mXkiHoCsAm1gbIDXV2Ehvt4Q-nAv-ZFmQW","width":750}],"place_id":"ChIJbfH9ajJEiEgRT_JZ3Mt_JVI","plus_code":{"compound_code":"VPFC+JR Glasgow","global_code":"9C7QVPFC+JR"},"rating":4.3,"reference":"ChIJbfH9ajJEiEgRT_JZ3Mt_JVI","types":["cafe","restaurant","food","point_of_interest","establishment"],"user_ratings_total":224},{"business_status":"OPERATIONAL","formatted_address":"94 Smithycroft Rd, Glasgow G33 2RQ","geometry":{"location":{"lat":55.8680868,"lng":-4.1887659},"viewport":{"northeast":{"lat":55.86953332989272,"lng":-4.187361570107277},"southwest":{"lat":55.86683367010728,"lng":-4.190061229892721}}},"icon":"https://maps.gstatic.com/mapfiles/place_api/icons/v1/png_71/restaurant-71.png","icon_background_color":"#FF9E67","icon_mask_base_uri":"https://maps.gstatic.com/mapfiles/place_api/icons/v2/restaurant_pinlet","name":"Hookd","opening_hours":{"open_now":true},"photos":[{"height":3000,"html_attributions":["<a href=\"https://maps.google.com/maps/contrib/116772184615813984473\">A Google User</a>"],"photo_reference":"AeJbb3cAfqAmcGlOAALbx2WUjbVpcQ24dK7lFmMgsh1wtg8wxiUHKwx8Jdn4mzbM2udoCc5OOOKjhjkLF6CpdERdqJZrAyEOt5lpdkfUmHiMzydFOY8hRn-ffqDr_8D8V8w_gQMxwXpvNY4_xYbKTEiAjKx670-PtCvrV31E14tFMVUJCHw1","width":4000}],"place_id":"ChIJa2gKCmlDiEgRJnMrxZPrjpY","plus_code":{"compound_code":"VR96+6F Glasgow","global_code":"9C7QVR96+6F"},"rating":4.3,"reference":"ChIJa2gKCmlDiEgRJnMrxZPrjpY","types":["restaurant","food","point_of_interest","establishment"],"user_ratings_total":86},{"business_status":"OPERATIONAL","formatted_address":"381 Sauchiehall St, Glasgow G2 3HU","geometry":{"location":{"lat":55.8657882,"lng":-4.2675178},"viewport":{"northeast":{"lat":55.86719022989272,"lng":-4.266147570107278},"southwest":{"lat":55.86449057010727,"lng":-4.268847229892722}}},"icon":"https://maps.gstatic.com/mapfiles/place_api/icons/v1/png_71/restaurant-71.png","icon_background_color":"#FF9E67","icon_mask_base_uri":"https://maps.gstatic.com/mapfiles/place_api/icons/v2/restaurant_pinlet","name":"Falafel Shawarma","opening_hours":{"open_now":true},"photos":[{"height":1536,"html_attributions":["<a href=\"https://maps.google.com/maps/contrib/105114340874959340483\">Mohammed Al-aboodi</a>"],"photo_reference":"AeJbb3d04vXpipMc0YPMKsUOwzOdS0FWm6TVtrW3vLT6nNRYGzj_Tk4bUWCw-iSu4fKCNAib4LsXdg5RjoDp6soYz5p9dc5g6YS2tpwO1spS7gylBaVn4oyWsWmNHOxR53CdlEfy9zDPJqqNGRby-1I_tb0XMJpOHA8Em2XJkMAf6MhwNShN","width":2048}],"place_id":"ChIJ24CiIOhFiEgRd84RxnZiftw","plus_code":{"compound_code":"VP8J+8X Glasgow","global_code":"9C7QVP8J+8X"},"rating":4.3,"reference":"ChIJ24CiIOhFiEgRd84RxnZiftw","types":["meal_takeaway","restaurant","food","point_of_interest","establishment"],"user_ratings_total":27},{"business_status":"OPERATIONAL","formatted_address":"3-5 Commerce St, Glasgow G5 8AB","geometry":{"location":{"lat":55.8545162,"lng":-4.2596941},"viewport":{"northeast":{"lat":55.85588607989272,"lng":-4.258425870107278},"southwest":{"lat":55.85318642010728,"lng":-4.261125529892722}}},"icon":"https://maps.gstatic.com/mapfiles/place_api/icons/v1/png_71/shopping-71.png","icon_background_color":"#4B96F3","icon_mask_base_uri":"https://maps.gstatic.com/mapfiles/place_api/icons/v2/shoppingcart_pinlet","name":"Babylon Supermarket","opening_hours":{"open_now":true},"photos":[{"height":3120,"html_attributions":["<a href=\"https://maps.google.com/maps/contrib/103373628023790079029\">A Google User</a>"],"photo_reference":"AeJbb3djhVa0HrGmOsYhknu15tNpfqk1b22TInIXdqZErgBmfR6_mo1oNgOs7VLC8diybMow_OnIxTWq4C7UYh1RBnjLwLQqwCZpmQ3pmAl8ajoCVRNa1bvbfhFq1ivGqkA97dTq5PvGrXb00MqgRvmxGtafYC86p7kmd_6rhGDXFt4SzKqP","width":4160}],"place_id":"ChIJa2fFTppGiEgRfFRjXg_EHCs","plus_code":{"compound_code":"VP3R+R4 Glasgow","global_code":"9C7QVP3R+R4"},"rating":4.2,"reference":"ChIJa2fFTppGiEgRfFRjXg_EHCs","types":["supermarket","meal_takeaway","grocery_or_supermarket","restaurant","food","store","point_of_interest","establishment"],"user_ratings_total":1005},{"business_status":"OPERATIONAL","formatted_address":"6 Park Rd, Glasgow G4 9JG","geometry":{"location":{"lat":55.8740386,"lng":-4.2783387},"viewport":{"northeast":{"lat":55.87536767989271,"lng":-4.276922720107279},"southwest":{"lat":55.87266802010727,"lng":-4.279622379892722}}},"icon":"https://maps.gstatic.com/mapfiles/place_api/icons/v1/png_71/restaurant-71.png","icon_background_color":"#FF9E67","icon_mask_base_uri":"https://maps.gstatic.com/mapfiles/place_api/icons/v2/restaurant_pinlet","name":"Byblos Cafe","opening_hours":{"open_now":true},"photos":[{"height":410,"html_attributions":["<a href=\"https://maps.google.com/maps/contrib/113179094352596819076\">Byblos Cafe</a>"],"photo_reference":"AeJbb3fNY_xH73UbrQx1FYqiAp715qI8xlVOdXo0a5Gybb7g7OrgNENunWrTBL1mgb76H2x6ao1X87EDd3JO5IK0EjF_UGko9sVpzhiW7Yt2SMv8YVbnHGcq14hVOE5BMepMMvpJedQ-HfzdHW0U20y55NjfRVNdPZp7gmPaLuxSVFsPyqdF","width":550}],"place_id":"ChIJQTOvaTJEiEgRSgqP8h4f6Mo","plus_code":{"compound_code":"VPFC+JM Glasgow","global_code":"9C7QVPFC+JM"},"price_level":1,"rating":4.2,"reference":"ChIJQTOvaTJEiEgRSgqP8h4f6Mo","types":["restaurant","food","point_of_interest","establishment"],"user_ratings_total":207},{"business_status":"OPERATIONAL","formatted_address":"56 Dundas St, Glasgow G1 2AQ","geometry":{"location":{"lat":55.86314789999999,"lng":-4.251676499999999},"viewport":{"northeast":{"lat":55.86450897989271,"lng":-4.250427470107277},"southwest":{"lat":55.86180932010727,"lng":-4.253127129892721}}},"icon":"https://maps.gstatic.com/mapfiles/place_api/icons/v1/png_71/restaurant-71.png","icon_background_color":"#FF9E67","icon_mask_base_uri":"https://maps.gstatic.com/mapfiles/place_api/icons/v2/restaurant_pinlet","name":"AGA Restaurant","opening_hours":{"open_now":true},"photos":[{"height":3024,"html_attributions":["<a href=\"https://maps.google.com/maps/contrib/106321904335453211559\">B John</a>"],"photo_reference":"AeJbb3exemMA_YugAIpcQsbqI6OuQ4hykcE1e5YagkZyK6Ny3vGZbVKdmvsqPv5OEpBXxGwL4xaF8oWIAee31uuuvKNlWe5RyAvkjc69-yP2A3hUU4acIZd3cM1g0M5WcY_uwiyY1djge0h9sxMZTGxmq3PDgHsXbi7q-npgaTbyjK63YTmC","width":4032}],"place_id":"ChIJU-9L-B9EiEgRu4BTWaDiWto","plus_code":{"compound_code":"VP7X+78 Glasgow","global_code":"9C7QVP7X+78"},"price_level":1,"rating":4.2,"reference":"ChIJU-9L-B9EiEgRu4BTWaDiWto","types":["restaurant","food","point_of_interest","establishment"],"user_ratings_total":105},{"business_status":"OPERATIONAL","formatted_address":"74 Trongate, Glasgow G1 5EP","geometry":{"location":{"lat":55.8571716,"lng":-4.245728},"viewport":{"northeast":{"lat":55.85845602989273,"lng":-4.244327920107278},"southwest":{"lat":55.85575637010729,"lng":-4.247027579892722}}},"icon":"https://maps.gstatic.com/mapfiles/place_api/icons/v1/png_71/restaurant-71.png","icon_background_color":"#FF9E67","icon_mask_base_uri":"https://maps.gstatic.com/mapfiles/place_api/icons/v2/restaurant_pinlet","name":"Charcoals","opening_hours":{"open_now":true},"photos":[{"height":3024,"html_attributions":["<a href=\"https://maps.google.com/maps/contrib/116834341317909565068\">Mark Leat</a>"],"photo_reference":"AeJbb3cZQfv-qpWaTj-lLTQNubPjx6-7UZIU0b4i6ky75P8-j6LH2Ikc140XPtsTPGwM2lnkwPhmCo050U7wCCcDYzP6W-tUDDW6HYuJbyzT2NjFh6_Kbixrk14qb6D1vh09cTwwzk9MZiJZJ0N0TpA-XgMpNNyxygHhvWM2bYUGNx8SJKkD","width":4032}],"place_id":"ChIJ7cHOOp5GiEgRN9Cc4T4m9ws","plus_code":{"compound_code":"VQ43+VP Glasgow","global_code":"9C7QVQ43+VP"},"price_level":2,"rating":4.1,"reference":"ChIJ7cHOOp5GiEgRN9Cc4T4m9ws","types":["restaurant","meal_takeaway","bar","food","point_of_interest","establishment"],"user_ratings_total":896},{"business_status":"OPERATIONAL","formatted_address":"253 Great Western Rd, Glasgow G4 9EG","geometry":{"location":{"lat":55.8728248,"lng":-4.2742923},"viewport":{"northeast":{"lat":55.87423082989272,"lng":-4.272964420107279},"southwest":{"lat":55.87153117010727,"lng":-4.275664079892723}}},"icon":"https://maps.gstatic.com/mapfiles/place_api/icons/v1/png_71/restaurant-71.png","icon_background_color":"#FF9E67","icon_mask_base_uri":"https://maps.gstatic.com/mapfiles/place_api/icons/v2/restaurant_pinlet","name":"Morello Takeaway","opening_hours":{"open_now":true},"photos":[{"height":5120,"html_attributions":["<a href=\"https://maps.google.com/maps/contrib/114241800017792054453\">Chris Campbell</a>"],"photo_reference":"AeJbb3fJ6vKp1oglnIWjx7al4j15pW6wzPuhOMxi2P94u3vVIOkI6PmZJar1yxS_c1pSjHWwm3tCNDgpe9niH4Xz13E6dFEn5Kw--L8RVEM4zBx4k_Qs_YvdgIAykyFUQKH5PhxHOLoXfhZ3z946bAFPWs2jaSceC-af12_UL2cfEO-aJcvC","width":3840}],"place_id":"ChIJc8zhHS5EiEgRUrmda-uetLA","plus_code":{"compound_code":"VPFG+47 Glasgow","global_code":"9C7QVPFG+47"},"price_level":1,"rating":4.1,"reference":"ChIJc8zhHS5EiEgRUrmda-uetLA","types":["meal_takeaway","restaurant","food","point_of_interest","establishment"],"user_ratings_total":340},{"business_status":"OPERATIONAL","formatted_address":"452 Cathcart road Glasgow 07740146262 01414 230230, Glasgow G42 7BZ","geometry":{"location":{"lat":55.8381206,"lng":-4.2570982},"viewport":{"northeast":{"lat":55.83946102989272,"lng":-4.255679720107278},"southwest":{"lat":55.83676137010728,"lng":-4.258379379892722}}},"icon":"https://maps.gstatic.com/mapfiles/place_api/icons/v1/png_71/restaurant-71.png","icon_background_color":"#FF9E67","icon_mask_base_uri":"https://maps.gstatic.com/mapfiles/place_api/icons/v2/restaurant_pinlet","name":"Glasgow","opening_hours":{"open_now":true},"photos":[{"height":2268,"html_attributions":["<a href=\"https://maps.google.com/maps/contrib/105013673652404703123\">Munir Ahmed</a>"],"photo_reference":"AeJbb3djmFMwXbSlYbsGi7jTUV9HRmlPDkkx6GflWpTeH0E2VGx7pJVOsxK_92WPcxAXpbz_UtKoRgsvq-kozKAMhJ2kp7TuI5McRvMLWZ9bMRnjq1SA7D1HK1ROOpegUOFWepTjedtYB1OYQYxplfbiPmFmFVlHWV3drOPOcp2GbBeLD77K","width":4032}],"place_id":"ChIJd2rSkuxGiEgRKsqY13G4LkU","plus_code":{"compound_code":"RPQV+65 Glasgow","global_code":"9C7QRPQV+65"},"price_level":1,"rating":4.1,"reference":"ChIJd2rSkuxGiEgRKsqY13G4LkU","types":["restaurant","food","point_of_interest","establishment"],"user_ratings_total":82},{"business_status":"OPERATIONAL","formatted_address":"450a Sauchiehall St, Glasgow G2 3JD","geometry":{"location":{"lat":55.8660551,"lng":-4.2674176},"viewport":{"northeast":{"lat":55.86732392989272,"lng":-4.265911220107277},"southwest":{"lat":55.86462427010728,"lng":-4.268610879892721}}},"icon":"https://maps.gstatic.com/mapfiles/place_api/icons/v1/png_71/restaurant-71.png","icon_background_color":"#FF9E67","icon_mask_base_uri":"https://maps.gstatic.com/mapfiles/place_api/icons/v2/restaurant_pinlet","name":"HAJAR'S Shawarma","opening_hours":{"open_now":true},"photos":[{"height":1702,"html_attributions":["<a href=\"https://maps.google.com/maps/contrib/107666900892974287084\">A Google User</a>"],"photo_reference":"AeJbb3dP_2JkZv_dmG71TruHrz5Dinfso2xcVblYMGU9VBahchn5hniz1RiY_zznYLaJqIHe5iMpQRcnpIfodVzFnBtqzWwRDEgakSUONweazOL-IA0Zen0TUOBYUlwxkMGi1tCFVOqy85V0pSVIsbRdK5-qRkIhufeAhyYhBTIsppT_7qdA","width":3024}],"place_id":"ChIJHU34UKtFiEgRblV3in1v7gE","plus_code":{"compound_code":"VP8M+C2 Glasgow","global_code":"9C7QVP8M+C2"},"rating":4,"reference":"ChIJHU34UKtFiEgRblV3in1v7gE","types":["restaurant","food","point_of_interest","establishment"],"user_ratings_total":114},{"business_status":"OPERATIONAL","formatted_address":"Unit C2, Springfield Quay, Paisley Rd, Glasgow G5 8NP","geometry":{"location":{"lat":55.8551738,"lng":-4.2742571},"viewport":{"northeast":{"lat":55.85645362989272,"lng":-4.272966720107278},"southwest":{"lat":55.85375397010728,"lng":-4.275666379892722}}},"icon":"https://maps.gstatic.com/mapfiles/place_api/icons/v1/png_71/restaurant-71.png","icon_background_color":"#FF9E67","icon_mask_base_uri":"https://maps.gstatic.com/mapfiles/place_api/icons/v2/restaurant_pinlet","name":"Chapter IV","opening_hours":{"open_now":true},"photos":[{"height":3024,"html_attributions":["<a href=\"https://maps.google.com/maps/contrib/115541587534924882806\">Stephen Brown</a>"],"photo_reference":"AeJbb3cktjKdH4l9RBCOG1fXy8A1cJvTl1VghZeFbprvfToRzjzjq36jrhvVlliERQvHfZcDukVifebWW9F7aTx9y8TGV8jSR2QflxhhUWg_Aip9_p6m1Mt3NN04ouyYkkhkN4p6vsQG1X6FLnfnW4192a2pKJNHNLvGvz2tlrZz30_tMZ30","width":4032}],"place_id":"ChIJR_jEvoZGiEgRNeLiOS6ss64","plus_code":{"compound_code":"VP4G+37 Glasgow","global_code":"9C7QVP4G+37"},"price_level":2,"rating":3.9,"reference":"ChIJR_jEvoZGiEgRNeLiOS6ss64","types":["restaurant","food","point_of_interest","establishment"],"user_ratings_total":886},{"business_status":"OPERATIONAL","formatted_address":"727 Great Western Rd, Glasgow G12 8QX","geometry":{"location":{"lat":55.8775242,"lng":-4.289419200000001},"viewport":{"northeast":{"lat":55.87893272989272,"lng":-4.288002320107279},"southwest":{"lat":55.87623307010728,"lng":-4.290701979892723}}},"icon":"https://maps.gstatic.com/mapfiles/place_api/icons/v1/png_71/restaurant-71.png","icon_background_color":"#FF9E67","icon_mask_base_uri":"https://maps.gstatic.com/mapfiles/place_api/icons/v2/restaurant_pinlet","name":"727 Fast Foods","opening_hours":{"open_now":true},"photos":[{"height":4032,"html_attributions":["<a href=\"https://maps.google.com/maps/contrib/104277687914111497497\">Victoria Sichler</a>"],"photo_reference":"AeJbb3dzj2HnjjcoxOCeEO_bLjqJqWdT6E7Y35Pv-ox3-KZlhUyBVEnPinzH9LRh2FkJF36QztXpLYISONA32Ae9Sf0PxgWOETP8rQyr1n32Ok0U5w3wrq4jNa4EhTzj-HSXTfyXzh24POZkYVqHoVqBw88Yf5RiO0Ks7l4Y1B_PwOhUnM5W","width":3024}],"place_id":"ChIJkRc5c8xFiEgR5hKiWe-jSKg","plus_code":{"compound_code":"VPG6+X6 Glasgow","global_code":"9C7QVPG6+X6"},"rating":3.8,"reference":"ChIJkRc5c8xFiEgR5hKiWe-jSKg","types":["meal_takeaway","restaurant","food","point_of_interest","establishment"],"user_ratings_total":84},{"business_status":"OPERATIONAL","formatted_address":"280 Paisley Rd W, Glasgow G51 1BH","geometry":{"location":{"lat":55.852115,"lng":-4.2929846},"viewport":{"northeast":{"lat":55.85338852989273,"lng":-4.291869170107278},"southwest":{"lat":55.85068887010728,"lng":-4.294568829892722}}},"icon":"https://maps.gstatic.com/mapfiles/place_api/icons/v1/png_71/restaurant-71.png","icon_background_color":"#FF9E67","icon_mask_base_uri":"https://maps.gstatic.com/mapfiles/place_api/icons/v2/restaurant_pinlet","name":"Eat Arabic","place_id":"ChIJ5zzQGVdHiEgRITaNXfFxhfQ","plus_code":{"compound_code":"VP24+RR Glasgow","global_code":"9C7QVP24+RR"},"rating":0,"reference":"ChIJ5zzQGVdHiEgRITaNXfFxhfQ","types":["restaurant","food","point_of_interest","establishment"],"user_ratings_total":0},{"business_status":"OPERATIONAL","formatted_address":"192 Pitt St, Glasgow G2 4DY","geometry":{"location":{"lat":55.8652262,"lng":-4.2646324},"viewport":{"northeast":{"lat":55.86658432989272,"lng":-4.263352370107278},"southwest":{"lat":55.86388467010728,"lng":-4.266052029892721}}},"icon":"https://maps.gstatic.com/mapfiles/place_api/icons/v1/png_71/restaurant-71.png","icon_background_color":"#FF9E67","icon_mask_base_uri":"https://maps.gstatic.com/mapfiles/place_api/icons/v2/restaurant_pinlet","name":"Alla Turca","opening_hours":{"open_now":true},"place_id":"ChIJQ5UpTCZEiEgRmyEEMKP3uc4","plus_code":{"compound_code":"VP8P+34 Glasgow","global_code":"9C7QVP8P+34"},"rating":0,"reference":"ChIJQ5UpTCZEiEgRmyEEMKP3uc4","types":["restaurant","food","point_of_interest","establishment"],"user_ratings_total":0},{"business_status":"OPERATIONAL","formatted_address":"84 Earl St, Scotstoun, Glasgow G14 0DL","geometry":{"location":{"lat":55.877927,"lng":-4.3494918},"viewport":{"northeast":{"lat":55.87924537989272,"lng":-4.348181420107278},"southwest":{"lat":55.87654572010728,"lng":-4.350881079892722}}},"icon":"https://maps.gstatic.com/mapfiles/place_api/icons/v1/png_71/restaurant-71.png","icon_background_color":"#FF9E67","icon_mask_base_uri":"https://maps.gstatic.com/mapfiles/place_api/icons/v2/restaurant_pinlet","name":"Jeunay","opening_hours":{"open_now":false},"place_id":"ChIJxwlXuN1PiEgRzZEetCAmlek","plus_code":{"compound_code":"VMH2+56 Glasgow","global_code":"9C7QVMH2+56"},"rating":0,"reference":"ChIJxwlXuN1PiEgRzZEetCAmlek","types":["restaurant","food","point_of_interest","establishment"],"user_ratings_total":0}]