[{"business_status":"OPERATIONAL","formatted_address":"Unit A3, 24 Rosyth Rd, Glasgow G5 0YD","geometry":{"location":{"lat":55.8366199,"lng":-4.235060799999999},"viewport":{"northeast":{"lat":55.83803747989272,"lng":-4.233862320107278},"southwest":{"lat":55.83533782010728,"lng":-4.236561979892722}}},"icon":"https://maps.gstatic.com/mapfiles/place_api/icons/v1/png_71/restaurant-71.png","icon_background_color":"#FF9E67","icon_mask_base_uri":"https://maps.gstatic.com/mapfiles/place_api/icons/v2/restaurant_pinlet","name":"Thyme Glasgow","opening_hours":{"open_now":true},"photos":[{"height":2208,"html_attributions":["<a href=\"https://maps.google.com/maps/contrib/104657887542220246704\">Reem key</a>"],"photo_reference":"AeJbb3chfQg5jD7OdwOLxsfdwmgAn-8L4MeaMKyzmRvzxWYuTDRfX_RUTuWk0h5YR2g4UkSLqdHQ3tINplvCwbIp4XGmArhWDnfyMIoxQLTKLjyi65p0gkppbahZENXZn8ZDrB56pMWOO4i06C6ph8wcPV6DMSXlvroFsSq4uT8WK1O7aPfA","width":1242}],"place_id":"ChIJZc_-AkdHiEgRQoyPcpwz3mE","plus_code":{"compound_code":"RQP7+JX Glasgow","global_code":"9C7QRQP7+JX"},"rating":5,"reference":"ChIJZc_-AkdHiEgRQoyPcpwz3mE","types":["meal_takeaway","restaurant","point_of_interest","food","establishment"],"user_ratings_total":12},{"business_status":"OPERATIONAL","formatted_address":"23 Renfield St, Glasgow G2 5AH","geometry":{"location":{"lat":55.8613216,"lng":-4.2568968},"viewport":{"northeast":{"lat":55.86263382989272,"lng":-4.255493720107278},"southwest":{"lat":55.85993417010727,"lng":-4.258193379892722}}},"icon":"https://maps.gstatic.com/mapfiles/place_api/icons/v1/png_71/restaurant-71.png","icon_background_color":"#FF9E67","icon_mask_base_uri":"https://maps.gstatic.com/mapfiles/place_api/icons/v2/restaurant_pinlet","name":"Bowl","opening_hours":{"open_now":false},"photos":[{"height":4032,"html_attributions":["<a href=\"https://maps.google.com/maps/contrib/115533675400221131910\">A Google User</a>"],"photo_reference":"AeJbb3eqHjATMRCb59K_Y3V8Tj1qN92Ypp_x5T6Mv-JociVCtCb1SlRi4XKQUxZ7dzLfiwmIvA5_o-gF9om75d7_gufBmJIos2tScdqXH3oyU7SE91Hn7df5WpbSwaEBdeia0l74R1c7fKVyGoff6kEDjYb_0rxhonRSwycBPftjOE3NTsvt","width":3024}],"place_id":"ChIJtQ52SelHiEgRW_Ao9JOwgUI","plus_code":{"compound_code":"VP6V+G6 Glasgow","global_code":"9C7QVP6V+G6"},"rating":4.9,"reference":"ChIJtQ52SelHiEgRW_Ao9JOwgUI","types":["restaurant","point_of_interest","food","establishment"],"user_ratings_total":9},{"business_status":"OPERATIONAL","formatted_address":"8, 10 Hunter St, East Kilbride, Glasgow G74 4LZ","geometry":{"location":{"lat":55.76530460000001,"lng":-4.1753395},"viewport":{"northeast":{"lat":55.76663467989272,"lng":-4.173938170107277},"southwest":{"lat":55.76393502010728,"lng":-4.176637829892721}}},"icon":"https://maps.gstatic.com/mapfiles/place_api/icons/v1/png_71/restaurant-71.png","icon_background_color":"#FF9E67","icon_mask_base_uri":"https://maps.gstatic.com/mapfiles/place_api/icons/v2/restaurant_pinlet","name":"Oiishi Japanese Restaurant & Takeaway","opening_hours":{"open_now":true},"photos":[{"height":3024,"html_attributions":["<a href=\"https://maps.google.com/maps/contrib/115467454082124739706\">Brian S</a>"],"photo_reference":"AeJbb3cA1BNMu1Qpl4ax1HMiO4CXuQ0nhngD5Y9aHGgzpbGKSNv5WJ8J3xf4oLgkJOljLiH9_z-3ximfH8t1Ag_ohtGJxiF_u2GOxf7l-Ow0t3Zj7R15PW51MzpQFS592wLpjQcOgl3ikPgaQThbhkzQ3fztCMG3NUQFr8LIEiUHfglMgZvY","width":4032}],"place_id":"ChIJAQDE3Wc_iEgRdwJaBP77VVo","plus_code":{"compound_code":"QR8F+4V East Kilbride, Glasgow","global_code":"9C7QQR8F+4V"},"price_level":2,"rating":4.8,"reference":"ChIJAQDE3Wc_iEgRdwJaBP77VVo","types":["restaurant","food","point_of_interest","establishment"],"user_ratings_total":514},{"business_status":"OPERATIONAL","formatted_address":"23 Clarence Dr, Glasgow G12 9QN","geometry":{"location":{"lat":55.8769927,"lng":-4.3081305},"viewport":{"northeast":{"lat":55.87842777989272,"lng":-4.306760920107278},"southwest":{"lat":55.87572812010728,"lng":-4.309460579892722}}},"icon":"https://maps.gstatic.com/mapfiles/place_api/icons/v1/png_71/restaurant-71.png","icon_background_color":"#FF9E67","icon_mask_base_uri":"https://maps.gstatic.com/mapfiles/place_api/icons/v2/restaurant_pinlet","name":"Sushi Riot","opening_hours":{"open_now":true},"photos":[{"height":4032,"html_attributions":["<a href=\"https://maps.google.com/maps/contrib/106387563271750011227\">A Google User</a>"],"photo_reference":"AeJbb3dkzwN3T7DAA_rYlJUGm_OwEAyBVTyLRuIeHxkLxMfLdAJ33XxVKvdhfeD8ldS7O0gkuDaXbUqm7xRXs5j4KKoxJ1GVTvL8eavXoTVd1L32-Ot-qRO6KzR8DJ4C1NIccDzwO8BIUy--44Qw-BssXBUnyHR8mwmpz02DHsDM3kOsNQN0","width":3024}],"place_id":"ChIJ22KU3sNFiEgR_3STbdFXRhs","plus_code":{"compound_code":"VMGR+QP Glasgow","global_code":"9C7QVMGR+QP"},"rating":4.8,"reference":"ChIJ22KU3sNFiEgR_3STbdFXRhs","types":["meal_takeaway","restaurant","food","store","point_of_interest","establishment"],"user_ratings_total":75},{"business_status":"OPERATIONAL","formatted_address":"5 Bothwell St, Glasgow G2 6NL","geometry":{"location":{"lat":55.8609138,"lng":-4.2591253},"viewport":{"northeast":{"lat":55.86232517989272,"lng":-4.257825070107278},"southwest":{"lat":55.85962552010728,"lng":-4.260524729892722}}},"icon":"https://maps.gstatic.com/mapfiles/place_api/icons/v1/png_71/restaurant-71.png","icon_background_color":"#FF9E67","icon_mask_base_uri":"https://maps.gstatic.com/mapfiles/place_api/icons/v2/restaurant_pinlet","name":"Akiko","opening_hours":{"open_now":true},"photos":[{"height":1365,"html_attributions":["<a href=\"https://maps.google.com/maps/contrib/107062956212577757552\">A Google User</a>"],"photo_reference":"AeJbb3da9a9PJBQfP_YLdLq5mgG1q0XjMO2vKk-NnFxNUeze-KuRfwtvZYnm6wRNgeOozPmb_ereddoOLNU0O2BR4RgwnPyMSYsPsDbTugddbg_Evfl4UP9zMWWVu9zQrZF3uhqEIT8cbGnXY-iPO7ejovY3lIbndVBsYbp1fM9okCM_Zi_o","width":2048}],"place_id":"ChIJk8taQDFHiEgRhWROMW4XY2o","plus_code":{"compound_code":"VP6R+98 Glasgow","global_code":"9C7QVP6R+98"},"rating":4.8,"reference":"ChIJk8taQDFHiEgRhWROMW4XY2o","types":["meal_takeaway","restaurant","food","point_of_interest","establishment"],"user_ratings_total":59},{"business_status":"OPERATIONAL","formatted_address":"30 Moss St, Paisley PA1 1BA","geometry":{"location":{"lat":55.8469501,"lng":-4.425324199999999},"viewport":{"northeast":{"lat":55.84828487989272,"lng":-4.424056920107278},"southwest":{"lat":55.84558522010727,"lng":-4.426756579892722}}},"icon":"https://maps.gstatic.com/mapfiles/place_api/icons/v1/png_71/restaurant-71.png","icon_background_color":"#FF9E67","icon_mask_base_uri":"https://maps.gstatic.com/mapfiles/place_api/icons/v2/restaurant_pinlet","name":"Okome Paisley","opening_hours":{"open_now":true},"photos":[{"height":3000,"html_attributions":["<a href=\"https://maps.google.com/maps/contrib/105338675328666027146\">A Google User</a>"],"photo_reference":"AeJbb3e2lhVIepv87DxNVIAyxIUbJAXL59dLlcO8EfMcPjhQ9DZ6az98Yck0Ccnksi9dkznm1cePTNN0XNbN5iWS-NtVI-GF7izvycmQ1YeR7SVfnAH1WRaDlclq0vxHP9I_emJ1Z7lrIzwtLdnTVhHZpqY05tNz1291VaD3l-IBsL5JAHje","width":4000}],"place_id":"ChIJQUJREyNJiEgRHVhODD5q_so","plus_code":{"compound_code":"RHWF+QV Paisley","global_code":"9C7QRHWF+QV"},"rating":4.8,"reference":"ChIJQUJREyNJiEgRHVhODD5q_so","types":["restaurant","food","point_of_interest","establishment"],"user_ratings_total":42},{"business_status":"OPERATIONAL","formatted_address":"140 Elderslie St, Glasgow G3 7QF","geometry":{"location":{"lat":55.8666358,"lng":-4.276235499999999},"viewport":{"northeast":{"lat":55.86798342989272,"lng":-4.274991870107278},"southwest":{"lat":55.86528377010728,"lng":-4.277691529892722}}},"icon":"https://maps.gstatic.com/mapfiles/place_api/icons/v1/png_71/restaurant-71.png","icon_background_color":"#FF9E67","icon_mask_base_uri":"https://maps.gstatic.com/mapfiles/place_api/icons/v2/restaurant_pinlet","name":"Five March","opening_hours":{"open_now":true},"photos":[{"height":899,"html_attributions":["<a href=\"https://maps.google.com/maps/contrib/111732204434783065833\">A Google User</a>"],"photo_reference":"AeJbb3fRx2laU6TcBS9knei1O43gzKiUKxcZcE93NVi7JhtzqD86Iq5C6s17jdZBOBuECcFMfBSVb483N7GjloO3vBpRtw63_BuFMVzyp2bzzsvWPcLTP2bsP84-Py8PC-EdWV37LqY7dj7bNAqRWQdPzyxkYliHVB5Hk3uq7g48ngEEEMVD","width":899}],"place_id":"ChIJ_cuNCRpFiEgRjbbC5R2etQ4","plus_code":{"compound_code":"VP8F+MG Glasgow","global_code":"9C7QVP8F+MG"},"price_level":2,"rating":4.7,"reference":"ChIJ_cuNCRpFiEgRjbbC5R2etQ4","types":["restaurant","point_of_interest","food","establishment"],"user_ratings_total":400},{"business_status":"OPERATIONAL","formatted_address":"130-132 Byres Rd, Glasgow G12 8TD","geometry":{"location":{"lat":55.8735873,"lng":-4.2953565},"viewport":{"northeast":{"lat":55.87494077989273,"lng":-4.294086270107279},"southwest":{"lat":55.87224112010728,"lng":-4.296785929892723}}},"icon":"https://maps.gstatic.com/mapfiles/place_api/icons/v1/png_71/restaurant-71.png","icon_background_color":"#FF9E67","icon_mask_base_uri":"https://maps.gstatic.com/mapfiles/place_api/icons/v2/restaurant_pinlet","name":"esushi","opening_hours":{"open_now":true},"photos":[{"height":3024,"html_attributions":["<a href=\"https://maps.google.com/maps/contrib/109028968287147824880\">A Google User</a>"],"photo_reference":"AeJbb3cU8wMLzttRlXq9GRg5GikRxlfbWXIm59z6GnMzD09NMurnvM3g3zmk7mRXteQiGa_SoRnULo0TgiVwrAOfFTJwaH7uzic9REXpPg46uKlOcGYycHMS4pyziLueyCeY70oVDzE3d8KonKAKo6vslcPnVkq3EEQFsiG4UrG69dJQH2Ee","width":4032}],"place_id":"ChIJbTR2uM9FiEgRaSutY8wHntY","plus_code":{"compound_code":"VPF3+CV Glasgow","global_code":"9C7QVPF3+CV"},"price_level":2,"rating":4.6,"reference":"ChIJbTR2uM9FiEgRaSutY8wHntY","types":["restaurant","point_of_interest","food","establishment"],"user_ratings_total":608},{"business_status":"OPERATIONAL","formatted_address":"12 Albert Dr, Glasgow G41 2PE","geometry":{"location":{"lat":55.8410916,"lng":-4.2661146},"viewport":{"northeast":{"lat":55.84248022989272,"lng":-4.264854070107277},"southwest":{"lat":55.83978057010728,"lng":-4.267553729892722}}},"icon":"https://maps.gstatic.com/mapfiles/place_api/icons/v1/png_71/restaurant-71.png","icon_background_color":"#FF9E67","icon_mask_base_uri":"https://maps.gstatic.com/mapfiles/place_api/icons/v2/restaurant_pinlet","name":"Rice & Fries","opening_hours":{"open_now":true},"photos":[{"height":3024,"html_attributions":["<a href=\"https://maps.google.com/maps/contrib/114926265919913990304\">A Google User</a>"],"photo_reference":"AeJbb3eJhT6b9X9fB7awje5loYs15T9f0_1reWASXJH4FfqcQXrxOknH4V2RUr3xHu09vKWWtPwuxU6QE1P7VdRJ-h97Nx-1jvLl7ERwFuNzIBqFuw5P07xqMQdxgluuG1x6LmGbMWJJMq9S_COwecjA3APPqEFS8AD-pVEne0PXjJUMqMpx","width":4032}],"place_id":"ChIJU1OJIo1GiEgREXCH4Gt15nw","plus_code":{"compound_code":"RPRM+CH Glasgow","global_code":"9C7QRPRM+CH"},"price_level":1,"rating":4.6,"reference":"ChIJU1OJIo1GiEgREXCH4Gt15nw","types":["meal_takeaway","restaurant","food","store","point_of_interest","establishment"],"user_ratings_total":124},{"business_status":"OPERATIONAL","formatted_address":"1 Ashley St, Glasgow G3 6DR","geometry":{"location":{"lat":55.8691597,"lng":-4.2736243},"viewport":{"northeast":{"lat":55.87048917989272,"lng":-4.272204220107279},"southwest":{"lat":55.86778952010728,"lng":-4.274903879892722}}},"icon":"https://maps.gstatic.com/mapfiles/place_api/icons/v1/png_71/restaurant-71.png","icon_background_color":"#FF9E67","icon_mask_base_uri":"https://maps.gstatic.com/mapfiles/place_api/icons/v2/restaurant_pinlet","name":"Mrs Falafel","opening_hours":{"open_now":true},"photos":[{"height":3456,"html_attributions":["<a href=\"https://maps.google.com/maps/contrib/108022746894823708971\">A Google User</a>"],"photo_reference":"AeJbb3fbOR2y44iqkZXXYkNnY_x8JTdStQhtPnNPpITpBcZkH6QAS4hD8EE_6c18d0o3S88cRe2xGvNeU2enRWNj-MJCVf6mfUtcQi6Zh7KJrbUNguItqGYQEN0qAQqlrazwHfckAT8AcMoCPokPFl22SRtwPuMNC8nvcfh5cKJbohJ3KcL2","width":4608}],"place_id":"ChIJV63WzoZFiEgRAO0qk63sznY","plus_code":{"compound_code":"VP9G+MH Glasgow","global_code":"9C7QVP9G+MH"},"rating":4.6,"reference":"ChIJV63WzoZFiEgRAO0qk63sznY","types":["meal_takeaway","restaurant","point_of_interest","food","establishment"],"user_ratings_total":111},{"business_status":"OPERATIONAL","formatted_address":"171 Westmuir St, Parkhead, Glasgow G31 5EY","geometry":{"location":{"lat":55.8519652,"lng":-4.1920792},"viewport":{"northeast":{"lat":55.85336417989272,"lng":-4.190811520107278},"southwest":{"lat":55.85066452010727,"lng":-4.193511179892722}}},"icon":"https://maps.gstatic.com/mapfiles/place_api/icons/v1/png_71/restaurant-71.png","icon_background_color":"#FF9E67","icon_mask_base_uri":"https://maps.gstatic.com/mapfiles/place_api/icons/v2/restaurant_pinlet","name":"Golden Corner","opening_hours":{"open_now":true},"photos":[{"height":5792,"html_attributions":["<a href=\"https://maps.google.com/maps/contrib/108653167986216482418\">Huaming Zheng</a>"],"photo_reference":"AeJbb3dgs18b1F5bnB2qm8lV4nhLAnRgEr2PihlhDB6P4lsoDo8FwGaPudXvMOOJr3R7HY4MML-a5Ygl0zzIo0f9P-dEn0UPlwF4pfelFeZo_IsDK4XWENnCO8UuPyGtDeS2k87Gq11W0oGvZh4Gz6nppdDM_rmgx7ikx6YaN4xMZrY5XzSU","width":4344}],"place_id":"ChIJezqXI61BiEgReZlwPB_Clno","plus_code":{"compound_code":"VR25+Q5 Glasgow","global_code":"9C7QVR25+Q5"},"rating":4.6,"reference":"ChIJezqXI61BiEgReZlwPB_Clno","types":["meal_takeaway","restaurant","point_of_interest","food","establishment"],"user_ratings_total":13},{"business_status":"OPERATIONAL","formatted_address":"50 Queen St, Glasgow G1 3DS","geometry":{"location":{"lat":55.8589245,"lng":-4.2521152},"viewport":{"northeast":{"lat":55.86027607989272,"lng":-4.250780570107278},"southwest":{"lat":55.85757642010728,"lng":-4.253480229892721}}},"icon":"https://maps.gstatic.com/mapfiles/place_api/icons/v1/png_71/restaurant-71.png","icon_background_color":"#FF9E67","icon_mask_base_uri":"https://maps.gstatic.com/mapfiles/place_api/icons/v2/restaurant_pinlet","name":"Ichiban","opening_hours":{"open_now":true},"photos":[{"height":3024,"html_attributions":["<a href=\"https://maps.google.com/maps/contrib/118417998612385725879\">Ellie Alexander</a>"],"photo_reference":"AeJbb3eei2gR_oXDZmQof4KuU939w9dsFCtx0PVDAjhIpA9Y-wLtFNTKlEuFYqPhjl8NsOi6xvZynkJErLpj74EDusFeOpKC55BvTvbsPXKVggEjQNkQHHslD_f3hh3CA_-P6mxUjPeaLArPOGuYOAODmi9Q64QzXdbo3FY41ye40MAgEb6n","width":4032}],"place_id":"ChIJ-dteZZ9GiEgRQt5rMoThppI","plus_code":{"compound_code":"VP5X+H6 Glasgow","global_code":"9C7QVP5X+H6"},"price_level":2,"rating":4.5,"reference":"ChIJ-dteZZ9GiEgRQt5rMoThppI","types":["restaurant","food","point_of_interest","establishment"],"user_ratings_total":1318},{"business_status":"OPERATIONAL","formatted_address":"130 George St, Glasgow G1 1RG","geometry":{"location":{"lat":55.8610978,"lng":-4.2451002},"viewport":{"northeast":{"lat":55.86251082989273,"lng":-4.243731270107279},"southwest":{"lat":55.85981117010728,"lng":-4.246430929892723}}},"icon":"https://maps.gstatic.com/mapfiles/place_api/icons/v1/png_71/shopping-71.png","icon_background_color":"#4B96F3","icon_mask_base_uri":"https://maps.gstatic.com/mapfiles/place_api/icons/v2/shoppingcart_pinlet","name":"Oaka Supercity George Street","opening_hours":{"open_now":true},"photos":[{"height":1345,"html_attributions":["<a href=\"https://maps.google.com/maps/contrib/105845042221864534809\">A Google User</a>"],"photo_reference":"AeJbb3fMgwzvbXlN-bAkVO-qbcMI4XLJfof5OePkiedYnpuAi2KGkOnUhzJ7WUMi4RbRpyVC84BKh_shRL5otYJeLFt5yR2LqLb6zOcetKDDDP6ecGDNk4siUGq6qNjtkooPoQUPCzxcU8X6PfinPz85hVWKPl8BWqOPa_APnB0BgCtft7nk","width":1080}],"place_id":"ChIJe6LZxaBGiEgRNnPDU0GSH0Y","plus_code":{"compound_code":"VQ63+CX Glasgow","global_code":"9C7QVQ63+CX"},"rating":4.5,"reference":"ChIJe6LZxaBGiEgRNnPDU0GSH0Y","types":["meal_takeaway","cafe","supermarket","grocery_or_supermarket","restaurant","food","store","point_of_interest","establishment"],"user_ratings_total":575},{"business_status":"OPERATIONAL","formatted_address":"1100 Pollokshaws Rd, Shawlands, Glasgow G41 3XA","geometry":{"location":{"lat":55.8307201,"lng":-4.280641999999999},"viewport":{"northeast":{"lat":55.83203487989272,"lng":-4.279238370107278},"southwest":{"lat":55.82933522010728,"lng":-4.281938029892722}}},"icon":"https://maps.gstatic.com/mapfiles/place_api/icons/v1/png_71/restaurant-71.png","icon_background_color":"#FF9E67","icon_mask_base_uri":"https://maps.gstatic.com/mapfiles/place_api/icons/v2/restaurant_pinlet","name":"Okome Shawlands","opening_hours":{"open_now":true},"photos":[{"height":1080,"html_attributions":["<a href=\"https://maps.google.com/maps/contrib/116629637278001168103\">A Google User</a>"],"photo_reference":"AeJbb3dpRtwUF5knPvluNS1pwDjtEECTn4cu37ew5vKjxOux81FuMMtdlJes0tzQ-1YtiHRJXNwDhg_v4nHfVb_fNFKns1Ijf0V1Y4xjudrobO7SFLLxoId9hlCYaVpuu-7ucgXTO53kVM_kdG2xsWksQ-oXjG3fNTwpVL4r5K7Lm2iAhQFn","width":1620}],"place_id":"ChIJVfrT_HdHiEgRfsRAtbamFOA","plus_code":{"compound_code":"RPJ9+7P Glasgow","global_code":"9C7QRPJ9+7P"},"rating":4.5,"reference":"ChIJVfrT_HdHiEgRfsRAtbamFOA","types":["restaurant","food","point_of_interest","establishment"],"user_ratings_total":131},{"business_status":"OPERATIONAL","formatted_address":"55 Union St, Glasgow G1 3RB","geometry":{"location":{"lat":55.85944989999999,"lng":-4.2571276},"viewport":{"northeast":{"lat":55.86080377989273,"lng":-4.255674670107279},"southwest":{"lat":55.85810412010728,"lng":-4.258374329892723}}},"icon":"https://maps.gstatic.com/mapfiles/place_api/icons/v1/png_71/restaurant-71.png","icon_background_color":"#FF9E67","icon_mask_base_uri":"https://maps.gstatic.com/mapfiles/place_api/icons/v2/restaurant_pinlet","name":"Sushi Ya Glasgow","opening_hours":{"open_now":true},"photos":[{"height":1080,"html_attributions":["<a href=\"https://maps.google.com/maps/contrib/100694464198218864189\">A Google User</a>"],"photo_reference":"AeJbb3edUYQbKurAPkQ1frGB_AmVACqrkcYxilYkgMh4eCmRTUb7bn7h2wk5dkSPNSnV0hv_x9VxIcFaeYESGgp_uo4zBSp5RFFNahrAsgUZ6E2kPGPBQ72UL-D8MDnCJV-gbYMIFu4yNMMB7bhzXb-joPRip81_XghiQAuFRoXZ4t3kXYyK","width":1920}],"place_id":"ChIJN-OBqgpHiEgR53WDLque9q4","plus_code":{"compound_code":"VP5V+Q4 Glasgow","global_code":"9C7QVP5V+Q4"},"rating":4.5,"reference":"ChIJN-OBqgpHiEgR53WDLque9q4","types":["restaurant","food","point_of_interest","establishment"],"user_ratings_total":127},{"business_status":"OPERATIONAL","formatted_address":"10-12 Albert Dr, Glasgow G41 2PE","geometry":{"location":{"lat":55.8410916,"lng":-4.2661146},"viewport":{"northeast":{"lat":55.84248022989272,"lng":-4.264854070107277},"southwest":{"lat":55.83978057010728,"lng":-4.267553729892722}}},"icon":"https://maps.gstatic.com/mapfiles/place_api/icons/v1/png_71/restaurant-71.png","icon_background_color":"#FF9E67","icon_mask_base_uri":"https://maps.gstatic.com/mapfiles/place_api/icons/v2/restaurant_pinlet","name":"Sushi Katsu","opening_hours":{"open_now":true},"photos":[{"height":608,"html_attributions":["<a href=\"https://maps.google.com/maps/contrib/100797123099820961335\">A Google User</a>"],"photo_reference":"AeJbb3eK6x3CuqMxti55vM6dyZCwJhEKsz42JEiw6ZCHo0u7kVEtLfJ2gov0v2ZwlN98XuNddDhMeaWYSC5QYMgZ52P5noFPdcd5l6T9l0KXzz7Zhe9lofVJFGI3ZN6LgLYqUiNNv3F5EYcIRQzW9_Ja2RMMD5_M8trUvYZ-Nt-RIO2E_R0J","width":1080}],"place_id":"ChIJXXZAvaBHiEgReGP_2O9UmIg","plus_code":{"compound_code":"RPRM+CH Glasgow","global_code":"9C7QRPRM+CH"},"rating":4.5,"reference":"ChIJXXZAvaBHiEgReGP_2O9UmIg","types":["meal_takeaway","restaurant","food","point_of_interest","establishment"],"user_ratings_total":22},{"business_status":"OPERATIONAL","formatted_address":"17-23 Bridge St, Glasgow G5 9JB","geometry":{"location":{"lat":55.853964,"lng":-4.258210399999999},"viewport":{"northeast":{"lat":55.85530567989272,"lng":-4.256940970107278},"southwest":{"lat":55.85260602010728,"lng":-4.259640629892722}}},"icon":"https://maps.gstatic.com/mapfiles/place_api/icons/v1/png_71/restaurant-71.png","icon_background_color":"#FF9E67","icon_mask_base_uri":"https://maps.gstatic.com/mapfiles/place_api/icons/v2/restaurant_pinlet","name":"Namak Mandi","opening_hours":{"open_now":true},"photos":[{"height":876,"html_attributions":["<a href=\"https://maps.google.com/maps/contrib/113006410364826441241\">A Google User</a>"],"photo_reference":"AeJbb3e5eOCjocpZYI7emDoOAaLrcX0XtHTpXEJpgn2r_ie4OvQcAf6E6Z6QxWBsWY63IPbjG-qp8-DQBB_FJVbat8XQifJUmtU2ClTDWTNMFbHEmLN4ev1AtpJsc1Q7OjXy64D9chtb0q9zxwKTK0MYWzwqR93rgtMx3OWYPLC_rmwXKqvY","width":960}],"place_id":"ChIJj_ToLppGiEgRvZ00FNzMjG0","plus_code":{"compound_code":"VP3R+HP Glasgow","global_code":"9C7QVP3R+HP"},"rating":4.4,"reference":"ChIJj_ToLppGiEgRvZ00FNzMjG0","types":["restaurant","point_of_interest","food","establishment"],"user_ratings_total":1319},{"business_status":"OPERATIONAL","formatted_address":"69 W Nile St, Glasgow G1 2QB","geometry":{"location":{"lat":55.8624395,"lng":-4.2549962},"viewport":{"northeast":{"lat":55.86377887989273,"lng":-4.253563870107278},"southwest":{"lat":55.86107922010728,"lng":-4.256263529892722}}},"icon":"https://maps.gstatic.com/mapfiles/place_api/icons/v1/png_71/restaurant-71.png","icon_background_color":"#FF9E67","icon_mask_base_uri":"https://maps.gstatic.com/mapfiles/place_api/icons/v2/restaurant_pinlet","name":"Dim Sum Restaurant","opening_hours":{"open_now":true},"photos":[{"height":1184,"html_attributions":["<a href=\"https://maps.google.com/maps/contrib/100558065154545077007\">沈璐</a>"],"photo_reference":"AeJbb3dfOr07DsYRsc0c95YbvdPQaUJ5mmo8nDruNux52YlwxyDfhuEe_6zw15hixR-r5Kc3FXDhib1JExAnU9VPZWkKPU6wAnXrum15H5MMq-6pcCpgFTXZl_YURi0csN2yonH5M_7wtEVOL0wBsWuDIbJUv-ixDfc7oqWqTbDKGIQKjNAz","width":1776}],"place_id":"ChIJOwNkfyBEiEgR3TEh6WBXW6E","plus_code":{"compound_code":"VP6W+X2 Glasgow","global_code":"9C7QVP6W+X2"},"price_level":2,"rating":4.4,"reference":"ChIJOwNkfyBEiEgR3TEh6WBXW6E","types":["restaurant","point_of_interest","food","establishment"],"user_ratings_total":755},{"business_status":"OPERATIONAL","formatted_address":"106 George St, Glasgow G1 1RF","geometry":{"location":{"lat":55.8609965,"lng":-4.244393},"viewport":{"northeast":{"lat":55.86233747989272,"lng":-4.243116870107277},"southwest":{"lat":55.85963782010728,"lng":-4.245816529892721}}},"icon":"https://maps.gstatic.com/mapfiles/place_api/icons/v1/png_71/restaurant-71.png","icon_background_color":"#FF9E67","icon_mask_base_uri":"https://maps.gstatic.com/mapfiles/place_api/icons/v2/restaurant_pinlet","name":"Yippon","opening_hours":{"open_now":true},"photos":[{"height":3780,"html_attributions":["<a href=\"https://maps.google.com/maps/contrib/117676307725213564873\">A Google User</a>"],"photo_reference":"AeJbb3cQy-pu-1AjGz2EzPN92Nc3CLHJaJyUn2zyEQVsYAYTDAScpU3WJRoHM-ZQHFA5NffiCy3YiQO02DC49HSG3SVk4O7Al-w0UTH5m1FApB7gwE_VDhWggj1GFOqTgnrRly-lWbUE9OQ1KvEYV1bXuS9M9n5UJBuqYv487rWpBUJ8xIlS","width":3024}],"place_id":"ChIJA6rVzKBGiEgR2M3zDxs0Db8","plus_code":{"compound_code":"VQ64+96 Glasgow","global_code":"9C7QVQ64+96"},"price_level":2,"rating":4.4,"reference":"ChIJA6rVzKBGiEgR2M3zDxs0Db8","types":["cafe","restaurant","food","store","point_of_interest","establishment"],"user_ratings_total":549},{"business_status":"OPERATIONAL","formatted_address":"443 Clarkston Rd, Muirend, Glasgow G44 3LL","geometry":{"location":{"lat":55.8101794,"lng":-4.2707134},"viewport":{"northeast":{"lat":55.81153692989272,"lng":-4.269385170107278},"southwest":{"lat":55.80883727010728,"lng":-4.272084829892722}}},"icon":"https://maps.gstatic.com/mapfiles/place_api/icons/v1/png_71/bar-71.png","icon_background_color":"#FF9E67","icon_mask_base_uri":"https://maps.gstatic.com/mapfiles/place_api/icons/v2/bar_pinlet","name":"The Bank Glasgow","opening_hours":{"open_now":true},"photos":[{"height":747,"html_attributions":["<a href=\"https://maps.google.com/maps/contrib/101787992304233840077\">The Bank Bar Diner</a>"],"photo_reference":"AeJbb3cF5eUhocUDQfFiQzrpyA1n5ibFuUqpR5fCqqHF_is_HBv5ER984rxfvx1Dlc3LMzun_ITQQSuDZXQwV4eBTFWvk77VMZR6fj1cNe-1QtAEQiYLBYGKv7a131yYZ8yz6-K5MHm7Pzbp1gekasauAgmY6sxij1H3fF6SrGdCtXsuGfaA","width":1328}],"place_id":"ChIJ37zRFQdHiEgRm_927RFGhPw","plus_code":{"compound_code":"RP6H+3Q Glasgow","global_code":"9C7QRP6H+3Q"},"price_level":2,"rating":4.4,"reference":"ChIJ37zRFQdHiEgRm_927RFGhPw","types":["bar","restaurant","point_of_interest","food","establishment"],"user_ratings_total":499},{"business_status":"OPERATIONAL","formatted_address":"71-77 Byres Rd, Glasgow G11 5HN","geometry":{"location":{"lat":55.8718778,"lng":-4.297988699999999},"viewport":{"northeast":{"lat":55.87319907989273,"lng":-4.296517770107278},"southwest":{"lat":55.87049942010729,"lng":-4.299217429892722}}},"icon":"https://maps.gstatic.com/mapfiles/place_api/icons/v1/png_71/restaurant-71.png","icon_background_color":"#FF9E67","icon_mask_base_uri":"https://maps.gstatic.com/mapfiles/place_api/icons/v2/restaurant_pinlet","name":"Embargo Glasgow","opening_hours":{"open_now":true},"photos":[{"height":2736,"html_attributions":["<a href=\"https://maps.google.com/maps/contrib/114106695639481488495\">Alex Li</a>"],"photo_reference":"AeJbb3fgcBJ200AJguTDjC8s94G3b1Cmij0fufNMS4QC-9ecduL3pbdFTIfqh7YORcnNrWB9ze3OUtQ_eUBde2cakK0d8qdjgoHyMedIfcGfW8RagxPO6tQ0NShuNv8uOw5yiUGx1p1JN6imzt7CSX9w_07qwpAtNF3Q4RbgrejaWaHogMnd","width":3648}],"place_id":"ChIJSVgX7pVFiEgRD0V8y9Xv0xk","plus_code":{"compound_code":"VPC2+QR Glasgow","global_code":"9C7QVPC2+QR"},"price_level":2,"rating":4.4,"reference":"ChIJSVgX7pVFiEgRD0V8y9Xv0xk","types":["restaurant","bar","point_of_interest","food","establishment"],"user_ratings_total":299},{"business_status":"OPERATIONAL","formatted_address":"4-5 The Toll, Clarkston, Glasgow G76 7BG","geometry":{"location":{"lat":55.79008580000001,"lng":-4.2770941},"viewport":{"northeast":{"lat":55.79138197989273,"lng":-4.275769670107278},"southwest":{"lat":55.78868232010728,"lng":-4.278469329892722}}},"icon":"https://maps.gstatic.com/mapfiles/place_api/icons/v1/png_71/restaurant-71.png","icon_background_color":"#FF9E67","icon_mask_base_uri":"https://maps.gstatic.com/mapfiles/place_api/icons/v2/restaurant_pinlet","name":"Okome Clarkston","opening_hours":{"open_now":true},"photos":[{"height":2269,"html_attributions":["<a href=\"https://maps.google.com/maps/contrib/105760420710683837030\">A Google User</a>"],"photo_reference":"AeJbb3fCSgC6mPH5mLstzWkIayWNZfvHXO9kgnxIGLovB77a4Mwt961w_bWZUX4XF7AO81ybzJGy0lnrDVkmt0jFF8osSMJz3psjgLiVORRRERLkkawi36Wp4DW7T7MS85ODFJVUIq4I88e0mIVpVtlz7yUChwX0DyruMf_efwj0qMv82yXB","width":4032}],"place_id":"ChIJs8N5mlxHiEgRDo3AWI6taAk","plus_code":{"compound_code":"QPRF+25 Clarkston, Glasgow","global_code":"9C7QQPRF+25"},"rating":4.4,"reference":"ChIJs8N5mlxHiEgRDo3AWI6taAk","types":["restaurant","food","point_of_interest","establishment"],"user_ratings_total":60},{"business_status":"OPERATIONAL","formatted_address":"81 Mill St., Rutherglen, Glasgow G73 2LD","geometry":{"location":{"lat":55.8254787,"lng":-4.2174873},"viewport":{"northeast":{"lat":55.82681862989272,"lng":-4.216140470107279},"southwest":{"lat":55.82411897010727,"lng":-4.218840129892723}}},"icon":"https://maps.gstatic.com/mapfiles/place_api/icons/v1/png_71/restaurant-71.png","icon_background_color":"#FF9E67","icon_mask_base_uri":"https://maps.gstatic.com/mapfiles/place_api/icons/v2/restaurant_pinlet","name":"Okaerie","opening_hours":{"open_now":true},"photos":[{"height":4032,"html_attributions":["<a href=\"https://maps.google.com/maps/contrib/109626023733063192021\">A Google User</a>"],"photo_reference":"AeJbb3ds7RSQAQegq3KBP5chCEDgezxft_cJIp7w2R-WB_cLiHxU7cCRL2SIpJIPBu4AOWX-NUQPI1G0Cpw--1yt6aol9kQ_ga0GksuHQBTTtP32HmOqefU3l2rayFqO0C-C8NkbZdEK-UBz0RsBRf1I-zqDOQ6iEKxHfoJy39lGgi81dP-e","width":3024}],"place_id":"ChIJlYAwvMZHiEgR_YNvk5Xpxg8","plus_code":{"compound_code":"RQGM+52 Rutherglen, Glasgow","global_code":"9C7QRQGM+52"},"rating":4.4,"reference":"ChIJlYAwvMZHiEgR_YNvk5Xpxg8","types":["restaurant","food","point_of_interest","establishment"],"user_ratings_total":30},{"business_status":"OPERATIONAL","formatted_address":"91 W George St, Glasgow G2 1PB","geometry":{"location":{"lat":55.8620617,"lng":-4.2551472},"viewport":{"northeast":{"lat":55.86337992989272,"lng":-4.253719820107277},"southwest":{"lat":55.86068027010728,"lng":-4.256419479892721}}},"icon":"https://maps.gstatic.com/mapfiles/place_api/icons/v1/png_71/restaurant-71.png","icon_background_color":"#FF9E67","icon_mask_base_uri":"https://maps.gstatic.com/mapfiles/place_api/icons/v2/restaurant_pinlet","name":"Nippon Kitchen","opening_hours":{"open_now":true},"photos":[{"height":563,"html_attributions":["<a href=\"https://maps.google.com/maps/contrib/112184897042040697733\">nippon kitchen</a>"],"photo_reference":"AeJbb3c7a7U0BmvM-egFhvyxV0M5A9Uh_ol4BjsgW6bvKwLJG8y0ul4vCDErNVkPYc5whM760oC0ICqSss0BTRWOOo6QwRJSqPGNPxMRLxhO4ih6fMUcZg7wcXAwhDGUrLUGobS0N8_Can-BMneVEDVz_hS4RXoc0f-VsOxSq3OVEfPKkyUA","width":1000}],"place_id":"ChIJI-QN1J9GiEgRdLqpGJFRnbw","plus_code":{"compound_code":"VP6V+RW Glasgow","global_code":"9C7QVP6V+RW"},"price_level":2,"rating":4.3,"reference":"ChIJI-QN1J9GiEgRdLqpGJFRnbw","types":["restaurant","food","point_of_interest","establishment"],"user_ratings_total":1897},{"business_status":"OPERATIONAL","formatted_address":"16-20 W Nile St, Glasgow G1 2PW","geometry":{"location":{"lat":55.86083,"lng":-4.2552088},"viewport":{"northeast":{"lat":55.86219632989272,"lng":-4.253955020107279},"southwest":{"lat":55.85949667010727,"lng":-4.256654679892723}}},"icon":"https://maps.gstatic.com/mapfiles/place_api/icons/v1/png_71/restaurant-71.png","icon_background_color":"#FF9E67","icon_mask_base_uri":"https://maps.gstatic.com/mapfiles/place_api/icons/v2/restaurant_pinlet","name":"Las Iguanas - Glasgow","opening_hours":{"open_now":true},"photos":[{"height":1818,"html_attributions":["<a href=\"https://maps.google.com/maps/contrib/110717146317670837028\">Las Iguanas</a>"],"photo_reference":"AeJbb3cSUtw4-wzR2_BfedvVUuRT7YhJHNd1LB9-38bmUR47-KH9pLacAA1EHhkfuH8Jc58WkYwrbHIhXs4nhJMgDU32pM1EINQIMvEwOe3sAAp3hSldfS_WV_pCUbgYug2Lq5Bon1ouiFDycDTWSbJ-QvyU5hiXhuTK8WUEU9AlGwwcIa2-","width":1212}],"place_id":"ChIJv8KitZ9GiEgR5Q5yaSI7Di4","plus_code":{"compound_code":"VP6V+8W Glasgow","global_code":"9C7QVP6V+8W"},"price_level":2,"rating":4.3,"reference":"ChIJv8KitZ9GiEgR5Q5yaSI7Di4","types":["bar","restaurant","point_of_interest","food","establishment"],"user_ratings_total":1879},{"business_status":"OPERATIONAL","formatted_address":"113 Hope St, Glasgow G2 6LL","geometry":{"location":{"lat":55.8608275,"lng":-4.2588983},"viewport":{"northeast":{"lat":55.86216057989272,"lng":-4.257434870107278},"southwest":{"lat":55.85946092010728,"lng":-4.260134529892722}}},"icon":"https://maps.gstatic.com/mapfiles/place_api/icons/v1/png_71/restaurant-71.png","icon_background_color":"#FF9E67","icon_mask_base_uri":"https://maps.gstatic.com/mapfiles/place_api/icons/v2/restaurant_pinlet","name":"Temaki","opening_hours":{"open_now":true},"photos":[{"height":3000,"html_attributions":["<a href=\"https://maps.google.com/maps/contrib/114050333263518845884\">Anne Horsburgh</a>"],"photo_reference":"AeJbb3fqYucujTbrw-uUzYC-DnI6HtwJlxaYDYnZAELgJ365R5b3uuBRWsfHzb66sGSSI2UsD5X_P3dlBDCnrr_LT_CdekmkRCTwse8KUXnOjqmYo1dzJTvpy3-k1h9uQSrdZw5ukUd1t6ICzk0WXx9xtUXnnTTNoJcUfAeAYFbY-EWyLxx3","width":5333}],"place_id":"ChIJn0fA351GiEgRjjBGKjWHBd0","plus_code":{"compound_code":"VP6R+8C Glasgow","global_code":"9C7QVP6R+8C"},"price_level":2,"rating":4.3,"reference":"ChIJn0fA351GiEgRjjBGKjWHBd0","types":["restaurant","food","point_of_interest","establishment"],"user_ratings_total":688},{"business_status":"OPERATIONAL","formatted_address":"116 Sauchiehall St, Glasgow G2 3DH","geometry":{"location":{"lat":55.8648085,"lng":-4.257370799999999},"viewport":{"northeast":{"lat":55.86616737989273,"lng":-4.255926020107279},"southwest":{"lat":55.86346772010729,"lng":-4.258625679892723}}},"icon":"https://maps.gstatic.com/mapfiles/place_api/icons/v1/png_71/restaurant-71.png","icon_background_color":"#FF9E67","icon_mask_base_uri":"https://maps.gstatic.com/mapfiles/place_api/icons/v2/restaurant_pinlet","name":"KOKORO","opening_hours":{"open_now":true},"photos":[{"height":3000,"html_attributions":["<a href=\"https://maps.google.com/maps/contrib/113466907040196492762\">Fred Phillips</a>"],"photo_reference":"AeJbb3e2ax-g5_LMtOwJdgwIvWtPca6abOHaUh5dedlGeZKvJwHCTUWAMQ_fWJbsmruZMeJpTHS_7X8l9cZmuYnfUvQu0TryuyhoccYxZUvBRC6VKarAyFwgQW-bpoWwcJTVaV0ixRH0fatKLOYCpu2bKMnncKzG8s68DRz4VEYWUCb45_PY","width":3000}],"place_id":"ChIJq6o-4SBEiEgRY0UonBRMcJ0","plus_code":{"compound_code":"VP7V+W3 Glasgow","global_code":"9C7QVP7V+W3"},"price_level":1,"rating":4.3,"reference":"ChIJq6o-4SBEiEgRY0UonBRMcJ0","types":["restaurant","point_of_interest","food","establishment"],"user_ratings_total":183},{"business_status":"OPERATIONAL","formatted_address":"91 St Vincent St, Glasgow G2 5TF","geometry":{"location":{"lat":55.86133599999999,"lng":-4.2565463},"viewport":{"northeast":{"lat":55.86265002989272,"lng":-4.255255220107278},"southwest":{"lat":55.85995037010728,"lng":-4.257954879892722}}},"icon":"https://maps.gstatic.com/mapfiles/place_api/icons/v1/png_71/bar-71.png","icon_background_color":"#FF9E67","icon_mask_base_uri":"https://maps.gstatic.com/mapfiles/place_api/icons/v2/bar_pinlet","name":"Drum & Monkey Glasgow","opening_hours":{"open_now":true},"photos":[{"height":2268,"html_attributions":["<a href=\"https://maps.google.com/maps/contrib/101291581063805610883\">Mark Keating</a>"],"photo_reference":"AeJbb3e29UMYevrzMtbiocOJOWd018NT3r727Xo5lK2q4qWoNovj-_MNhVHco63-pNNbYECnOQg9T-ZorDm_spzD-WtcgCshhEVuD5oe7wL6-DkzWQLrtZ_0uNOBCGnRhz5kFw3HckuxVXk-pcLH2PqDKH01Lizz4pJ1ZQOHhySpbzpDuMUo","width":4032}],"place_id":"ChIJG3O2N55GiEgR0rR7w_iVY20","plus_code":{"compound_code":"VP6V+GC Glasgow","global_code":"9C7QVP6V+GC"},"price_level":2,"rating":4.2,"reference":"ChIJG3O2N55GiEgR0rR7w_iVY20","types":["bar","restaurant","point_of_interest","food","establishment"],"user_ratings_total":1731},{"business_status":"OPERATIONAL","formatted_address":"60-68 Park Rd, Glasgow G4 9JF","geometry":{"location":{"lat":55.8732116,"lng":-4.279199699999999},"viewport":{"northeast":{"lat":55.87453682989272,"lng":-4.277767420107277},"southwest":{"lat":55.87183717010728,"lng":-4.280467079892721}}},"icon":"https://maps.gstatic.com/mapfiles/place_api/icons/v1/png_71/restaurant-71.png","icon_background_color":"#FF9E67","icon_mask_base_uri":"https://maps.gstatic.com/mapfiles/place_api/icons/v2/restaurant_pinlet","name":"Shish Mahal Restaurant","opening_hours":{"open_now":true},"photos":[{"height":3024,"html_attributions":["<a href=\"https://maps.google.com/maps/contrib/115587562945535420084\">John McCartney</a>"],"photo_reference":"AeJbb3fRkAXFnRflYHiCc72iRT2fzd6s1TMBXde5mYexZts08Esbes0J5cMX7zr5HSNGksEq6IdT9QtbNk-3V3u__a24H8CriaDGKESxtsniwOkuQm76sVsD4MR8wMzfg5D2n7baRJ9EgzXrmxY-Cj7LjBul9VhX2DHk_yL2-ezEtnHWreM3","width":4032}],"place_id":"ChIJCVPAfB5EiEgR1sqpI3rGW1E","plus_code":{"compound_code":"VPFC+78 Glasgow","global_code":"9C7QVPFC+78"},"price_level":2,"rating":4.2,"reference":"ChIJCVPAfB5EiEgR1sqpI3rGW1E","types":["restaurant","point_of_interest","food","establishment"],"user_ratings_total":526},{"business_status":"OPERATIONAL","formatted_address":"130 W Regent St, Glasgow G2 2RQ","geometry":{"location":{"lat":55.863693,"lng":-4.259717},"viewport":{"northeast":{"lat":55.86493902989272,"lng":-4.258372570107278},"southwest":{"lat":55.86223937010728,"lng":-4.261072229892722}}},"icon":"https://maps.gstatic.com/mapfiles/place_api/icons/v1/png_71/restaurant-71.png","icon_background_color":"#FF9E67","icon_mask_base_uri":"https://maps.gstatic.com/mapfiles/place_api/icons/v2/restaurant_pinlet","name":"Kcal","opening_hours":{"open_now":true},"photos":[{"height":4032,"html_attributions":["<a href=\"https://maps.google.com/maps/contrib/114735128450773181605\">Kcal kitchen</a>"],"photo_reference":"AeJbb3d1u2z9AwS8Frggq9GfEXli4lqgje8OSiP5yBcEEVzo45AK9egi38f13XKL4FoOfJ--YtoGGqD1UTc7-pOKIbhdEDAgWBMJKM0j9DrCu11Ylfx4t-re9OVf_VZLfHesPfiNYyzEqB7BkKfOUEZmuIo00XSm7CsfPxKnYijWy46SKQkL","width":3024}],"place_id":"ChIJKar0NSdEiEgRpz-DrTL8tsc","plus_code":{"compound_code":"VP7R+F4 Glasgow","global_code":"9C7QVP7R+F4"},"price_level":2,"rating":4.2,"reference":"ChIJKar0NSdEiEgRpz-DrTL8tsc","types":["restaurant","point_of_interest","food","establishment"],"user_ratings_total":474},{"business_status":"OPERATIONAL","formatted_address":"Braehead Shopping Centre, Unit C7, Intu, King's Inch Rd, Glasgow G51 4BP","geometry":{"location":{"lat":55.876423,"lng":-4.3646589},"viewport":{"northeast":{"lat":55.87728132989272,"lng":-4.363972020107279},"southwest":{"lat":55.87458167010728,"lng":-4.366671679892723}}},"icon":"https://maps.gstatic.com/mapfiles/place_api/icons/v1/png_71/restaurant-71.png","icon_background_color":"#FF9E67","icon_mask_base_uri":"https://maps.gstatic.com/mapfiles/place_api/icons/v2/restaurant_pinlet","name":"YO! Glasgow Braehead","opening_hours":{"open_now":true},"photos":[{"height":2268,"html_attributions":["<a href=\"https://maps.google.com/maps/contrib/115950637091366497375\">James Blattner</a>"],"photo_reference":"AeJbb3epllb1rebKdFUo3w4Y5trja3xsVac7_Z3PbTvMqrpLOOXByntm-uWv1SN-J4R-BbLRkuab2FKnnd6DSbubI3_Cp0fIQgacz5Gpc1WtJQ1cc3sIHu38EnIavfpj9p9pEx8YCfxKXR26rLpZovJIcdtZGkNckXo_EBeEM8Jl4QD7fBHk","width":4032}],"place_id":"ChIJc4b040NPiEgRYkZuoNjzyPQ","plus_code":{"compound_code":"VJGP+H4 Renfrew","global_code":"9C7QVJGP+H4"},"price_level":2,"rating":4.2,"reference":"ChIJc4b040NPiEgRYkZuoNjzyPQ","types":["restaurant","food","point_of_interest","establishment"],"user_ratings_total":400},{"business_status":"OPERATIONAL","formatted_address":"City Centre, 6 Renfield St, Glasgow G2 5AL","geometry":{"location":{"lat":55.8607465,"lng":-4.2567834},"viewport":{"northeast":{"lat":55.86207627989272,"lng":-4.255516220107278},"southwest":{"lat":55.85937662010728,"lng":-4.258215879892722}}},"icon":"https://maps.gstatic.com/mapfiles/place_api/icons/v1/png_71/restaurant-71.png","icon_background_color":"#FF9E67","icon_mask_base_uri":"https://maps.gstatic.com/mapfiles/place_api/icons/v2/restaurant_pinlet","name":"Taco Mazama","opening_hours":{"open_now":true},"photos":[{"height":2128,"html_attributions":["<a href=\"https://maps.google.com/maps/contrib/112061310967603453756\">Hemant Gupta</a>"],"photo_reference":"AeJbb3cusujNMpmBWBljbwrRCLbz67Guvqhac1uExnSKTqUAJo_7qcYZMVqTgWmvYPK0ahpzxbz1RqAvKNuD3glON2yckOEBOBEn0U0arFhc9tVHCxV4oJMDim2EYe-RVRITzhdihSj6Mi5JxXXnKweFaQqy7zfGWZMDJd5FavvQEUFBhynN","width":4608}],"place_id":"ChIJS2jlRp5GiEgRZuK2AO1rcd4","plus_code":{"compound_code":"VP6V+77 Glasgow","global_code":"9C7QVP6V+77"},"price_level":2,"rating":4.2,"reference":"ChIJS2jlRp5GiEgRZuK2AO1rcd4","types":["restaurant","point_of_interest","food","establishment"],"user_ratings_total":356},{"business_status":"OPERATIONAL","formatted_address":"161 Byres Rd, Glasgow G12 8TS","geometry":{"location":{"lat":55.8736708,"lng":-4.2958281},"viewport":{"northeast":{"lat":55.87502567989272,"lng":-4.294351920107278},"southwest":{"lat":55.87232602010728,"lng":-4.297051579892722}}},"icon":"https://maps.gstatic.com/mapfiles/place_api/icons/v1/png_71/restaurant-71.png","icon_background_color":"#FF9E67","icon_mask_base_uri":"https://maps.gstatic.com/mapfiles/place_api/icons/v2/restaurant_pinlet","name":"Okome","opening_hours":{"open_now":true},"photos":[{"height":4032,"html_attributions":["<a href=\"https://maps.google.com/maps/contrib/102703456250634517156\">Lauren Patrick</a>"],"photo_reference":"AeJbb3cNGt96-WhO-WoZZ83fhq1dhOfn4PGlTP444YzSUS50FvFpSguxyZdg3XdK7mElUEZFWoXJq-Ze5wLE1k1RAz3_TJiXqsIHuFtFSz1fE84nVeEsSP-MgcLrEUzEtqO5VnmsIxJtiSS9qAReki3q0PWJWR_k9EA8Fc-4lxodRIqmhi72","width":2268}],"place_id":"ChIJG8ETv89FiEgRtnlSNtkNzlc","plus_code":{"compound_code":"VPF3+FM Glasgow","global_code":"9C7QVPF3+FM"},"rating":4.2,"reference":"ChIJG8ETv89FiEgRtnlSNtkNzlc","types":["restaurant","food","point_of_interest","establishment"],"user_ratings_total":165},{"business_status":"OPERATIONAL","formatted_address":"85 W George St, Glasgow G2 1QG","geometry":{"location":{"lat":55.86199509999999,"lng":-4.2546745},"viewport":{"northeast":{"lat":55.86336402989272,"lng":-4.253477470107278},"southwest":{"lat":55.86066437010728,"lng":-4.256177129892722}}},"icon":"https://maps.gstatic.com/mapfiles/place_api/icons/v1/png_71/restaurant-71.png","icon_background_color":"#FF9E67","icon_mask_base_uri":"https://maps.gstatic.com/mapfiles/place_api/icons/v2/restaurant_pinlet","name":"YO! Glasgow Central","opening_hours":{"open_now":true},"photos":[{"height":2268,"html_attributions":["<a href=\"https://maps.google.com/maps/contrib/107664234912788296065\">Dillon Mitchell</a>"],"photo_reference":"AeJbb3fku8L_z9OfRATByTtsuO3hVJuxf8ccu23KKLM4rKWFersMGmL7IDlCUR6RtWO-ibq7UE9qfLyxog4_aU1ahXTiut_ksH9e-XSsbhxqwPIsen2NwaaWSoc72kKUIWBsVRJFaGOlzYZNJfAekxLD8d51IWJmyTI0wNdEI92RlBvWfDzu","width":4032}],"place_id":"ChIJh0Xi0J9GiEgRxnIIembfPcA","plus_code":{"compound_code":"VP6W+Q4 Glasgow","global_code":"9C7QVP6W+Q4"},"price_level":2,"rating":4.1,"reference":"ChIJh0Xi0J9GiEgRxnIIembfPcA","types":["restaurant","food","point_of_interest","establishment"],"user_ratings_total":1265},{"business_status":"OPERATIONAL","formatted_address":"138 Queen St, Glasgow G1 3BX","geometry":{"location":{"lat":55.8606098,"lng":-4.251479799999999},"viewport":{"northeast":{"lat":55.86194767989272,"lng":-4.250211670107279},"southwest":{"lat":55.85924802010728,"lng":-4.252911329892723}}},"icon":"https://maps.gstatic.com/mapfiles/place_api/icons/v1/png_71/restaurant-71.png","icon_background_color":"#FF9E67","icon_mask_base_uri":"https://maps.gstatic.com/mapfiles/place_api/icons/v2/restaurant_pinlet","name":"Barburrito","opening_hours":{"open_now":true},"photos":[{"height":3648,"html_attributions":["<a href=\"https://maps.google.com/maps/contrib/100620386516174028827\">Wai Kei Chan</a>"],"photo_reference":"AeJbb3eFrlIvDIAJtzkZFJ8c-mMJ3f2SVOLKxgk0J3sRCIkhiJW3ybTIrEOtVjGuX_QKP6dYlHn7cwMos18W2IoTXiV-iRgaiBYdQfQkXWYYcfE2J7Wb4ztNLYXBBbOv5qGinMsRouyBd5XqP4996863Tw8z9SWS_cgLhLRxVY2gAhS2E3M","width":2736}],"place_id":"ChIJPdJ7J6BGiEgRilGzFWwmo4k","plus_code":{"compound_code":"VP6X+6C Glasgow","global_code":"9C7QVP6X+6C"},"price_level":2,"rating":4.1,"reference":"ChIJPdJ7J6BGiEgRilGzFWwmo4k","types":["restaurant","point_of_interest","food","establishment"],"user_ratings_total":858},{"business_status":"OPERATIONAL","formatted_address":"160 Queen Margaret Dr, Glasgow G20 8NX","geometry":{"location":{"lat":55.8814159,"lng":-4.2830961},"viewport":{"northeast":{"lat":55.88288712989273,"lng":-4.281652270107278},"southwest":{"lat":55.88018747010729,"lng":-4.284351929892722}}},"icon":"https://maps.gstatic.com/mapfiles/place_api/icons/v1/png_71/restaurant-71.png","icon_background_color":"#FF9E67","icon_mask_base_uri":"https://maps.gstatic.com/mapfiles/place_api/icons/v2/restaurant_pinlet","name":"ZENSATION","opening_hours":{"open_now":true},"photos":[{"height":3648,"html_attributions":["<a href=\"https://maps.google.com/maps/contrib/110041347841381629827\">Lawrence Oei</a>"],"photo_reference":"AeJbb3cGQKH6gKZw8EHDZ5DiZgP-ee-XXXtBHgRMIltpkjh4s3u6Fnt-ifIMdizI0PzrvY5CeVBofeFxACm0EBBZRIZhm-PuPYnKdZ3aiT8otJDmDlS6ZiIq0iJDx_vEwluH0LxEibh-rbaVQ7VDPGnmuW0llILaqLasv5327rDTM2CHbHHx","width":2736}],"place_id":"ChIJ11y0ajVEiEgR2s1Cq5HX35s","plus_code":{"compound_code":"VPJ8+HQ Glasgow","global_code":"9C7QVPJ8+HQ"},"price_level":2,"rating":4.1,"reference":"ChIJ11y0ajVEiEgR2s1Cq5HX35s","types":["restaurant","point_of_interest","food","establishment"],"user_ratings_total":189},{"business_status":"OPERATIONAL","formatted_address":"1499 Dumbarton Rd, Scotstoun, Glasgow G14 9XL","geometry":{"location":{"lat":55.8782013,"lng":-4.348907},"viewport":{"northeast":{"lat":55.87959932989272,"lng":-4.347497320107277},"southwest":{"lat":55.87689967010728,"lng":-4.350196979892721}}},"icon":"https://maps.gstatic.com/mapfiles/place_api/icons/v1/png_71/generic_business-71.png","icon_background_color":"#7B9EB0","icon_mask_base_uri":"https://maps.gstatic.com/mapfiles/place_api/icons/v2/generic_pinlet","name":"Pizza Amore Takeaway","opening_hours":{"open_now":true},"photos":[{"height":700,"html_attributions":["<a href=\"https://maps.google.com/maps/contrib/108014189220344652243\">A Google User</a>"],"photo_reference":"AeJbb3d327baWUGUoiKLqR29LXbU--6ONBWKcnjsj72ROwxMgnsyVjRycptTOXCyy_JWwEpsOXJHdmwB6clsV09OOJGRN4s6HlnUZXK-2KECeHcu9Uz3TDNOJAkh3feM5oe9xgzvFlGH5Yx3kcH_JmBIMbCI_OQGHa0p8CBkRZMEAhlE3Wil","width":1500}],"place_id":"ChIJVwjsjF5PiEgRowIu0jYR6h0","plus_code":{"compound_code":"VMH2+7C Glasgow","global_code":"9C7QVMH2+7C"},"rating":4.1,"reference":"ChIJVwjsjF5PiEgRowIu0jYR6h0","types":["meal_delivery","meal_takeaway","restaurant","point_of_interest","food","establishment"],"user_ratings_total":103},{"business_status":"OPERATIONAL","formatted_address":"Silverburn Shopping Centre, Barrhead Rd, Glasgow G53 6QR","geometry":{"location":{"lat":55.8206155,"lng":-4.3421426},"viewport":{"northeast":{"lat":55.82209767989273,"lng":-4.340210970107278},"southwest":{"lat":55.81939802010728,"lng":-4.342910629892722}}},"icon":"https://maps.gstatic.com/mapfiles/place_api/icons/v1/png_71/restaurant-71.png","icon_background_color":"#FF9E67","icon_mask_base_uri":"https://maps.gstatic.com/mapfiles/place_api/icons/v2/restaurant_pinlet","name":"YO! Glasgow Silverburn","opening_hours":{"open_now":true},"photos":[{"height":2976,"html_attributions":["<a href=\"https://maps.google.com/maps/contrib/110379292487333255139\">Arlene Kane</a>"],"photo_reference":"AeJbb3dLzq8OnlLfGDOuZ357gRwKn59vYIvaalF7YAEM4XHQyrKZgyutejWERtp1EtrIfVUIYOwghVcz-6Jo83pJB6GfcZyodptGLhMj0LVymMnARm--NwcdNdxXimkYzXtO0E1zz3A1CJ9IHDwNL_rttHDEn1dnXTWa8gGx97yxyfBDen2k","width":3968}],"place_id":"ChIJg58cdoRIiEgRq6eN3E9czG4","plus_code":{"compound_code":"RMC5+64 Glasgow","global_code":"9C7QRMC5+64"},"price_level":2,"rating":4,"reference":"ChIJg58cdoRIiEgRq6eN3E9czG4","types":["restaurant","food","point_of_interest","establishment"],"user_ratings_total":501},{"business_status":"OPERATIONAL","formatted_address":"198 Hope St, Glasgow G2 2UG","geometry":{"location":{"lat":55.8643596,"lng":-4.257048999999999},"viewport":{"northeast":{"lat":55.86572642989272,"lng":-4.255843070107278},"southwest":{"lat":55.86302677010728,"lng":-4.258542729892722}}},"icon":"https://maps.gstatic.com/mapfiles/place_api/icons/v1/png_71/restaurant-71.png","icon_background_color":"#FF9E67","icon_mask_base_uri":"https://maps.gstatic.com/mapfiles/place_api/icons/v2/restaurant_pinlet","name":"Subway","opening_hours":{"open_now":true},"photos":[{"height":800,"html_attributions":["<a href=\"https://maps.google.com/maps/contrib/103276189191594779502\">Subway</a>"],"photo_reference":"AeJbb3eZ7EMY1lD8CM3Iz9eNsFzucMtcDogyb8vW5sbDmVVU-SyH9eLaris-ZY0uEWk-wzmJQ2J5hCwoGpRDVgVi6YiUq92NTJeNcSVz72rpo7owFwTbBQJDICUiHO8nzs10hzPh70oLk7EF2avJEabbNjhF6rLM0P9gwBlnTnBEDuDbm_Qz","width":800}],"place_id":"ChIJh5616CBEiEgRVr7mqre47IQ","plus_code":{"compound_code":"VP7V+P5 Glasgow","global_code":"9C7QVP7V+P5"},"price_level":1,"rating":4,"reference":"ChIJh5616CBEiEgRVr7mqre47IQ","types":["meal_takeaway","restaurant","point_of_interest","food","establishment"],"user_ratings_total":237},{"business_status":"OPERATIONAL","formatted_address":"96 Dumbarton Rd, Glasgow G11 6NX","geometry":{"location":{"lat":55.8702134,"lng":-4.2980002},"viewport":{"northeast":{"lat":55.87152957989272,"lng":-4.296696970107278},"southwest":{"lat":55.86882992010727,"lng":-4.299396629892722}}},"icon":"https://maps.gstatic.com/mapfiles/place_api/icons/v1/png_71/restaurant-71.png","icon_background_color":"#FF9E67","icon_mask_base_uri":"https://maps.gstatic.com/mapfiles/place_api/icons/v2/restaurant_pinlet","name":"Rice & Noodle","opening_hours":{"open_now":true},"photos":[{"height":4608,"html_attributions":["<a href=\"https://maps.google.com/maps/contrib/102932803443805925859\">A Google User</a>"],"photo_reference":"AeJbb3fsh21y2BHbI6T-IDHBniGfcnXW6RY5l4AyxL-357Kc2BK28ZGumOV_AuZrZsbJky52SCJU7gsbcA4ivr0GbfTWhCcwyD0k9pM4rAIiEyaeESug958clzuJG8qMoMfoTyYdF-8O8aRLUH7tfYLXwlMaAYa3y5B8TMnThC09gNVqkAuG","width":3456}],"place_id":"ChIJnULHm9pFiEgREkbFo0WBA1s","plus_code":{"compound_code":"VPC2+3Q Glasgow","global_code":"9C7QVPC2+3Q"},"rating":4,"reference":"ChIJnULHm9pFiEgREkbFo0WBA1s","types":["meal_delivery","meal_takeaway","restaurant","point_of_interest","food","establishment"],"user_ratings_total":156},{"business_status":"OPERATIONAL","formatted_address":"27 Royal Exchange Square, Glasgow G1 3AJ","geometry":{"location":{"lat":55.86000869999999,"lng":-4.253322199999999},"viewport":{"northeast":{"lat":55.86131442989272,"lng":-4.2512408},"southwest":{"lat":55.85861477010728,"lng":-4.254016}}},"icon":"https://maps.gstatic.com/mapfiles/place_api/icons/v1/png_71/bar-71.png","icon_background_color":"#FF9E67","icon_mask_base_uri":"https://maps.gstatic.com/mapfiles/place_api/icons/v2/bar_pinlet","name":"The Social","opening_hours":{"open_now":true},"photos":[{"height":3024,"html_attributions":["<a href=\"https://maps.google.com/maps/contrib/113697680898024782917\">Sarah-jane Sewell</a>"],"photo_reference":"AeJbb3exTJeuQjaYCDQOLpE5mOJ4gnXjwr64DHBq8d8aMLWfGz_pieMQppSqzD21DJpeyz-XrRBaeRxmOPFdDEfbgPunhdZWwZvJA3fCRh3_zwdXgolLXT0jFLDoL-9vZYH473rLKTOviEYnFm1z_Vr4u5yi_KjGJPsGqNDAQWZzXyUc64bc","width":3024}],"place_id":"ChIJjc5Tnp9GiEgRUvAyFL30ql8","plus_code":{"compound_code":"VP6W+2M Glasgow","global_code":"9C7QVP6W+2M"},"price_level":2,"rating":3.9,"reference":"ChIJjc5Tnp9GiEgRUvAyFL30ql8","types":["cafe","bar","store","restaurant","point_of_interest","food","establishment"],"user_ratings_total":1726},{"business_status":"OPERATIONAL","formatted_address":"1136 Argyle St, Finnieston, Glasgow G3 8TD","geometry":{"location":{"lat":55.8651588,"lng":-4.285279},"viewport":{"northeast":{"lat":55.86646382989272,"lng":-4.283926320107279},"southwest":{"lat":55.86376417010727,"lng":-4.286625979892722}}},"icon":"https://maps.gstatic.com/mapfiles/place_api/icons/v1/png_71/restaurant-71.png","icon_background_color":"#FF9E67","icon_mask_base_uri":"https://maps.gstatic.com/mapfiles/place_api/icons/v2/restaurant_pinlet","name":"Meets Noodle","opening_hours":{"open_now":true},"photos":[{"height":454,"html_attributions":["<a href=\"https://maps.google.com/maps/contrib/112560591647480397746\">Cailins Sushi</a>"],"photo_reference":"AeJbb3ec7JZ8kJnj6dnke1VDZQfpyW1HooTcwpoZ70dZaBEasbShj7PxbOtfrZ6MWHt9AotSZv6JDP_KzqSk3U0m4l5EGxmcAgImIecIgnOA_gIRq7mKlsiT7rQzGkqXOhqy8topmcSSKRlo0MIDwK3V2oM3hXBfcmJ9SpewTP2GkJcY-vz4","width":740}],"place_id":"ChIJdQAM8dRFiEgRbc2LmDb_MsY","plus_code":{"compound_code":"VP87+3V Glasgow","global_code":"9C7QVP87+3V"},"price_level":2,"rating":3.9,"reference":"ChIJdQAM8dRFiEgRbc2LmDb_MsY","types":["meal_takeaway","restaurant","point_of_interest","food","establishment"],"user_ratings_total":72},{"business_status":"OPERATIONAL","formatted_address":"Basement, Urban Office, 101 Portman St, Glasgow G41 1EJ","geometry":{"location":{"lat":55.8505929,"lng":-4.2808004},"viewport":{"northeast":{"lat":55.85189302989272,"lng":-4.279608320107277},"southwest":{"lat":55.84919337010728,"lng":-4.282307979892721}}},"icon":"https://maps.gstatic.com/mapfiles/place_api/icons/v1/png_71/restaurant-71.png","icon_background_color":"#FF9E67","icon_mask_base_uri":"https://maps.gstatic.com/mapfiles/place_api/icons/v2/restaurant_pinlet","name":"RAMEN DAYO! Delivery","opening_hours":{"open_now":true},"photos":[{"height":3606,"html_attributions":["<a href=\"https://maps.google.com/maps/contrib/109022370025832806009\">A Google User</a>"],"photo_reference":"AeJbb3dDgGnGxA_9BOkw2lR4zO1WdL2MxI3TFhZ4Csu8OxKPbzatcWfpb5A0mnDVzAvlFp-8w2inJcXCGLjXBe9LyCorpxVaKGzKYNXu0lzJd_62wVl5e1CoC3b61X02AgQIePk_WqQg4IfxUzLlm9f7mli3WRTLGeYLgsZfVbsdvRaBvdhL","width":5409}],"place_id":"ChIJk_iC9_dHiEgRyUTFDtSMT9E","plus_code":{"compound_code":"VP29+6M Glasgow","global_code":"9C7QVP29+6M"},"rating":3.8,"reference":"ChIJk_iC9_dHiEgRyUTFDtSMT9E","types":["restaurant","food","point_of_interest","establishment"],"user_ratings_total":36},{"business_status":"OPERATIONAL","formatted_address":"Unit C1, The Quay, Leisure Park, Springfield Quay, Glasgow G5 8NP","geometry":{"location":{"lat":55.8552429,"lng":-4.2754115},"viewport":{"northeast":{"lat":55.85651577989272,"lng":-4.274658020107278},"southwest":{"lat":55.85381612010728,"lng":-4.277357679892722}}},"icon":"https://maps.gstatic.com/mapfiles/place_api/icons/v1/png_71/restaurant-71.png","icon_background_color":"#FF9E67","icon_mask_base_uri":"https://maps.gstatic.com/mapfiles/place_api/icons/v2/restaurant_pinlet","name":"Creams Cafe Glasgow","opening_hours":{"open_now":true},"photos":[{"height":1024,"html_attributions":["<a href=\"https://maps.google.com/maps/contrib/104038463977347632109\">masood khan</a>"],"photo_reference":"AeJbb3dnvcCYeve3QGZ94R-klh5skBUaMPrjss0fpfXHZOBIBRih7VZwxweX0KytcrtaWkmkkFTZ7Bm-CuvaPqwqBpmOUrJTnXOaRmNvs8RGBNFUoC1ZWodILSvuLOALrmEen40CnSGuU_e5k4nUSV4tMCFuQPNkYBUsQObeWNb-isQDSQZA","width":768}],"place_id":"ChIJecW5xIZGiEgR4eO94M7zuEU","plus_code":{"compound_code":"VP4F+3R Glasgow","global_code":"9C7QVP4F+3R"},"price_level":2,"rating":3.7,"reference":"ChIJecW5xIZGiEgR4eO94M7zuEU","types":["bakery","meal_takeaway","cafe","store","restaurant","point_of_interest","food","establishment"],"user_ratings_total":411},{"business_status":"OPERATIONAL","formatted_address":"213 New City Rd, Glasgow G4 9PA","geometry":{"location":{"lat":55.87044119999999,"lng":-4.2668156},"viewport":{"northeast":{"lat":55.87182582989271,"lng":-4.265425370107279},"southwest":{"lat":55.86912617010727,"lng":-4.268125029892722}}},"icon":"https://maps.gstatic.com/mapfiles/place_api/icons/v1/png_71/restaurant-71.png","icon_background_color":"#FF9E67","icon_mask_base_uri":"https://maps.gstatic.com/mapfiles/place_api/icons/v2/restaurant_pinlet","name":"OAKA Supercity New City Road","opening_hours":{"open_now":true},"photos":[{"height":3840,"html_attributions":["<a href=\"https://maps.google.com/maps/contrib/116641059484534380329\">A Google User</a>"],"photo_reference":"AeJbb3cu2cNfiHiZ7FEuQZdUmJuJPTbAF23mMVCoF-7f-tQ8H_Zl9X2-_xZiBbX7nhWuwHhWmYkKAn26yu3zJrr1_Id89Q_PSpBu5eoRtvk2QoBSLODvi1JkSxvAC5Fyc1gMt7gqd80i9t0oq6j--5un7ntAT13cKseltGAkg_odxABYD8ka","width":5760}],"place_id":"ChIJQdauU9ZFiEgRHJZVHh7B1L8","plus_code":{"compound_code":"VPCM+57 Glasgow","global_code":"9C7QVPCM+57"},"rating":3.7,"reference":"ChIJQdauU9ZFiEgRHJZVHh7B1L8","types":["restaurant","point_of_interest","food","establishment"],"user_ratings_total":3},{"business_status":"OPERATIONAL","formatted_address":"1164 Argyle St, Finnieston, Glasgow G3 8TE","geometry":{"location":{"lat":55.8654757,"lng":-4.2862918},"viewport":{"northeast":{"lat":55.86676452989272,"lng":-4.284887770107278},"southwest":{"lat":55.86406487010728,"lng":-4.287587429892722}}},"icon":"https://maps.gstatic.com/mapfiles/place_api/icons/v1/png_71/restaurant-71.png","icon_background_color":"#FF9E67","icon_mask_base_uri":"https://maps.gstatic.com/mapfiles/place_api/icons/v2/restaurant_pinlet","name":"Little Canteen","opening_hours":{"open_now":true},"photos":[{"height":1080,"html_attributions":["<a href=\"https://maps.google.com/maps/contrib/100016989636150591454\">A Google User</a>"],"photo_reference":"AeJbb3dx83jd2nYAFscj3CEqDm8aARbsvwyKKf-bW3jXFM74Vv_aalSoI1ngZZbAwXyeBf215A0Xr2gMx6Aoes3GBqfyBu3qbSDaSYNIo4xkOcZU4uFFksYfShIsq_wVKqUyGgXkTC2Ux0fk67cJVjku8rE2i3w-e2-jdoIyvWF9w1LaGAvM","width":1440}],"place_id":"ChIJcxSR_YFGiEgRshqwn93rJ50","plus_code":{"compound_code":"VP87+5F Glasgow","global_code":"9C7QVP87+5F"},"rating":3.5,"reference":"ChIJcxSR_YFGiEgRshqwn93rJ50","types":["meal_takeaway","restaurant","point_of_interest","food","establishment"],"user_ratings_total":117},{"business_status":"OPERATIONAL","formatted_address":"599 Great Western Rd, Glasgow G12 8HX","geometry":{"location":{"lat":55.87629940000001,"lng":-4.2851876},"viewport":{"northeast":{"lat":55.87769907989272,"lng":-4.283781420107277},"southwest":{"lat":55.87499942010728,"lng":-4.286481079892721}}},"icon":"https://maps.gstatic.com/mapfiles/place_api/icons/v1/png_71/restaurant-71.png","icon_background_color":"#FF9E67","icon_mask_base_uri":"https://maps.gstatic.com/mapfiles/place_api/icons/v2/restaurant_pinlet","name":"Pizza Hut Delivery","opening_hours":{"open_now":true},"photos":[{"height":720,"html_attributions":["<a href=\"https://maps.google.com/maps/contrib/101515625191691279689\">Pizza Hut</a>"],"photo_reference":"AeJbb3fQH1E4ektXdcLsUoQslMrjyGqMjKS1PFvgZ6W5TgcTKUN2neejLc7gFMN18XXYnCnkDNipTYjv5_8zLqVQPLqZ__DvOsb3EnAFNuUj1YTUkUEM_ZQbYO9CoMivPIhh5sBux0BnJ3dP8Mj3LHSHmnuwYRlIyvU9OJBjpCTI6iid_WCb","width":720}],"place_id":"ChIJ7WvLw8xFiEgRkqqU6A6y7iE","plus_code":{"compound_code":"VPG7+GW Glasgow","global_code":"9C7QVPG7+GW"},"price_level":2,"rating":3.4,"reference":"ChIJ7WvLw8xFiEgRkqqU6A6y7iE","types":["meal_delivery","meal_takeaway","restaurant","point_of_interest","food","establishment"],"user_ratings_total":110},{"business_status":"OPERATIONAL","formatted_address":"155 Springburn Way, Glasgow G21 1DT","geometry":{"location":{"lat":55.882411,"lng":-4.230593},"viewport":{"northeast":{"lat":55.88363567989272,"lng":-4.229261720107279},"southwest":{"lat":55.88093602010728,"lng":-4.231961379892723}}},"icon":"https://maps.gstatic.com/mapfiles/place_api/icons/v1/png_71/restaurant-71.png","icon_background_color":"#FF9E67","icon_mask_base_uri":"https://maps.gstatic.com/mapfiles/place_api/icons/v2/restaurant_pinlet","name":"Oriental Express","opening_hours":{"open_now":true},"photos":[{"height":1800,"html_attributions":["<a href=\"https://maps.google.com/maps/contrib/115222426206211405381\">Gus Mack</a>"],"photo_reference":"AeJbb3fPvEjnbZuw17JrasjNJX64ABEBmypXqGYMQOIUGS0EfAEjPoPg4eQ1uL77lS6gMmSje0X2O73IvWlT0WmYR5t_8KrXaqgyb8IzpjLXAFBMfxtoEghNkialy6zP2IfNYMflaiqyvGHnquP7zr-J9KmZ6MKQT3NS8SL6tOXN1EY2cUw","width":1440}],"place_id":"ChIJe9ncowtEiEgRfdWbeOBsoP0","plus_code":{"compound_code":"VQJ9+XQ Glasgow","global_code":"9C7QVQJ9+XQ"},"price_level":2,"rating":3,"reference":"ChIJe9ncowtEiEgRfdWbeOBsoP0","types":["meal_takeaway","restaurant","point_of_interest","food","establishment"],"user_ratings_total":101}]