[{"business_status":"OPERATIONAL","formatted_address":"Winterfeldtplatz, 10781 Berlin, Germany","geometry":{"location":{"lat":52.4963226,"lng":13.3542309},"viewport":{"northeast":{"lat":52.49766737989273,"lng":13.35545737989272},"southwest":{"lat":52.49496772010728,"lng":13.35275772010728}}},"icon":"https://maps.gstatic.com/mapfiles/place_api/icons/v1/png_71/restaurant-71.png","icon_background_color":"#FF9E67","icon_mask_base_uri":"https://maps.gstatic.com/mapfiles/place_api/icons/v2/restaurant_pinlet","name":"Caros's Currywurst Imbiss","opening_hours":{"open_now":true},"photos":[{"height":2268,"html_attributions":["<a href=\"https://maps.google.com/maps/contrib/102714243816309062060\">A Google User</a>"],"photo_reference":"AeJbb3cDh6kPLfXl350Yk-BxkI7QlcPSkOUQh7z33Uiq2UTzFAx1PTXY-imiehGbk5qP51viGBGRCYO7GiRDU_NTUWPjhc_SLWSdSa8lT0UXOEqAdUM5j4am_7x2wnDm-FKgpx7V1Fdb8I7HUJmqqIZP4yxZU_57vMqGRp4ywwrpu_gtGc-a","width":4032}],"place_id":"ChIJYf_q0xJRqEcRF0x2oqlpszI","plus_code":{"compound_code":"F9W3+GM Berlin","global_code":"9F4MF9W3+GM"},"rating":5,"reference":"ChIJYf_q0xJRqEcRF0x2oqlpszI","types":["meal_takeaway","restaurant","food","point_of_interest","establishment"],"user_ratings_total":1},{"business_status":"OPERATIONAL","formatted_address":"Müllerstraße 47A, 13349 Berlin, Germany","geometry":{"location":{"lat":52.55196730000001,"lng":13.3498639},"viewport":{"northeast":{"lat":52.55323707989272,"lng":13.35114212989272},"southwest":{"lat":52.55053742010728,"lng":13.34844247010728}}},"icon":"https://maps.gstatic.com/mapfiles/place_api/icons/v1/png_71/restaurant-71.png","icon_background_color":"#FF9E67","icon_mask_base_uri":"https://maps.gstatic.com/mapfiles/place_api/icons/v2/restaurant_pinlet","name":"Curry Keule","opening_hours":{"open_now":true},"photos":[{"height":3024,"html_attributions":["<a href=\"https://maps.google.com/maps/contrib/100572368872691515534\">StarPeak Brönstrup</a>"],"photo_reference":"AeJbb3daCST5vIsO1sSOJh481VzJTvnIHrwwnGHOkFgO6m0s1zSXbzLytj3z0XXdkysdRQxfC41IGWPV-jXSJdSEyNfu8HXNbcHDISSZ_tynUri7ybpTdtX8iLdMEnDotvCzzgHMcTT7TRCjn2_8wmD5h8weG1bcpIWXHoBSPISLzYpN1OWO","width":4032}],"place_id":"ChIJpVbMOSxTqEcRKiDGy9kNFSA","plus_code":{"compound_code":"H82X+QW Berlin","global_code":"9F4MH82X+QW"},"rating":4.9,"reference":"ChIJpVbMOSxTqEcRKiDGy9kNFSA","types":["meal_takeaway","store","restaurant","food","point_of_interest","establishment"],"user_ratings_total":224},{"business_status":"OPERATIONAL","formatted_address":"Ecke, Stresemannstr, Niederkirchnerstraße 120, 10117 Berlin, Germany","geometry":{"location":{"lat":52.507481,"lng":13.378938},"viewport":{"northeast":{"lat":52.50874972989272,"lng":13.38041497989272},"southwest":{"lat":52.50605007010728,"lng":13.37771532010728}}},"icon":"https://maps.gstatic.com/mapfiles/place_api/icons/v1/png_71/restaurant-71.png","icon_background_color":"#FF9E67","icon_mask_base_uri":"https://maps.gstatic.com/mapfiles/place_api/icons/v2/restaurant_pinlet","name":"Wurstbar Berlin","opening_hours":{"open_now":true},"photos":[{"height":3024,"html_attributions":["<a href=\"https://maps.google.com/maps/contrib/100650161851464334676\">stephen</a>"],"photo_reference":"AeJbb3dNMY3w7o3Ta1HcdFg01mxmGdkPDNP6_bShrtH61_MgpP3RN6kUJReEDmuAA9Yl4OgOMhBtUPALJTUzTVOAq9NYQbcvoOXWdZhUI1wFkSw6RkSn0TJR0Yx3oTIEQf5wsQa339qrxx7EJZP1Xi_epuUrNvACQ6M_UbN8H1TCrxAekSxQ","width":4032}],"place_id":"ChIJfScXnzJRqEcRvPi_ZUaQZcI","plus_code":{"compound_code":"G94H+XH Berlin","global_code":"9F4MG94H+XH"},"rating":4.8,"reference":"ChIJfScXnzJRqEcRvPi_ZUaQZcI","types":["meal_takeaway","restaurant","food","point_of_interest","establishment"],"user_ratings_total":298},{"business_status":"OPERATIONAL","formatted_address":"Kottbusser Damm 1, 10967 Berlin, Germany","geometry":{"location":{"lat":52.49520159999999,"lng":13.4204332},"viewport":{"northeast":{"lat":52.49669582989272,"lng":13.42178427989272},"southwest":{"lat":52.49399617010727,"lng":13.41908462010728}}},"icon":"https://maps.gstatic.com/mapfiles/place_api/icons/v1/png_71/restaurant-71.png","icon_background_color":"#FF9E67","icon_mask_base_uri":"https://maps.gstatic.com/mapfiles/place_api/icons/v2/restaurant_pinlet","name":"Ketels Wurstspezialitäten","opening_hours":{"open_now":true},"photos":[{"height":3024,"html_attributions":["<a href=\"https://maps.google.com/maps/contrib/100970147211622005267\">Frank Grunow</a>"],"photo_reference":"AeJbb3c7GNYLADyArbyAm_xxkTyLWU_5pPflDQgwkKyMNue-Qi2RAT_oX5PqAC_7aUB2w3c1uKt_TmRxFI73MUgB7WLyF4CUrjzd-_5FKfIcR0Q60DEfJ9t1nDAHT6PzQYNw7qJE7lJQcfRC4xe_Qmne3O0n32E0SgRMKjCjWjhDEobOHduK","width":4032}],"place_id":"ChIJo4yj-u9RqEcRoD-TR1_6uTI","plus_code":{"compound_code":"FCWC+35 Berlin","global_code":"9F4MFCWC+35"},"rating":4.8,"reference":"ChIJo4yj-u9RqEcRoD-TR1_6uTI","types":["meal_takeaway","restaurant","food","point_of_interest","establishment"],"user_ratings_total":257},{"business_status":"OPERATIONAL","formatted_address":"Grunerstraße 5, 10179 Berlin, Germany","geometry":{"location":{"lat":52.5187136,"lng":13.4105689},"viewport":{"northeast":{"lat":52.51998132989273,"lng":13.41206767989272},"southwest":{"lat":52.51728167010728,"lng":13.40936802010728}}},"icon":"https://maps.gstatic.com/mapfiles/place_api/icons/v1/png_71/restaurant-71.png","icon_background_color":"#FF9E67","icon_mask_base_uri":"https://maps.gstatic.com/mapfiles/place_api/icons/v2/restaurant_pinlet","name":"Curry & More Berlin","opening_hours":{"open_now":true},"photos":[{"height":2736,"html_attributions":["<a href=\"https://maps.google.com/maps/contrib/107699610044427824368\">Sebastian K</a>"],"photo_reference":"AeJbb3eX6RIOIqslJuoyaVZYh58v2m-kK2SrL4mRfg94ZAIIeJEDN0aJWpT30R1No3TvFso4cOvUhBs_vY5RUIyukIOuX9mJKXnDpOmEsD1kM3Fpzb5EYrpVeMpSzWx0jEKKF7upMiR2SgM1mwBzWLZlEdopaTy6aLqe-zmA_idENOWXumfv","width":3648}],"place_id":"ChIJu6fbx9ZPqEcR14C74zEh1_w","plus_code":{"compound_code":"GC96+F6 Berlin","global_code":"9F4MGC96+F6"},"rating":4.8,"reference":"ChIJu6fbx9ZPqEcR14C74zEh1_w","types":["meal_takeaway","restaurant","food","point_of_interest","establishment"],"user_ratings_total":93},{"business_status":"OPERATIONAL","formatted_address":"10178 Berlin, Germany","geometry":{"location":{"lat":52.523056,"lng":13.4117111},"viewport":{"northeast":{"lat":52.52440582989272,"lng":13.41306092989272},"southwest":{"lat":52.52170617010728,"lng":13.41036127010728}}},"icon":"https://maps.gstatic.com/mapfiles/place_api/icons/v1/png_71/restaurant-71.png","icon_background_color":"#FF9E67","icon_mask_base_uri":"https://maps.gstatic.com/mapfiles/place_api/icons/v2/restaurant_pinlet","name":"Curry inn","opening_hours":{"open_now":true},"photos":[{"height":4032,"html_attributions":["<a href=\"https://maps.google.com/maps/contrib/110276689224476243961\">Patricia Wicke</a>"],"photo_reference":"AeJbb3fn0i860LYjjeO-4SOslSZZEP9KyMJwykmTKvskDYWElAbV8-f9-dJ3smY9HSrYC3dm6GsTuiOh2wjxEXMPIRDDXi4BLeoEPj7J7rer4a7Dd9vOFowNI0EM0jvk9B4m1-h1D1QunPbQthywnobDSK3x95v1qndU2CdTHtkEUYr9Z60i","width":3024}],"place_id":"ChIJceJIzNlPqEcRYm80Cxb4rgE","plus_code":{"compound_code":"GCF6+6M Berlin","global_code":"9F4MGCF6+6M"},"rating":4.8,"reference":"ChIJceJIzNlPqEcRYm80Cxb4rgE","types":["meal_takeaway","restaurant","food","point_of_interest","establishment"],"user_ratings_total":71},{"business_status":"OPERATIONAL","formatted_address":"10243, Erich-Steinfurth-Straße, 10243 Berlin, Germany","geometry":{"location":{"lat":52.51143980000001,"lng":13.4347146},"viewport":{"northeast":{"lat":52.51273747989272,"lng":13.43600472989272},"southwest":{"lat":52.51003782010727,"lng":13.43330507010728}}},"icon":"https://maps.gstatic.com/mapfiles/place_api/icons/v1/png_71/restaurant-71.png","icon_background_color":"#FF9E67","icon_mask_base_uri":"https://maps.gstatic.com/mapfiles/place_api/icons/v2/restaurant_pinlet","name":"Original Thüringer Rostbratwurst","opening_hours":{"open_now":true},"photos":[{"height":4032,"html_attributions":["<a href=\"https://maps.google.com/maps/contrib/111178958340872995679\">A Google User</a>"],"photo_reference":"AeJbb3fs_QZI_yj8KWGnUrXvYjo4BkLWpq4J8Zp0fKpB1jLbYZdJJmxdXczxaIovSVswKugg94snRalgr9FRm7FYGjMz-NXElOa0eOnSZvd81rFBibnJK92ZwQPzlVKd_UsGYwstGJOP_mveFeO6Wb93UuWWsnHj4fnlFzE3dWslm4BtHOyk","width":3024}],"place_id":"ChIJ6SoOXLxPqEcRjK8vpUpQhYE","plus_code":{"compound_code":"GC6M+HV Berlin","global_code":"9F4MGC6M+HV"},"rating":4.8,"reference":"ChIJ6SoOXLxPqEcRjK8vpUpQhYE","types":["restaurant","meal_takeaway","food","point_of_interest","establishment"],"user_ratings_total":12},{"business_status":"OPERATIONAL","formatted_address":"Grünberger Str. 66, 10245 Berlin, Germany","geometry":{"location":{"lat":52.5114466,"lng":13.4580617},"viewport":{"northeast":{"lat":52.51283462989272,"lng":13.45944317989272},"southwest":{"lat":52.51013497010727,"lng":13.45674352010728}}},"icon":"https://maps.gstatic.com/mapfiles/place_api/icons/v1/png_71/restaurant-71.png","icon_background_color":"#FF9E67","icon_mask_base_uri":"https://maps.gstatic.com/mapfiles/place_api/icons/v2/restaurant_pinlet","name":"Curry sixty six 66 GmbH","opening_hours":{"open_now":true},"photos":[{"height":4032,"html_attributions":["<a href=\"https://maps.google.com/maps/contrib/112946741222017838905\">Jeremy Ke</a>"],"photo_reference":"AeJbb3ea6l1FHgSmuvzcl08mBm0gMyeomh9_W3P8AFP5cgiEMppqodXFHArwS-pohnhSQvaFEQlbifZP7EoMmaB3Vaj1UDQa-42y_g69Fn6kg_bShyapswWhIiPspgG5yuhc9Vd2nmsi0jAJQlCl95izHJeo2DCyoUILf1RUy1FpLL-85DoI","width":3024}],"place_id":"ChIJwW6DlF5OqEcRHMW13tLOyAo","plus_code":{"compound_code":"GF65+H6 Berlin","global_code":"9F4MGF65+H6"},"price_level":1,"rating":4.6,"reference":"ChIJwW6DlF5OqEcRHMW13tLOyAo","types":["meal_takeaway","restaurant","food","point_of_interest","establishment"],"user_ratings_total":678},{"business_status":"OPERATIONAL","formatted_address":"Schönhauser Allee 20, 10435 Berlin, Germany","geometry":{"location":{"lat":52.533151,"lng":13.4131325},"viewport":{"northeast":{"lat":52.53451482989271,"lng":13.41438602989272},"southwest":{"lat":52.53181517010727,"lng":13.41168637010728}}},"icon":"https://maps.gstatic.com/mapfiles/place_api/icons/v1/png_71/restaurant-71.png","icon_background_color":"#FF9E67","icon_mask_base_uri":"https://maps.gstatic.com/mapfiles/place_api/icons/v2/restaurant_pinlet","name":"Ziervogel's Kult-Curry","opening_hours":{"open_now":false},"photos":[{"height":2304,"html_attributions":["<a href=\"https://maps.google.com/maps/contrib/104092276083660485701\">Andres Villarreal</a>"],"photo_reference":"AeJbb3e7l4idDekEA2Kmr_k9BFgMEQpIGxs9cLJoXyrS7laV8pEKFErnGOuGGS0_UcqUYn86zSP9uvPyTio9hlaUONJz83-_27Z7n61n3P3LuOq9L4wKkRywdOFWXQxffpLaUO8I_ZvBkwMBc5cdHBlpNdHFkV7XfFRqC69PpSgKKzICZ0V0","width":4608}],"place_id":"ChIJOxninAJOqEcRffs7THR3RnI","plus_code":{"compound_code":"GCM7+77 Berlin","global_code":"9F4MGCM7+77"},"price_level":1,"rating":4.6,"reference":"ChIJOxninAJOqEcRffs7THR3RnI","types":["meal_takeaway","restaurant","food","point_of_interest","establishment"],"user_ratings_total":567},{"business_status":"OPERATIONAL","formatted_address":"Berliner Str. 11, 13187 Berlin, Germany","geometry":{"location":{"lat":52.5686682,"lng":13.4113754},"viewport":{"northeast":{"lat":52.57004642989272,"lng":13.41287377989272},"southwest":{"lat":52.56734677010727,"lng":13.41017412010728}}},"icon":"https://maps.gstatic.com/mapfiles/place_api/icons/v1/png_71/restaurant-71.png","icon_background_color":"#FF9E67","icon_mask_base_uri":"https://maps.gstatic.com/mapfiles/place_api/icons/v2/restaurant_pinlet","name":"Berliner Currywurst","opening_hours":{"open_now":true},"photos":[{"height":560,"html_attributions":["<a href=\"https://maps.google.com/maps/contrib/102963970955986489541\">A Google User</a>"],"photo_reference":"AeJbb3cIJDuXR4jzATPcY-cU-BrRXHRdSLLlE-7Ws03RhB0YzZKVy4bAhf8OcU8rLMI431srHs5wkQQNKyeY7f2cBAviexLntILfbaDcb4_wXSJMWUu8j_P5kZq_bcmXnTlxtErwXxx2-TQaf4BBZbMmqUbn9zsebqxiuoptd4XaXwoisig2","width":1005}],"place_id":"ChIJDVtjzm1SqEcRvUDMDNN_Qs8","plus_code":{"compound_code":"HC96+FH Berlin","global_code":"9F4MHC96+FH"},"rating":4.6,"reference":"ChIJDVtjzm1SqEcRvUDMDNN_Qs8","types":["restaurant","food","point_of_interest","establishment"],"user_ratings_total":184},{"business_status":"OPERATIONAL","formatted_address":"Greifswalder Str. 32, 10405 Berlin, Germany","geometry":{"location":{"lat":52.5327305,"lng":13.4295318},"viewport":{"northeast":{"lat":52.53412097989272,"lng":13.43079472989272},"southwest":{"lat":52.53142132010727,"lng":13.42809507010728}}},"icon":"https://maps.gstatic.com/mapfiles/place_api/icons/v1/png_71/restaurant-71.png","icon_background_color":"#FF9E67","icon_mask_base_uri":"https://maps.gstatic.com/mapfiles/place_api/icons/v2/restaurant_pinlet","name":"Curry 32","opening_hours":{"open_now":true},"photos":[{"height":2914,"html_attributions":["<a href=\"https://maps.google.com/maps/contrib/115874643075226912742\">Bw Photography</a>"],"photo_reference":"AeJbb3dX-cIlMOmULHD6tGTc6QS0hBSa0ydxdpMwtkzlT-pZUHiSlqJ-n55QzDpF2twLU7U7fRSZADbh3mQtRLnnFT59o-hLVu4s5d7ygSvh8KQRres6tEKgwSqiUZpyKRMOYu6lK1l5L6Y1jTo65IyLXg6cTnM7B4YzOU04j7bP0macPwiW","width":3886}],"place_id":"ChIJuRC2Eg9OqEcRGGDRlpg3TA8","plus_code":{"compound_code":"GCMH+3R Berlin","global_code":"9F4MGCMH+3R"},"rating":4.6,"reference":"ChIJuRC2Eg9OqEcRGGDRlpg3TA8","types":["meal_takeaway","restaurant","food","point_of_interest","establishment"],"user_ratings_total":77},{"business_status":"OPERATIONAL","formatted_address":"Bernhard-Weiß-Straße 6, 10178 Berlin, Germany","geometry":{"location":{"lat":52.5238878,"lng":13.4165956},"viewport":{"northeast":{"lat":52.52527292989272,"lng":13.41804867989272},"southwest":{"lat":52.52257327010727,"lng":13.41534902010728}}},"icon":"https://maps.gstatic.com/mapfiles/place_api/icons/v1/png_71/restaurant-71.png","icon_background_color":"#FF9E67","icon_mask_base_uri":"https://maps.gstatic.com/mapfiles/place_api/icons/v2/restaurant_pinlet","name":"Snack Revier","opening_hours":{"open_now":true},"photos":[{"height":4608,"html_attributions":["<a href=\"https://maps.google.com/maps/contrib/110577184095686604018\">André Richter</a>"],"photo_reference":"AeJbb3e1a_6JFAO1h3hoFIserMQ88IEn9fSF_LeNdO1WSf6CVQi4pTIvHeasqEi6w2FiKtI4EzsBDu1UQoeBglf4PLfHe8J7OlpZY_iujmwFC2Fp1ix_0mQhSi9bPAYMWXKM2ale7qyk1fMKy3qIiD1ZCqAMyobAI9_3zlnwe7BTRjk_osa1","width":2184}],"place_id":"ChIJZX24MxlOqEcRLH9QnNbtlac","plus_code":{"compound_code":"GCF8+HJ Berlin","global_code":"9F4MGCF8+HJ"},"price_level":1,"rating":4.6,"reference":"ChIJZX24MxlOqEcRLH9QnNbtlac","types":["meal_takeaway","restaurant","food","point_of_interest","establishment"],"user_ratings_total":61},{"business_status":"OPERATIONAL","formatted_address":"Oranienburger Str. 6, 10178 Berlin, Germany","geometry":{"location":{"lat":52.523725,"lng":13.4007139},"viewport":{"northeast":{"lat":52.52503852989272,"lng":13.40206247989272},"southwest":{"lat":52.52233887010728,"lng":13.39936282010728}}},"icon":"https://maps.gstatic.com/mapfiles/place_api/icons/v1/png_71/restaurant-71.png","icon_background_color":"#FF9E67","icon_mask_base_uri":"https://maps.gstatic.com/mapfiles/place_api/icons/v2/restaurant_pinlet","name":"Curry 61","opening_hours":{"open_now":true},"photos":[{"height":3024,"html_attributions":["<a href=\"https://maps.google.com/maps/contrib/111556684592729193033\">Ernest Lim</a>"],"photo_reference":"AeJbb3eKc6AErCf11r_6g5uLQb-81TepAdIQObRR4I05nnSpATdJO6ABD5PeIZM5hF-PWOXBVNVZkeLFZliCRAoqaV7rck1INsWmGoQvfbf1kKcZVeZyghg6N9YlUJ-5AmRkCjINY1Zc3WXoRFQYwIt37gX1_NXXXjA3LgRCOukmdIbQq8mn","width":4032}],"place_id":"ChIJB0S0zeBRqEcRXTjAinACZnU","plus_code":{"compound_code":"GCF2+F7 Berlin","global_code":"9F4MGCF2+F7"},"price_level":1,"rating":4.5,"reference":"ChIJB0S0zeBRqEcRXTjAinACZnU","types":["meal_takeaway","restaurant","food","point_of_interest","establishment"],"user_ratings_total":4195},{"business_status":"OPERATIONAL","formatted_address":"Badstraße 1-5, 13357 Berlin, Germany","geometry":{"location":{"lat":52.5494785,"lng":13.3869777},"viewport":{"northeast":{"lat":52.55076662989273,"lng":13.38829257989272},"southwest":{"lat":52.54806697010729,"lng":13.38559292010728}}},"icon":"https://maps.gstatic.com/mapfiles/place_api/icons/v1/png_71/restaurant-71.png","icon_background_color":"#FF9E67","icon_mask_base_uri":"https://maps.gstatic.com/mapfiles/place_api/icons/v2/restaurant_pinlet","name":"Curry Baude Gesundbrunnen","opening_hours":{"open_now":true},"photos":[{"height":1125,"html_attributions":["<a href=\"https://maps.google.com/maps/contrib/108154793765782922761\">derFrankie Neulichedl</a>"],"photo_reference":"AeJbb3eElSZhmkSYH7Gk8YlfRv2-ZgDxgCngo67Udr77pp4T7xgUi6ONf6GnHsnhAbb37SYLEE2Yw9isrExwwCPMyjYNmiCReHV2ciXcSHGbF4gYifbsI9gzc6IiWP-D0HwRyPyfuVKHcaVKzW6Q92ipuuTeiItnW9SVnZff0FjR0lMGRJaB","width":2000}],"place_id":"ChIJx7PYmSFSqEcRGHXCdTb08Kk","plus_code":{"compound_code":"G9XP+QQ Berlin","global_code":"9F4MG9XP+QQ"},"price_level":1,"rating":4.5,"reference":"ChIJx7PYmSFSqEcRGHXCdTb08Kk","types":["meal_takeaway","restaurant","food","point_of_interest","establishment"],"user_ratings_total":2367},{"business_status":"OPERATIONAL","formatted_address":"Kastanienallee 49, 10119 Berlin, Germany","geometry":{"location":{"lat":52.5342956,"lng":13.4050533},"viewport":{"northeast":{"lat":52.53560057989272,"lng":13.40657912989272},"southwest":{"lat":52.53290092010727,"lng":13.40387947010728}}},"icon":"https://maps.gstatic.com/mapfiles/place_api/icons/v1/png_71/restaurant-71.png","icon_background_color":"#FF9E67","icon_mask_base_uri":"https://maps.gstatic.com/mapfiles/place_api/icons/v2/restaurant_pinlet","name":"W The Imbiss","opening_hours":{"open_now":true},"photos":[{"height":3480,"html_attributions":["<a href=\"https://maps.google.com/maps/contrib/116534072433247574589\">Sannidhi Jalukar</a>"],"photo_reference":"AeJbb3dA_lpzXqzsVNy_iXpbrua9kLwDxvEVAeBYS9-_QYGCFNAVBC8yYSjrxFGMD7sOltXvgs2SQXRWwA6RfLFFG0aTVomA1y-cLXc3Vk7TmILIoSo_DhYRklJzJB48XgYCKorY7b8KsLWJssFYa4HisAhJa0JXfCdHBKCDca-jx7yBlDUf","width":4640}],"place_id":"ChIJrddqe_tRqEcRqpbAgSe1AIo","plus_code":{"compound_code":"GCM4+P2 Berlin","global_code":"9F4MGCM4+P2"},"rating":4.5,"reference":"ChIJrddqe_tRqEcRqpbAgSe1AIo","types":["restaurant","meal_takeaway","food","point_of_interest","establishment"],"user_ratings_total":1102},{"business_status":"OPERATIONAL","formatted_address":"Karl-Liebknecht-Str. 13, 10178 Berlin, Germany","geometry":{"location":{"lat":52.5222959,"lng":13.4084302},"viewport":{"northeast":{"lat":52.52365687989273,"lng":13.40988707989272},"southwest":{"lat":52.52095722010728,"lng":13.40718742010728}}},"icon":"https://maps.gstatic.com/mapfiles/place_api/icons/v1/png_71/restaurant-71.png","icon_background_color":"#FF9E67","icon_mask_base_uri":"https://maps.gstatic.com/mapfiles/place_api/icons/v2/restaurant_pinlet","name":"berlincurrys","opening_hours":{"open_now":true},"photos":[{"height":3000,"html_attributions":["<a href=\"https://maps.google.com/maps/contrib/109711187763649168482\">Lars Kühne</a>"],"photo_reference":"AeJbb3dkE8UtL_gjvzd8D2Azblot9nGnB2ueiv8FGtKf5jxZGUmGqtEcng--0E59n3AGlEZx8K6fKs3Prd0L6jt24HrZb3l1AgrAWSXtgnNTF7qilYQsFuRiVrUuAM9DR_WlVspmKX3ZGdlnGUVo3hnz6Hb-vPil3YJ1bs58m7jLS3DcGuAt","width":4000}],"place_id":"ChIJ3dD45x9OqEcRgL9y5UqpBaI","plus_code":{"compound_code":"GCC5+W9 Berlin","global_code":"9F4MGCC5+W9"},"price_level":1,"rating":4.5,"reference":"ChIJ3dD45x9OqEcRgL9y5UqpBaI","types":["meal_takeaway","restaurant","food","point_of_interest","establishment"],"user_ratings_total":706},{"business_status":"OPERATIONAL","formatted_address":"Rigaer Str., 10247 Berlin, Germany","geometry":{"location":{"lat":52.5147615,"lng":13.4741791},"viewport":{"northeast":{"lat":52.51608877989272,"lng":13.47541577989272},"southwest":{"lat":52.51338912010728,"lng":13.47271612010728}}},"icon":"https://maps.gstatic.com/mapfiles/place_api/icons/v1/png_71/restaurant-71.png","icon_background_color":"#FF9E67","icon_mask_base_uri":"https://maps.gstatic.com/mapfiles/place_api/icons/v2/restaurant_pinlet","name":"Curry Piraten","opening_hours":{"open_now":true},"photos":[{"height":3144,"html_attributions":["<a href=\"https://maps.google.com/maps/contrib/112819311885857671446\">Robert Baranovski</a>"],"photo_reference":"AeJbb3dZb-5eWX37Qf-e_cw1WjQRcNovRwcKP2s-FzfoSzBZKkOMnLpXc0VUbr3HtbfSwzuzL6or0TMorw8_ccPOpMoAArlSWWfOA9liNns4UfEbqe2TNv1emjIWNuA5xy7m0dCwLwGtZqyvO36E5WKkIYGdAjinEw3eELBJLMXf9v2pCHOl","width":4192}],"place_id":"ChIJJZgMmIxOqEcRUBoR4LELEFs","plus_code":{"compound_code":"GF7F+WM Berlin","global_code":"9F4MGF7F+WM"},"price_level":1,"rating":4.5,"reference":"ChIJJZgMmIxOqEcRUBoR4LELEFs","types":["meal_takeaway","restaurant","food","point_of_interest","establishment"],"user_ratings_total":444},{"business_status":"OPERATIONAL","formatted_address":"Otto-Suhr-Allee 36, 10585 Berlin, Germany","geometry":{"location":{"lat":52.5150054,"lng":13.3151441},"viewport":{"northeast":{"lat":52.51627307989272,"lng":13.31642312989272},"southwest":{"lat":52.51357342010728,"lng":13.31372347010728}}},"icon":"https://maps.gstatic.com/mapfiles/place_api/icons/v1/png_71/restaurant-71.png","icon_background_color":"#FF9E67","icon_mask_base_uri":"https://maps.gstatic.com/mapfiles/place_api/icons/v2/restaurant_pinlet","name":"Currystation 36","opening_hours":{"open_now":true},"photos":[{"height":3000,"html_attributions":["<a href=\"https://maps.google.com/maps/contrib/109612107032844267616\">Peter Brennecke</a>"],"photo_reference":"AeJbb3fQX8_zZwlj7aJAwWsMSOXZiVKzYAPQSW84X9tcyTUiu0sm6UvSscdDaKf5VkFSVVT3c2WYKeAh8Z2TMjRduGk0YO8mcGtOPR_0SuEpFA-sf60l-7ihBdBhVsVUnC9b2lbTVnjNZ8DBFYzM6ZQu6w8vheXdBeNBTlc95wHutZuLXV9Y","width":5333}],"place_id":"ChIJTQdC1h5RqEcR9u4hOU6oK8s","plus_code":{"compound_code":"G888+23 Berlin","global_code":"9F4MG888+23"},"rating":4.5,"reference":"ChIJTQdC1h5RqEcR9u4hOU6oK8s","types":["meal_takeaway","restaurant","food","point_of_interest","establishment"],"user_ratings_total":417},{"business_status":"OPERATIONAL","formatted_address":"Warschauer Str. 16, 10243 Berlin, Germany","geometry":{"location":{"lat":52.5124235,"lng":13.4521108},"viewport":{"northeast":{"lat":52.51380862989272,"lng":13.45341702989272},"southwest":{"lat":52.51110897010727,"lng":13.45071737010728}}},"icon":"https://maps.gstatic.com/mapfiles/place_api/icons/v1/png_71/restaurant-71.png","icon_background_color":"#FF9E67","icon_mask_base_uri":"https://maps.gstatic.com/mapfiles/place_api/icons/v2/restaurant_pinlet","name":"Curry Burger Beer Warschauer Straße","opening_hours":{"open_now":true},"photos":[{"height":3480,"html_attributions":["<a href=\"https://maps.google.com/maps/contrib/103276935902792776133\">WizEvil</a>"],"photo_reference":"AeJbb3eqiWyMuZv6oOsdxMRyq3pYLQuMJTe7gYkuJMWi-YCUEeudjg5I7L8Salgt-ZksyEeGN04uXUiF1WoJn4srWK1V5s2QKnWvFQKXE1FxNi-KblcLLy2UvcZIxWEG_vb3SpVm4dxapPAeMlfzrPLmhgUvhW48PMjhTIyhz-qYqmJ-Kxub","width":4640}],"place_id":"ChIJK7f7jXJPqEcRwTv3n2XkGps","plus_code":{"compound_code":"GF62+XR Berlin","global_code":"9F4MGF62+XR"},"rating":4.5,"reference":"ChIJK7f7jXJPqEcRwTv3n2XkGps","types":["restaurant","food","point_of_interest","establishment"],"user_ratings_total":378},{"business_status":"OPERATIONAL","formatted_address":"Leipziger Pl. 12, 10117 Berlin, Germany","geometry":{"location":{"lat":52.51011099999999,"lng":13.3795904},"viewport":{"northeast":{"lat":52.51141972989272,"lng":13.38083447989272},"southwest":{"lat":52.50872007010728,"lng":13.37813482010728}}},"icon":"https://maps.gstatic.com/mapfiles/place_api/icons/v1/png_71/restaurant-71.png","icon_background_color":"#FF9E67","icon_mask_base_uri":"https://maps.gstatic.com/mapfiles/place_api/icons/v2/restaurant_pinlet","name":"Best-Curry Berlin | Currywurst - Bulette - Chili","opening_hours":{"open_now":true},"photos":[{"height":3000,"html_attributions":["<a href=\"https://maps.google.com/maps/contrib/109410490672300926888\">Michael Breitenau</a>"],"photo_reference":"AeJbb3fOiReihnV0ZweE5f441mgdcWI8_wG1ZtMv29HDI0V3KnhEcPigEmnsn1jndwgty89iow2y67O9uxyY3_iTjg5V07KFAJMfh7-EGaXIXtgp1xnfQVG7zaRd1QZZvYtLMKdDtMPBJvai2U87tgkRupBbSTGRzgsTfzGI6ThfxPXic0-T","width":3000}],"place_id":"ChIJNwiw6KJRqEcRf0EMUL7ppnU","plus_code":{"compound_code":"G96H+2R Berlin","global_code":"9F4MG96H+2R"},"rating":4.5,"reference":"ChIJNwiw6KJRqEcRf0EMUL7ppnU","types":["meal_takeaway","restaurant","food","point_of_interest","establishment"],"user_ratings_total":107},{"business_status":"OPERATIONAL","formatted_address":"Mittelbuschweg 17, 12055 Berlin, Germany","geometry":{"location":{"lat":52.468998,"lng":13.4474331},"viewport":{"northeast":{"lat":52.47035467989272,"lng":13.44886962989272},"southwest":{"lat":52.46765502010728,"lng":13.44616997010728}}},"icon":"https://maps.gstatic.com/mapfiles/place_api/icons/v1/png_71/restaurant-71.png","icon_background_color":"#FF9E67","icon_mask_base_uri":"https://maps.gstatic.com/mapfiles/place_api/icons/v2/restaurant_pinlet","name":"Curry Pelle","opening_hours":{"open_now":true},"photos":[{"height":4032,"html_attributions":["<a href=\"https://maps.google.com/maps/contrib/110513462603918017788\">myungsoo cho</a>"],"photo_reference":"AeJbb3fKLJrfAvYrp5OIk00QYsX_ns9S2A85IKpcPCqypp5QLtH8rbt0qeEMKc_yk7K6I7GZzT9kfUOiCUoMylfccipA9wFbEpsD_KAjt7ygrpulUYLn4melIMeTUAcGUETptMfecp2OKUYt_S0xsWxcQJDcYh4lZU0bn_cwsXD0ElOnv5lO","width":3024}],"place_id":"ChIJEUXsSXRPqEcRN35sprLEIu4","plus_code":{"compound_code":"FC9W+HX Berlin","global_code":"9F4MFC9W+HX"},"rating":4.5,"reference":"ChIJEUXsSXRPqEcRN35sprLEIu4","types":["meal_takeaway","restaurant","food","point_of_interest","establishment"],"user_ratings_total":106},{"business_status":"OPERATIONAL","formatted_address":"Torstraße 122, 10119 Berlin, Germany","geometry":{"location":{"lat":52.5294585,"lng":13.4011943},"viewport":{"northeast":{"lat":52.53086967989272,"lng":13.40246792989272},"southwest":{"lat":52.52817002010728,"lng":13.39976827010728}}},"icon":"https://maps.gstatic.com/mapfiles/place_api/icons/v1/png_71/restaurant-71.png","icon_background_color":"#FF9E67","icon_mask_base_uri":"https://maps.gstatic.com/mapfiles/place_api/icons/v2/restaurant_pinlet","name":"Curry Mitte","opening_hours":{"open_now":true},"photos":[{"height":2322,"html_attributions":["<a href=\"https://maps.google.com/maps/contrib/104462289019296356774\">Bálint Sebestyén</a>"],"photo_reference":"AeJbb3dIuuAZ48Bxlpd-WijC-7WcqYgBmmZXqDrlUnAEWiZ_TRtKBQTKnrabGkZUzMx4HlBjd1iH0ikw0Duq5mNbswiEqJu8HucDuAduKDbLfHNXyY2nkrjnkUvhz6Gor-9i9mhokZ1sL9cRsuGsjAqNWdval2xre0idpXcTvHpBPvpOM5zx","width":4128}],"place_id":"ChIJpepKXORRqEcRYF-hvEWxkDc","plus_code":{"compound_code":"GCH2+QF Berlin","global_code":"9F4MGCH2+QF"},"price_level":1,"rating":4.4,"reference":"ChIJpepKXORRqEcRYF-hvEWxkDc","types":["meal_takeaway","restaurant","food","point_of_interest","establishment"],"user_ratings_total":941},{"business_status":"OPERATIONAL","formatted_address":"Bartningallee 20, 10557 Berlin, Germany","geometry":{"location":{"lat":52.5201925,"lng":13.3474888},"viewport":{"northeast":{"lat":52.52156802989273,"lng":13.34874402989272},"southwest":{"lat":52.51886837010728,"lng":13.34604437010728}}},"icon":"https://maps.gstatic.com/mapfiles/place_api/icons/v1/png_71/restaurant-71.png","icon_background_color":"#FF9E67","icon_mask_base_uri":"https://maps.gstatic.com/mapfiles/place_api/icons/v2/restaurant_pinlet","name":"Absolut Curry","opening_hours":{"open_now":true},"photos":[{"height":3024,"html_attributions":["<a href=\"https://maps.google.com/maps/contrib/102365619150543585416\">Alexandr Agapov</a>"],"photo_reference":"AeJbb3eg6FT2Y-r38O7FoNWqwFP7McGv5p_racHtxwWvXEPOUATRucmKb57LGnFAvMJ_AeekT0c0Qoh4a2mRRI_8bJF9jjt4YgZOdXEjr28-4OL0I9qCpiTDykuFVAHjjDyFuumfgOX-_4FH9ZOOz4z3Bbu6GTt9BUsdQPuxXvjfmPfelNNF","width":4032}],"place_id":"ChIJo17uBadRqEcRZaVfU57eORE","plus_code":{"compound_code":"G8CW+3X Berlin","global_code":"9F4MG8CW+3X"},"price_level":1,"rating":4.4,"reference":"ChIJo17uBadRqEcRZaVfU57eORE","types":["meal_takeaway","restaurant","food","point_of_interest","establishment"],"user_ratings_total":156},{"business_status":"OPERATIONAL","formatted_address":"Bayerischer Pl. 8, 10779 Berlin, Germany","geometry":{"location":{"lat":52.4883439,"lng":13.3399341},"viewport":{"northeast":{"lat":52.48964832989272,"lng":13.34149162989272},"southwest":{"lat":52.48694867010728,"lng":13.33879197010728}}},"icon":"https://maps.gstatic.com/mapfiles/place_api/icons/v1/png_71/restaurant-71.png","icon_background_color":"#FF9E67","icon_mask_base_uri":"https://maps.gstatic.com/mapfiles/place_api/icons/v2/restaurant_pinlet","name":"Brutzelstübchen","opening_hours":{"open_now":true},"photos":[{"height":3072,"html_attributions":["<a href=\"https://maps.google.com/maps/contrib/115716012754614229445\">Chris Kurbjuhn</a>"],"photo_reference":"AeJbb3f4G6gitQg6Kg8HgfaVBYiwuLq0XN0KsJIEgMX4X7dlsPVlVkn3QhcU6Zi7QSvquiMPSs1W89vFrO8VtjnRaMrM_O96FieMcVFOJWBnJ1xCWDQ14KqUQxwzVuxZV6Suh_ZGc8ICOQw58tbxD9rtLNUqY_xbTyL1Wz2ZtU8Nty_e_dN-","width":3072}],"place_id":"ChIJj7bzU1xQqEcRuPUXAxPHEOg","plus_code":{"compound_code":"F8QQ+8X Berlin","global_code":"9F4MF8QQ+8X"},"price_level":1,"rating":4.4,"reference":"ChIJj7bzU1xQqEcRuPUXAxPHEOg","types":["meal_takeaway","restaurant","food","point_of_interest","establishment"],"user_ratings_total":136},{"business_status":"OPERATIONAL","formatted_address":"Schudomastraße 9, 12055 Berlin, Germany","geometry":{"location":{"lat":52.47373229999999,"lng":13.4503376},"viewport":{"northeast":{"lat":52.47511107989271,"lng":13.45176987989272},"southwest":{"lat":52.47241142010727,"lng":13.44907022010728}}},"icon":"https://maps.gstatic.com/mapfiles/place_api/icons/v1/png_71/restaurant-71.png","icon_background_color":"#FF9E67","icon_mask_base_uri":"https://maps.gstatic.com/mapfiles/place_api/icons/v2/restaurant_pinlet","name":"Schudomaer Grill Imbiss","opening_hours":{"open_now":true},"photos":[{"height":720,"html_attributions":["<a href=\"https://maps.google.com/maps/contrib/117438733111647901633\">Arne Kiesewetter</a>"],"photo_reference":"AeJbb3c7uSzdbUHg_QCLf-zsRD00rlark3q-1qBn_9KMZHV8lmbr6lP9nrWeo7GptnVA653yl3PgHu97SKIPnIkAoBs9FJik5aoR9WuPd-3EEYIpOnuAjjq3f0Io9horqgKGFe-05nqnuju67FBp6O_OjgTzdMhTi1FduZIsTJhOrUjZdfeo","width":1280}],"place_id":"ChIJ7xYYOwtPqEcRBY_NxUE6YoU","plus_code":{"compound_code":"FFF2+F4 Berlin","global_code":"9F4MFFF2+F4"},"price_level":1,"rating":4.4,"reference":"ChIJ7xYYOwtPqEcRBY_NxUE6YoU","types":["meal_takeaway","restaurant","food","point_of_interest","establishment"],"user_ratings_total":100},{"business_status":"OPERATIONAL","formatted_address":"Schlesische Str. 18, 10997 Berlin, Germany","geometry":{"location":{"lat":52.4987491,"lng":13.4459416},"viewport":{"northeast":{"lat":52.50015932989272,"lng":13.44738352989272},"southwest":{"lat":52.49745967010728,"lng":13.44468387010728}}},"icon":"https://maps.gstatic.com/mapfiles/place_api/icons/v1/png_71/restaurant-71.png","icon_background_color":"#FF9E67","icon_mask_base_uri":"https://maps.gstatic.com/mapfiles/place_api/icons/v2/restaurant_pinlet","name":"Hertha & Lilo","opening_hours":{"open_now":true},"photos":[{"height":4032,"html_attributions":["<a href=\"https://maps.google.com/maps/contrib/109347840075511207492\">Oliver Herbert</a>"],"photo_reference":"AeJbb3cAHi8ywE_ZzRbcgVtwhQ-U0L4gHxE0xCoDYO5LqgmMqO5ykMq8TMpeMYtiki4nWxZHM27YEUFrVHNPebWenyOdVJWTFWUkZm0ySUoL5SMjMtZOVUAEiFwaRjQFSSuddkyC5786bSA_zebMHBFtu7FOOxoDcMh2eLiLQHMhcK20FWlg","width":3024}],"place_id":"ChIJNTYK2A5PqEcRcBZvxWoalR4","plus_code":{"compound_code":"FCXW+F9 Berlin","global_code":"9F4MFCXW+F9"},"rating":4.4,"reference":"ChIJNTYK2A5PqEcRcBZvxWoalR4","types":["restaurant","food","point_of_interest","establishment"],"user_ratings_total":16},{"business_status":"OPERATIONAL","formatted_address":"Kurfürstendamm 195, 10707 Berlin, Germany","geometry":{"location":{"lat":52.5011292,"lng":13.3188241},"viewport":{"northeast":{"lat":52.50261912989272,"lng":13.32014952989272},"southwest":{"lat":52.49991947010728,"lng":13.31744987010728}}},"icon":"https://maps.gstatic.com/mapfiles/place_api/icons/v1/png_71/restaurant-71.png","icon_background_color":"#FF9E67","icon_mask_base_uri":"https://maps.gstatic.com/mapfiles/place_api/icons/v2/restaurant_pinlet","name":"Bier's Kudamm 195","opening_hours":{"open_now":true},"photos":[{"height":3024,"html_attributions":["<a href=\"https://maps.google.com/maps/contrib/106394290319686252600\">Katrin Fröhlich</a>"],"photo_reference":"AeJbb3eyE_oVarc_TGSdieULi-KZRihZrxqrMlFEC7o_yj2vzMNO_NWQaD6eiXeZ0HhrOEB3alIMPhdu-2m-rxiCGQQZnlQoy_3BY--CiL7lKGDzDMjtadcnh1nk3b1AJBMvnWrZmJRJianBkDnMZW5QCsqrQ5VdOxpZJvBbkTbZ0bD5Mz7s","width":4032}],"place_id":"ChIJXXwIJuVQqEcRpdhnit0KYws","plus_code":{"compound_code":"G829+FG Berlin","global_code":"9F4MG829+FG"},"price_level":2,"rating":4.3,"reference":"ChIJXXwIJuVQqEcRpdhnit0KYws","types":["meal_takeaway","restaurant","food","point_of_interest","establishment"],"user_ratings_total":1875},{"business_status":"OPERATIONAL","formatted_address":"Köpenicker Str. 58, 10179 Berlin, Germany","geometry":{"location":{"lat":52.5098519,"lng":13.4215351},"viewport":{"northeast":{"lat":52.51113517989273,"lng":13.42283857989272},"southwest":{"lat":52.50843552010728,"lng":13.42013892010728}}},"icon":"https://maps.gstatic.com/mapfiles/place_api/icons/v1/png_71/restaurant-71.png","icon_background_color":"#FF9E67","icon_mask_base_uri":"https://maps.gstatic.com/mapfiles/place_api/icons/v2/restaurant_pinlet","name":"Wurstpate","opening_hours":{"open_now":true},"photos":[{"height":3000,"html_attributions":["<a href=\"https://maps.google.com/maps/contrib/115349063437240503381\">Guido</a>"],"photo_reference":"AeJbb3chxtWjvaXF2q7W_sNFxGVyLyYrQWDwHQDKxQkYUrxPI7uMgDUNnjbA0k42LoQySxrp_P9uX5mx11Ih-NqOjA-d5a4giiExZf3IZ0jUjLi1i2De2hw7lFRAr9KOI7rRR_yJsY5884Nek8rOD5tcoBglsZWv39fFfQA0NrFYmcfHqzH8","width":4000}],"place_id":"ChIJXZoV2GBPqEcRp70Md1mqDZY","plus_code":{"compound_code":"GC5C+WJ Berlin","global_code":"9F4MGC5C+WJ"},"rating":4.3,"reference":"ChIJXZoV2GBPqEcRp70Md1mqDZY","types":["meal_takeaway","restaurant","food","point_of_interest","establishment"],"user_ratings_total":352},{"business_status":"OPERATIONAL","formatted_address":"Ebertstraße, Ecke, Scheidemannstraße, 10117 Berlin, Germany","geometry":{"location":{"lat":52.5173426,"lng":13.3767329},"viewport":{"northeast":{"lat":52.51871917989272,"lng":13.37822427989272},"southwest":{"lat":52.51601952010728,"lng":13.37552462010728}}},"icon":"https://maps.gstatic.com/mapfiles/place_api/icons/v1/png_71/restaurant-71.png","icon_background_color":"#FF9E67","icon_mask_base_uri":"https://maps.gstatic.com/mapfiles/place_api/icons/v2/restaurant_pinlet","name":"Wurst :-) am Brandenburger Tor","opening_hours":{"open_now":true},"photos":[{"height":3024,"html_attributions":["<a href=\"https://maps.google.com/maps/contrib/115758231735612051231\">A Google User</a>"],"photo_reference":"AeJbb3cFqiaPhFbgknm2DiWWNm4DPiqbiUaK82n9nPuGUhrxclG74fsJiuHblcUVzIL9wgEaDAkuMNL2LeSN53JTOQQXDhV_xY04M8_5M17Q5zPRAm1ODYbKvVSlfAteZJ_RY_eAHW-fJpXmavdXlUPQdbULe7oH4m8FFZe3nqVT2Egf48ON","width":4032}],"place_id":"ChIJdcfTAsdRqEcRBiYsFfrM5iM","plus_code":{"compound_code":"G98G+WM Berlin","global_code":"9F4MG98G+WM"},"price_level":1,"rating":4.3,"reference":"ChIJdcfTAsdRqEcRBiYsFfrM5iM","types":["meal_takeaway","restaurant","food","point_of_interest","establishment"],"user_ratings_total":303},{"business_status":"OPERATIONAL","formatted_address":"S-Bahnhof An der Ostbahn, Warschauer Str. 8, 10243 Berlin, Germany","geometry":{"location":{"lat":52.5064119,"lng":13.450326},"viewport":{"northeast":{"lat":52.50821292989271,"lng":13.45155082989272},"southwest":{"lat":52.50551327010727,"lng":13.44885117010728}}},"icon":"https://maps.gstatic.com/mapfiles/place_api/icons/v1/png_71/restaurant-71.png","icon_background_color":"#FF9E67","icon_mask_base_uri":"https://maps.gstatic.com/mapfiles/place_api/icons/v2/restaurant_pinlet","name":"Curry 36","opening_hours":{"open_now":true},"photos":[{"height":4032,"html_attributions":["<a href=\"https://maps.google.com/maps/contrib/106469315797173651250\">A Google User</a>"],"photo_reference":"AeJbb3eI5KnLclLkJgnsQ--bALqkK0LiTQg7T_e-g0-jgMSpepFkzwJvbyDL3qSWSC8ZDMLENkuNZzNQeRH_eNN8LA-t7lJr0EPvCJGNBgvbhmvbH-GAs1jdAHvK-5OCQ2uVkRPzo836PSt679v0nIfLDQsdKGRh1Ou9ybOhtf9Q8dBq6Q0s","width":3024}],"place_id":"ChIJ82lR-1FPqEcRYAl_GWnEtkE","plus_code":{"compound_code":"GF42+H4 Berlin","global_code":"9F4MGF42+H4"},"rating":4.3,"reference":"ChIJ82lR-1FPqEcRYAl_GWnEtkE","types":["restaurant","food","point_of_interest","establishment"],"user_ratings_total":48},{"business_status":"OPERATIONAL","formatted_address":"Hermann-Blankenstein-Straße 38, 10249 Berlin, Germany","geometry":{"location":{"lat":52.5237445,"lng":13.4630857},"viewport":{"northeast":{"lat":52.52500172989272,"lng":13.46428587989272},"southwest":{"lat":52.52230207010728,"lng":13.46158622010728}}},"icon":"https://maps.gstatic.com/mapfiles/place_api/icons/v1/png_71/restaurant-71.png","icon_background_color":"#FF9E67","icon_mask_base_uri":"https://maps.gstatic.com/mapfiles/place_api/icons/v2/restaurant_pinlet","name":"Doppel Curry","opening_hours":{"open_now":true},"photos":[{"height":2736,"html_attributions":["<a href=\"https://maps.google.com/maps/contrib/116989459574870509517\">David Jungkunz</a>"],"photo_reference":"AeJbb3fDCQx-HJjbXVzcPjGmgqIXj1dEi5WZTGKtOiU5DeWULtnhrKhM5IvrYLc_Muz4SUyTR7Nrbw84UCVxaHFQVjysIF-I2qV8UzurAuFEF8gFjuHn5zqanNJQgBrYGblNYy1RACAQCYjYFY-YdzKDopMYDLTDf8iYkRpehkofVfMcYfxo","width":3648}],"place_id":"ChIJDUzNZWNOqEcRrqYmuiuBHlw","plus_code":{"compound_code":"GFF7+F6 Berlin","global_code":"9F4MGFF7+F6"},"rating":4.3,"reference":"ChIJDUzNZWNOqEcRrqYmuiuBHlw","types":["meal_takeaway","restaurant","food","point_of_interest","establishment"],"user_ratings_total":36},{"business_status":"OPERATIONAL","formatted_address":"Puschkinallee 43, 12435 Berlin, Germany","geometry":{"location":{"lat":52.4923666,"lng":13.4597836},"viewport":{"northeast":{"lat":52.49376307989272,"lng":13.46105187989272},"southwest":{"lat":52.49106342010727,"lng":13.45835222010728}}},"icon":"https://maps.gstatic.com/mapfiles/place_api/icons/v1/png_71/restaurant-71.png","icon_background_color":"#FF9E67","icon_mask_base_uri":"https://maps.gstatic.com/mapfiles/place_api/icons/v2/restaurant_pinlet","name":"Currywurst Pommes Burger (Look Catering)","opening_hours":{"open_now":true},"photos":[{"height":4000,"html_attributions":["<a href=\"https://maps.google.com/maps/contrib/105220939213917588220\">A Google User</a>"],"photo_reference":"AeJbb3fZoDgrw4nLBxjPG0p_GwTIVemrDtqniu5X3T2eoeYHllDNGe9gDWS16-88NXY35cPQIf0ABcaAqG6N0R3Itt9bxIzwvr_6xnKkbGHBhxCJBcDGG_XhKfIgdT8BsnycZxZEzW16OCXTHqUEIlkognynqt0jdkbF8nTp7Xme5apSpoF3","width":3000}],"place_id":"ChIJPzvGWNtPqEcR9nLZb5Ar0dc","plus_code":{"compound_code":"FFR5+WW Berlin","global_code":"9F4MFFR5+WW"},"rating":4.3,"reference":"ChIJPzvGWNtPqEcR9nLZb5Ar0dc","types":["meal_takeaway","restaurant","food","point_of_interest","establishment"],"user_ratings_total":12},{"business_status":"OPERATIONAL","formatted_address":"Mehringdamm 36, 10961 Berlin, Germany","geometry":{"location":{"lat":52.493444,"lng":13.3876799},"viewport":{"northeast":{"lat":52.49479042989272,"lng":13.38914972989272},"southwest":{"lat":52.49209077010727,"lng":13.38645007010728}}},"icon":"https://maps.gstatic.com/mapfiles/place_api/icons/v1/png_71/restaurant-71.png","icon_background_color":"#FF9E67","icon_mask_base_uri":"https://maps.gstatic.com/mapfiles/place_api/icons/v2/restaurant_pinlet","name":"Curry 36","opening_hours":{"open_now":true},"photos":[{"height":3024,"html_attributions":["<a href=\"https://maps.google.com/maps/contrib/109209530147855164470\">Timo-Kochtlive Timo Siegmann</a>"],"photo_reference":"AeJbb3fAtK6DhHNFIY9ux-eF2ElBClga1QARWQKkujGRK7qWaoYOkmyCJZCSIokAprmxSDnoreSPJz_Tc5ux_gEZQbckPO4KckiobD6EBm0njbBIJxR7mIeZI2inBdad1ZGAGSzWY9Fmto-Msq6SpSjbIbaz1n8LgiDApTBOmaCAm33xXbny","width":4032}],"place_id":"ChIJyaf_HylQqEcRBNsfZFxr-IQ","plus_code":{"compound_code":"F9VQ+93 Berlin","global_code":"9F4MF9VQ+93"},"price_level":1,"rating":4.2,"reference":"ChIJyaf_HylQqEcRBNsfZFxr-IQ","types":["meal_takeaway","restaurant","food","point_of_interest","establishment"],"user_ratings_total":10638},{"business_status":"OPERATIONAL","formatted_address":"Hardenbergpl. 9, 10623 Berlin, Germany","geometry":{"location":{"lat":52.5065362,"lng":13.3325082},"viewport":{"northeast":{"lat":52.50785692989272,"lng":13.33385692989272},"southwest":{"lat":52.50515727010727,"lng":13.33115727010728}}},"icon":"https://maps.gstatic.com/mapfiles/place_api/icons/v1/png_71/restaurant-71.png","icon_background_color":"#FF9E67","icon_mask_base_uri":"https://maps.gstatic.com/mapfiles/place_api/icons/v2/restaurant_pinlet","name":"Curry 36 (Bahnhof Zoo)","opening_hours":{"open_now":true},"photos":[{"height":1960,"html_attributions":["<a href=\"https://maps.google.com/maps/contrib/111606272825407025083\">Bjoern Weseloh</a>"],"photo_reference":"AeJbb3c5zmWMSx7ZpCVdhRWYZlg9_zjJR3MDOTEsZQmQ1UIWHrXJhTzuvkJE__i3BOPi4Yy_Oy79Fd-dok_CfzmxEABTnP-oEML8DielC6GCmz3dh8VdjmhTNyR_kFjTsV1_c-bdLjalWvFDprz10g-voyTXY0zLiuG5YKh6AqFDmKfwokOa","width":4032}],"place_id":"ChIJNSRAKP5QqEcRHOdSsVvO7pA","plus_code":{"compound_code":"G84J+JX Berlin","global_code":"9F4MG84J+JX"},"price_level":1,"rating":4.2,"reference":"ChIJNSRAKP5QqEcRHOdSsVvO7pA","types":["restaurant","food","point_of_interest","establishment"],"user_ratings_total":5659},{"business_status":"OPERATIONAL","formatted_address":"Schönhauser Allee 44b, 10435 Berlin, Germany","geometry":{"location":{"lat":52.5404229,"lng":13.4121752},"viewport":{"northeast":{"lat":52.54179517989272,"lng":13.41343407989272},"southwest":{"lat":52.53909552010727,"lng":13.41073442010728}}},"icon":"https://maps.gstatic.com/mapfiles/place_api/icons/v1/png_71/restaurant-71.png","icon_background_color":"#FF9E67","icon_mask_base_uri":"https://maps.gstatic.com/mapfiles/place_api/icons/v2/restaurant_pinlet","name":"Konnopke's Imbiss","opening_hours":{"open_now":true},"photos":[{"height":2988,"html_attributions":["<a href=\"https://maps.google.com/maps/contrib/102110685457735003153\">Fabian Pusch</a>"],"photo_reference":"AeJbb3eowUQzx3Dy8UjXRGG-U1mRScM914tdRIvB_QwaHFwyGY-HQ0yZz8tnOCbvCAMYD4AXfEVLvCRmCl8B0JgQexUgOD8JTcd90W-7MdrA2TIhd0QRVrgn1d72kJYwHCg0Oq0-oPe4UcBoSj4s6s8413LfSaNZwQ8W3A7Rc35LTPDp-FiH","width":5312}],"place_id":"ChIJm-VbCf9RqEcRJFuS59rBfso","plus_code":{"compound_code":"GCR6+5V Berlin","global_code":"9F4MGCR6+5V"},"price_level":1,"rating":4.2,"reference":"ChIJm-VbCf9RqEcRJFuS59rBfso","types":["restaurant","food","point_of_interest","establishment"],"user_ratings_total":4721},{"business_status":"OPERATIONAL","formatted_address":"Zimmerstraße 100, 10117 Berlin, Germany","geometry":{"location":{"lat":52.50761439999999,"lng":13.38579},"viewport":{"northeast":{"lat":52.50888297989272,"lng":13.38714187989272},"southwest":{"lat":52.50618332010728,"lng":13.38444222010728}}},"icon":"https://maps.gstatic.com/mapfiles/place_api/icons/v1/png_71/restaurant-71.png","icon_background_color":"#FF9E67","icon_mask_base_uri":"https://maps.gstatic.com/mapfiles/place_api/icons/v2/restaurant_pinlet","name":"Curry at the Wall Berlin Mitte","opening_hours":{"open_now":true},"photos":[{"height":2322,"html_attributions":["<a href=\"https://maps.google.com/maps/contrib/103032901674291103277\">Kyle Ray</a>"],"photo_reference":"AeJbb3cpXHoNS5fg6Q04HsQwNv4Lr9LqutfaAiiBudzeNNJdrMTvalhVdw-XeHKAsxaU_mAT7fPGG-gAH4Q7Idv3t1X4q70DF2JVrg5D0JZq27WQy1NodWis4DSAHCkdRJuAjW6ZbedycO0QdA2Rf9jNiBfjlh0Xo91IGzWjjG6BMk_NbqAB","width":4128}],"place_id":"ChIJCYuPjNFRqEcRGlascBcgrnQ","plus_code":{"compound_code":"G95P+28 Berlin","global_code":"9F4MG95P+28"},"price_level":1,"rating":4.2,"reference":"ChIJCYuPjNFRqEcRGlascBcgrnQ","types":["meal_takeaway","restaurant","food","point_of_interest","establishment"],"user_ratings_total":1152},{"business_status":"OPERATIONAL","formatted_address":"Schlesische Str. 7, 10997 Berlin, Germany","geometry":{"location":{"lat":52.5000197,"lng":13.4433779},"viewport":{"northeast":{"lat":52.50146387989272,"lng":13.44485432989272},"southwest":{"lat":52.49876422010728,"lng":13.44215467010728}}},"icon":"https://maps.gstatic.com/mapfiles/place_api/icons/v1/png_71/restaurant-71.png","icon_background_color":"#FF9E67","icon_mask_base_uri":"https://maps.gstatic.com/mapfiles/place_api/icons/v2/restaurant_pinlet","name":"Curry 7","opening_hours":{"open_now":true},"photos":[{"height":3024,"html_attributions":["<a href=\"https://maps.google.com/maps/contrib/117162507282113102399\">Jeremy Hylton</a>"],"photo_reference":"AeJbb3ebNKHjqMWXIz0j2CliV-vJrkBRRTokzefdtAjKBiFU1jRHazGAQdDJmd5_Pn7Y7B8-D0Ic-W-j-dnzL-9UPuDdjE78gdHYIeUdSrGkGBDsylw2X7X4J7MQzQILGPNQi9FF7t-aDTnYF6HDtns2eH2XkuSt0an87al189oNBB23m0CA","width":4032}],"place_id":"ChIJaRlgBlJOqEcRxhl6bDAD1H4","plus_code":{"compound_code":"GC2V+29 Berlin","global_code":"9F4MGC2V+29"},"price_level":1,"rating":4.2,"reference":"ChIJaRlgBlJOqEcRxhl6bDAD1H4","types":["meal_takeaway","restaurant","food","point_of_interest","establishment"],"user_ratings_total":206},{"business_status":"OPERATIONAL","formatted_address":"Puttkamerstraße 13, 10969 Berlin, Germany","geometry":{"location":{"lat":52.5048277,"lng":13.3906763},"viewport":{"northeast":{"lat":52.50626262989272,"lng":13.39208142989272},"southwest":{"lat":52.50356297010728,"lng":13.38938177010728}}},"icon":"https://maps.gstatic.com/mapfiles/place_api/icons/v1/png_71/restaurant-71.png","icon_background_color":"#FF9E67","icon_mask_base_uri":"https://maps.gstatic.com/mapfiles/place_api/icons/v2/restaurant_pinlet","name":"Eck Imbiss","opening_hours":{"open_now":true},"photos":[{"height":3024,"html_attributions":["<a href=\"https://maps.google.com/maps/contrib/109804282105649384745\">dert matija</a>"],"photo_reference":"AeJbb3fyXKXNskyZioJtOfndG3wOekEo6voHyTiMBy7sUlNH_v5NI83daTnVHcMvgFwbpwEg2bw343v-rV4sCvLAm0DV6esGM4KkYOdm_-mqJ9UDe7HptRijIyZ7HTX3aDnPkxnQMIJcHDmrFEIrB-FLH5VqrguyDZOJyyzAvEXXFWtFXhQc","width":4032}],"place_id":"ChIJSxWniNNRqEcRJfeQpwAR5ok","plus_code":{"compound_code":"G93R+W7 Berlin","global_code":"9F4MG93R+W7"},"rating":4.2,"reference":"ChIJSxWniNNRqEcRJfeQpwAR5ok","types":["meal_takeaway","restaurant","food","point_of_interest","establishment"],"user_ratings_total":34},{"business_status":"OPERATIONAL","formatted_address":"Leipziger Pl. 12, 10117 Berlin, Germany","geometry":{"location":{"lat":52.51035779999999,"lng":13.3802061},"viewport":{"northeast":{"lat":52.51154582989272,"lng":13.38114882989272},"southwest":{"lat":52.50884617010728,"lng":13.37844917010728}}},"icon":"https://maps.gstatic.com/mapfiles/place_api/icons/v1/png_71/restaurant-71.png","icon_background_color":"#FF9E67","icon_mask_base_uri":"https://maps.gstatic.com/mapfiles/place_api/icons/v2/restaurant_pinlet","name":"Currywurst House","opening_hours":{"open_now":true},"photos":[{"height":3024,"html_attributions":["<a href=\"https://maps.google.com/maps/contrib/102407751596152237236\">102407751596152237236</a>"],"photo_reference":"AeJbb3eWkeLaEZHrhXn1bsxCLNMQsn-4pMU0qjij9vpZuZoVVvMX-heOtjlvIMNuoE8gzfBDxpGbE7U8aqikR-ZT4uK4qjBR8pTL5cRYGDgq3e5bg1hiXUaCKqVxydlrlscqVvrTB9XdE-s3H3vPuG9teyj1KyuFeXSX86y0xQ-YoLh9MwB0","width":4032}],"place_id":"ChIJw34W3s5RqEcRpHvjjKbIvmA","plus_code":{"compound_code":"G96J+43 Berlin","global_code":"9F4MG96J+43"},"rating":4.1,"reference":"ChIJw34W3s5RqEcRpHvjjKbIvmA","types":["restaurant","food","point_of_interest","establishment"],"user_ratings_total":96},{"business_status":"OPERATIONAL","formatted_address":"10557 Berlin, Germany","geometry":{"location":{"lat":52.5245605,"lng":13.3680721},"viewport":{"northeast":{"lat":52.52591052989272,"lng":13.36948997989272},"southwest":{"lat":52.52321087010728,"lng":13.36679032010728}}},"icon":"https://maps.gstatic.com/mapfiles/place_api/icons/v1/png_71/restaurant-71.png","icon_background_color":"#FF9E67","icon_mask_base_uri":"https://maps.gstatic.com/mapfiles/place_api/icons/v2/restaurant_pinlet","name":"Wurststand Hbf","opening_hours":{"open_now":true},"photos":[{"height":2112,"html_attributions":["<a href=\"https://maps.google.com/maps/contrib/109584687499649019836\">Charly T</a>"],"photo_reference":"AeJbb3dqezQPdBLMlGvqde_i7gcZqkwG3uxYJvy2nEmJ3PMlY1r3di1nbv8X7HxdairNIKeOF0ZoXH7F7PvCNL8804RlQ8RG3zO4pjhipMIROAMjTe77aKoTl1kBDLwgKzzzaRIk4QQCXT_bGC3ZA349aMQTfdKXYSFYdUruWY8QVE3gkTFi","width":1568}],"place_id":"ChIJGUye7L1RqEcRGUVM0u9nREo","plus_code":{"compound_code":"G9F9+R6 Berlin","global_code":"9F4MG9F9+R6"},"rating":4.1,"reference":"ChIJGUye7L1RqEcRGUVM0u9nREo","types":["restaurant","food","point_of_interest","establishment"],"user_ratings_total":59},{"business_status":"OPERATIONAL","formatted_address":"Friedrichstraße 141, 10117 Berlin, Germany","geometry":{"location":{"lat":52.5201827,"lng":13.3880522},"viewport":{"northeast":{"lat":52.52156962989272,"lng":13.38948112989272},"southwest":{"lat":52.51886997010727,"lng":13.38678147010728}}},"icon":"https://maps.gstatic.com/mapfiles/place_api/icons/v1/png_71/restaurant-71.png","icon_background_color":"#FF9E67","icon_mask_base_uri":"https://maps.gstatic.com/mapfiles/place_api/icons/v2/restaurant_pinlet","name":"Witty's Currywurst","opening_hours":{"open_now":true},"photos":[{"height":1551,"html_attributions":["<a href=\"https://maps.google.com/maps/contrib/100717351773164193717\">kugelblitz1964</a>"],"photo_reference":"AeJbb3cQPpLyFrv5AE3lD25LPHItn9i05CnFELvjjiJmA83f6iAZONg5y8EWDqIOlykeq7vaaDRPmDGKJLzyf7sKNbcB6SgesiV6VhxvmQwO9Hj9R0VkBhKVbxBAtLnJEisy1M_cR3LGcrcn52DrMPM0Lqbqo-h1k_dFrpgqHPkGkPMlcrZG","width":3584}],"place_id":"ChIJcwulHMNRqEcRe_loP8OyUcg","plus_code":{"compound_code":"G9CQ+36 Berlin","global_code":"9F4MG9CQ+36"},"rating":4,"reference":"ChIJcwulHMNRqEcRe_loP8OyUcg","types":["meal_takeaway","restaurant","food","point_of_interest","establishment"],"user_ratings_total":687},{"business_status":"OPERATIONAL","formatted_address":"Friedrichstraße 69, 10117 Berlin, Germany","geometry":{"location":{"lat":52.5126155,"lng":13.3899291},"viewport":{"northeast":{"lat":52.51415777989273,"lng":13.39112047989272},"southwest":{"lat":52.51145812010729,"lng":13.38842082010728}}},"icon":"https://maps.gstatic.com/mapfiles/place_api/icons/v1/png_71/restaurant-71.png","icon_background_color":"#FF9E67","icon_mask_base_uri":"https://maps.gstatic.com/mapfiles/place_api/icons/v2/restaurant_pinlet","name":"Frittenwerk Berlin Friedrichstraße","opening_hours":{"open_now":true},"photos":[{"height":1500,"html_attributions":["<a href=\"https://maps.google.com/maps/contrib/117170303657709992120\">A Google User</a>"],"photo_reference":"AeJbb3ftinUcPlFNlvrpGwUvl3fdqzmfKfubMNQHyUzPeEF-14sXU-yGIooZSamCY6wCrDkZqheef1EWFhmV4MtUbCTJ_S3K7HKzsgf_c_Kuc-48Mzj4FGKpL_kpOvTVaznsR2S0wKOZx-RDRwh9tJws-SnZIGELc1NBMZGXP99YD8FIsOsR","width":1000}],"place_id":"ChIJcXO26qNRqEcRyG6U0rAnP1g","plus_code":{"compound_code":"G97Q+2X Berlin","global_code":"9F4MG97Q+2X"},"price_level":2,"rating":4,"reference":"ChIJcXO26qNRqEcRyG6U0rAnP1g","types":["restaurant","meal_takeaway","food","point_of_interest","establishment"],"user_ratings_total":646},{"business_status":"OPERATIONAL","formatted_address":"Rankestraße 36, 10789 Berlin, Germany","geometry":{"location":{"lat":52.5038499,"lng":13.3355112},"viewport":{"northeast":{"lat":52.50524987989272,"lng":13.33674272989272},"southwest":{"lat":52.50255022010727,"lng":13.33404307010728}}},"icon":"https://maps.gstatic.com/mapfiles/place_api/icons/v1/png_71/restaurant-71.png","icon_background_color":"#FF9E67","icon_mask_base_uri":"https://maps.gstatic.com/mapfiles/place_api/icons/v2/restaurant_pinlet","name":"Curry Wolf - Currywurst am Ku'damm","opening_hours":{"open_now":true},"photos":[{"height":800,"html_attributions":["<a href=\"https://maps.google.com/maps/contrib/109730435031483933842\">Curry &amp; mehr Ranke 36</a>"],"photo_reference":"AeJbb3cIWnoS7kcPfvmw6wp9eF9fZ8JyHJJ8ldGPzmuxhLW19OvMZ96XLPaL6A8YZ3jdMXS3QQ0fbougKBhjHtK5Qmzyjp9VMLXYhVVldF4alykkihXDzqExlHHOjb2MMR1_XxGKgmDe617aSuWktfiLDwr7vVtUGWLpkDa4fxW8t0-xqiSc","width":1200}],"place_id":"ChIJjyeGYf9QqEcRxmk8gofnSu4","plus_code":{"compound_code":"G83P+G6 Berlin","global_code":"9F4MG83P+G6"},"rating":4,"reference":"ChIJjyeGYf9QqEcRxmk8gofnSu4","types":["meal_takeaway","store","restaurant","food","point_of_interest","establishment"],"user_ratings_total":459},{"business_status":"OPERATIONAL","formatted_address":"Mühlenstraße 78, 10243 Berlin, Germany","geometry":{"location":{"lat":52.502827,"lng":13.4456782},"viewport":{"northeast":{"lat":52.50424302989272,"lng":13.44707977989272},"southwest":{"lat":52.50154337010728,"lng":13.44438012010728}}},"icon":"https://maps.gstatic.com/mapfiles/place_api/icons/v1/png_71/restaurant-71.png","icon_background_color":"#FF9E67","icon_mask_base_uri":"https://maps.gstatic.com/mapfiles/place_api/icons/v2/restaurant_pinlet","name":"Curry-one GmbH","opening_hours":{"open_now":true},"photos":[{"height":4032,"html_attributions":["<a href=\"https://maps.google.com/maps/contrib/111456285417485133241\">A Google User</a>"],"photo_reference":"AeJbb3cvvW5EwHb22-UBNGb5xBvREm1bk68s-iyF5HMckaCNwL84Lc9vJXhY8xiweMmD90hcKHN4162C6HCigiNjcJcT1xTq3_Cu6sCGfcUYM5g6MZevOjskS2Rb1nrmNWE-Zf08D3XmQOrHmeJQyxnqoOYLhfzTgcjzdW_iLVVibempbhfO","width":3024}],"place_id":"ChIJO8pczFFOqEcR8t7lAkX02ZI","plus_code":{"compound_code":"GC3W+47 Berlin","global_code":"9F4MGC3W+47"},"price_level":1,"rating":4,"reference":"ChIJO8pczFFOqEcR8t7lAkX02ZI","types":["meal_takeaway","restaurant","food","point_of_interest","establishment"],"user_ratings_total":417},{"business_status":"OPERATIONAL","formatted_address":"Hanne-Sobek-Platz, 13355 Berlin, Germany","geometry":{"location":{"lat":52.5489403,"lng":13.3885666},"viewport":{"northeast":{"lat":52.55034297989273,"lng":13.38979487989272},"southwest":{"lat":52.54764332010728,"lng":13.38709522010728}}},"icon":"https://maps.gstatic.com/mapfiles/place_api/icons/v1/png_71/restaurant-71.png","icon_background_color":"#FF9E67","icon_mask_base_uri":"https://maps.gstatic.com/mapfiles/place_api/icons/v2/restaurant_pinlet","name":"Curry 65","opening_hours":{"open_now":true},"photos":[{"height":2160,"html_attributions":["<a href=\"https://maps.google.com/maps/contrib/105981743835921640781\">A Google User</a>"],"photo_reference":"AeJbb3eehbf6kTnxufEvqX3_HxlXuCwHU18mWvC_XXHdiXrcHS57tXkjkuAfIQENmr-8j0DLmhMTkzmuebp_g19xMnNKYS-Mwvv8gfueEpyXz4h57HmirmMLzbLZsjZv1qSHODAo6wO5nIIhEwHrrpV1i4q3kDtFjWeRB_RI3vEjex6OHoTU","width":3840}],"place_id":"ChIJ5zxM6CFSqEcRMr1LBdywaH4","plus_code":{"compound_code":"G9XQ+HC Berlin","global_code":"9F4MG9XQ+HC"},"price_level":1,"rating":4,"reference":"ChIJ5zxM6CFSqEcRMr1LBdywaH4","types":["meal_takeaway","restaurant","food","point_of_interest","establishment"],"user_ratings_total":266},{"business_status":"OPERATIONAL","formatted_address":"Unter den Linden, 10117 Berlin, Germany","geometry":{"location":{"lat":52.5168603,"lng":13.3854618},"viewport":{"northeast":{"lat":52.51823917989272,"lng":13.38680677989272},"southwest":{"lat":52.51553952010728,"lng":13.38410712010728}}},"icon":"https://maps.gstatic.com/mapfiles/place_api/icons/v1/png_71/restaurant-71.png","icon_background_color":"#FF9E67","icon_mask_base_uri":"https://maps.gstatic.com/mapfiles/place_api/icons/v2/restaurant_pinlet","name":"Imbiss Unter den Linden","opening_hours":{"open_now":true},"photos":[{"height":1960,"html_attributions":["<a href=\"https://maps.google.com/maps/contrib/110152085282816398325\">Diana Emons</a>"],"photo_reference":"AeJbb3fDUYNI9HV-_V7AwpI7aOHyceOWuDMPtJT8yG0aUfciKPfXIt4gUDEAe01pSjFHUbWjZKcffQ3eNHyaRDGGI5zOI-lL5tNJm1Qhk3k4IKav4KIamvvgFUvqf5Lt8QQvOCQuHj7DlP4ZpRjgE-pc_-JmxSx-1PLAvDxrcqp-q0ZzRZuV","width":4032}],"place_id":"ChIJ4bc8jcRRqEcREVfYDJ4j96Q","plus_code":{"compound_code":"G98P+P5 Berlin","global_code":"9F4MG98P+P5"},"price_level":1,"rating":4,"reference":"ChIJ4bc8jcRRqEcREVfYDJ4j96Q","types":["meal_takeaway","restaurant","food","point_of_interest","establishment"],"user_ratings_total":215},{"business_status":"OPERATIONAL","formatted_address":"Zimmerstraße 100, 10117 Berlin, Germany","geometry":{"location":{"lat":52.50761439999999,"lng":13.38579},"viewport":{"northeast":{"lat":52.50888337989272,"lng":13.38715382989272},"southwest":{"lat":52.50618372010727,"lng":13.38445417010728}}},"icon":"https://maps.gstatic.com/mapfiles/place_api/icons/v1/png_71/restaurant-71.png","icon_background_color":"#FF9E67","icon_mask_base_uri":"https://maps.gstatic.com/mapfiles/place_api/icons/v2/restaurant_pinlet","name":"Berliner Currywurst-Truck","opening_hours":{"open_now":true},"photos":[{"height":4000,"html_attributions":["<a href=\"https://maps.google.com/maps/contrib/106128165275415712279\">A Google User</a>"],"photo_reference":"AeJbb3eGhpUzggiLlDDoWBYBhHEbw8xO5GyMl37D0yxq6W0IpScwcqkizsPldfSKL3wMfNEW7FmJUv601RLyO0ymggbuGCIWP-aCSJeyi8BCRv7PK4er5_lUwrl0NezfIK3E--yTWjXt7iFoJpwXn4H_U5wEEXUj6r5Ue3_q8o5uhKFmjCuG","width":6000}],"place_id":"ChIJK5trtW9RqEcR16Hc18WLayA","plus_code":{"compound_code":"G95P+28 Berlin","global_code":"9F4MG95P+28"},"rating":4,"reference":"ChIJK5trtW9RqEcR16Hc18WLayA","types":["meal_takeaway","restaurant","food","point_of_interest","establishment"],"user_ratings_total":1},{"business_status":"OPERATIONAL","formatted_address":"Mohrenstraße 30, 10117 Berlin, Germany","geometry":{"location":{"lat":52.5125405,"lng":13.3932667},"viewport":{"northeast":{"lat":52.51379167989272,"lng":13.39463352989272},"southwest":{"lat":52.51109202010728,"lng":13.39193387010728}}},"icon":"https://maps.gstatic.com/mapfiles/place_api/icons/v1/png_71/restaurant-71.png","icon_background_color":"#FF9E67","icon_mask_base_uri":"https://maps.gstatic.com/mapfiles/place_api/icons/v2/restaurant_pinlet","name":"Dom Curry","opening_hours":{"open_now":true},"photos":[{"height":2121,"html_attributions":["<a href=\"https://maps.google.com/maps/contrib/103369724111400871641\">A Google User</a>"],"photo_reference":"AeJbb3eQ5h3S2NiVKQC2k4YZB0rzJxCjCEYM8Q-lGL8aIY9Pm-cZZ82k8pk6uLepQF0FFMmvGRBgPzz_6Qm6IBIhR6ordg6lBngfYkCFKFYXkSSdaa-zyyHKJzBC173x--9FxSTeFmKR9nIO2GLw7dJworjZDCbQR-2KZQCSUXwL2qCaWqQT","width":3771}],"place_id":"ChIJIzULDtpRqEcR65WIqGLszRc","plus_code":{"compound_code":"G97V+28 Berlin","global_code":"9F4MG97V+28"},"price_level":2,"rating":3.9,"reference":"ChIJIzULDtpRqEcR65WIqGLszRc","types":["meal_takeaway","restaurant","food","point_of_interest","establishment"],"user_ratings_total":190},{"business_status":"OPERATIONAL","formatted_address":"Europaplatz 1, 10557 Berlin, Germany","geometry":{"location":{"lat":52.5245093,"lng":13.3696448},"viewport":{"northeast":{"lat":52.52651372989272,"lng":13.37099407989272},"southwest":{"lat":52.52381407010728,"lng":13.36829442010728}}},"icon":"https://maps.gstatic.com/mapfiles/place_api/icons/v1/png_71/restaurant-71.png","icon_background_color":"#FF9E67","icon_mask_base_uri":"https://maps.gstatic.com/mapfiles/place_api/icons/v2/restaurant_pinlet","name":"Curry 36 (Hauptbahnhof)","opening_hours":{"open_now":true},"photos":[{"height":2268,"html_attributions":["<a href=\"https://maps.google.com/maps/contrib/101608758304466106579\">政彰</a>"],"photo_reference":"AeJbb3fGDu9nYmje4BrdIXlFv_HcicurHWYranTCZUftaZcvSzlTAosM-nPOmB34b8DWZzYj6u7XR5YICymvLjeC8Z8ZaaCwcYGRAUnoJczP9g-vPWMUFQUrbsw8gsh9q9PVYs8BMMbBLIeI5_RDw3FCAXWD7V6XcCOqTV-ZNh6zsinyMRG-","width":4032}],"place_id":"ChIJEdpX4wxRqEcRVYAtb_9oCVU","plus_code":{"compound_code":"G9F9+RV Berlin","global_code":"9F4MG9F9+RV"},"rating":3.8,"reference":"ChIJEdpX4wxRqEcRVYAtb_9oCVU","types":["restaurant","food","point_of_interest","establishment"],"user_ratings_total":651},{"business_status":"OPERATIONAL","formatted_address":"Wittenbergpl. 5, 10789 Berlin, Germany","geometry":{"location":{"lat":52.5022799,"lng":13.3425455},"viewport":{"northeast":{"lat":52.50356832989272,"lng":13.34387937989272},"southwest":{"lat":52.50086867010728,"lng":13.34117972010728}}},"icon":"https://maps.gstatic.com/mapfiles/place_api/icons/v1/png_71/restaurant-71.png","icon_background_color":"#FF9E67","icon_mask_base_uri":"https://maps.gstatic.com/mapfiles/place_api/icons/v2/restaurant_pinlet","name":"WITTY'S Bio Currywurst am Wittenbergplatz","opening_hours":{"open_now":true},"photos":[{"height":2988,"html_attributions":["<a href=\"https://maps.google.com/maps/contrib/109424112994750919833\">Ivan Nariño</a>"],"photo_reference":"AeJbb3ftxmmMW5jecSmjdKzvaG_bvtSqyj4GROiSC3vWNybq_xMCVMRPB5QOLspEgRsImOgyvDbaVWWlwpCGSO2hCOBnmc8sn1zXMYAAFeGiK4h_ukiTjDghooxjE58H8q0HARc9LFmQ30v6c9wy_MPPXvT8fgwsHeGPfNBn4LmbKwXiYGhE","width":5312}],"place_id":"ChIJ5VM2C1RQqEcRDHMTCrscUEM","plus_code":{"compound_code":"G82V+W2 Berlin","global_code":"9F4MG82V+W2"},"price_level":2,"rating":3.8,"reference":"ChIJ5VM2C1RQqEcRDHMTCrscUEM","types":["meal_takeaway","restaurant","food","point_of_interest","establishment"],"user_ratings_total":462},{"business_status":"OPERATIONAL","formatted_address":"Voßstraße 35, 10117 Berlin, Germany","geometry":{"location":{"lat":52.5102503,"lng":13.3798196},"viewport":{"northeast":{"lat":52.51195792989272,"lng":13.38109927989272},"southwest":{"lat":52.50925827010728,"lng":13.37839962010728}}},"icon":"https://maps.gstatic.com/mapfiles/place_api/icons/v1/png_71/restaurant-71.png","icon_background_color":"#FF9E67","icon_mask_base_uri":"https://maps.gstatic.com/mapfiles/place_api/icons/v2/restaurant_pinlet","name":"Currywurst Imbiss","opening_hours":{"open_now":true},"photos":[{"height":2160,"html_attributions":["<a href=\"https://maps.google.com/maps/contrib/110564661273278802872\">Dan Samek</a>"],"photo_reference":"AeJbb3eVhbtuxYVps0tyNRaPZZgAfnHNYx8Ls1u_K6l8XZ9JAluBMg7tKtwlpjjJtUKA7NAU-J-RwNr5dz4X4S-mez6LBp4dx1Rp_2sN8GWGpGLivHPhb_fM_70Iiesbc-jWECmlai0cySgpLVaePhUHY4maKNyAmlDUka81mFv6bwWDnIPu","width":2880}],"place_id":"ChIJ85MY3s5RqEcRbAv-MvQ_eYU","plus_code":{"compound_code":"G96H+4W Berlin","global_code":"9F4MG96H+4W"},"rating":3.8,"reference":"ChIJ85MY3s5RqEcRbAv-MvQ_eYU","types":["meal_takeaway","restaurant","food","point_of_interest","establishment"],"user_ratings_total":67},{"business_status":"OPERATIONAL","formatted_address":"Friedrichstraße 207, 10969 Berlin, Germany","geometry":{"location":{"lat":52.5071671,"lng":13.3901868},"viewport":{"northeast":{"lat":52.50854522989272,"lng":13.39166037989272},"southwest":{"lat":52.50584557010728,"lng":13.38896072010728}}},"icon":"https://maps.gstatic.com/mapfiles/place_api/icons/v1/png_71/restaurant-71.png","icon_background_color":"#FF9E67","icon_mask_base_uri":"https://maps.gstatic.com/mapfiles/place_api/icons/v2/restaurant_pinlet","name":"Bier's Friedrichstrasse 207","opening_hours":{"open_now":true},"photos":[{"height":1372,"html_attributions":["<a href=\"https://maps.google.com/maps/contrib/108192183017592471089\">Akos Goracz</a>"],"photo_reference":"AeJbb3dVrr3a_kUlQLVrYgCwU0GpWdcwSMODwBx0dHtsu-juWMCdKW6EDL6GZMtWZLHwFm8_1bQ_SH8u05_6tCCxAYmJGpHecuI41pCjqNhrt8SMccL_i3ozVg4AkvNGYyRcfatRW6ApvGYJQ1zwjIew3H8Iu46pwEBtJTU4kdrdgvo5791u","width":2822}],"place_id":"ChIJIdMdXtFRqEcRr_6H6WcjLGE","plus_code":{"compound_code":"G94R+V3 Berlin","global_code":"9F4MG94R+V3"},"rating":3.8,"reference":"ChIJIdMdXtFRqEcRr_6H6WcjLGE","types":["meal_takeaway","restaurant","food","point_of_interest","establishment"],"user_ratings_total":52},{"business_status":"OPERATIONAL","formatted_address":"Dircksenstraße 116, 10178 Berlin, Germany","geometry":{"location":{"lat":52.5204,"lng":13.41319},"viewport":{"northeast":{"lat":52.52174982989271,"lng":13.41453982989272},"southwest":{"lat":52.51905017010727,"lng":13.41184017010728}}},"icon":"https://maps.gstatic.com/mapfiles/place_api/icons/v1/png_71/restaurant-71.png","icon_background_color":"#FF9E67","icon_mask_base_uri":"https://maps.gstatic.com/mapfiles/place_api/icons/v2/restaurant_pinlet","name":"Döner & Curry","opening_hours":{"open_now":true},"photos":[{"height":2736,"html_attributions":["<a href=\"https://maps.google.com/maps/contrib/102837092469354459484\">Anyul Rivas</a>"],"photo_reference":"AeJbb3dJLaGgw9LZVEOkMN9LU9NeuXM9ErdZLpx_T2XyhdAIHIBmjWKql0A9pECOok1utxaZqZUStBb-8_Oq7KP2lVo2g1Q8VQU2lZo75gNPA-dRENCYCttKjHDiPaEkaScb9iqzJUYNKgb-q_7znRnKR6rfgadCk9nOFTa7wAEu8XSyqoqV","width":3648}],"place_id":"ChIJB9wwXx9OqEcRf6kSmGdGcnk","plus_code":{"compound_code":"GCC7+57 Berlin","global_code":"9F4MGCC7+57"},"price_level":1,"rating":3.5,"reference":"ChIJB9wwXx9OqEcRf6kSmGdGcnk","types":["meal_takeaway","restaurant","food","point_of_interest","establishment"],"user_ratings_total":250},{"business_status":"OPERATIONAL","formatted_address":"Neue Promenade 7-8, 10178 Berlin, Germany","geometry":{"location":{"lat":52.5225693,"lng":13.4005729},"viewport":{"northeast":{"lat":52.52387172989272,"lng":13.40175477989272},"southwest":{"lat":52.52117207010728,"lng":13.39905512010728}}},"icon":"https://maps.gstatic.com/mapfiles/place_api/icons/v1/png_71/restaurant-71.png","icon_background_color":"#FF9E67","icon_mask_base_uri":"https://maps.gstatic.com/mapfiles/place_api/icons/v2/restaurant_pinlet","name":"Wurst & Potatos","opening_hours":{"open_now":true},"photos":[{"height":3968,"html_attributions":["<a href=\"https://maps.google.com/maps/contrib/111964413099046949422\">A Google User</a>"],"photo_reference":"AeJbb3fChW64CU-PudawHki4Y2JUU6IV-aHbj47AKi7Qaw2SR_RNs19ut-DXooIAlza28GciKzJ_aryLyL3RwNLgxR0QCcDpl-yUQrwlYrHd0_IBHkphDd_O0c_zitiJz05myRFL_L68wVR71_MEwigXD6V-4CaAtRvK8_6bw1-GeunZYA35","width":2976}],"place_id":"ChIJ870QWY1RqEcR7pt5YyKWRLU","plus_code":{"compound_code":"GCF2+26 Berlin","global_code":"9F4MGCF2+26"},"rating":3.5,"reference":"ChIJ870QWY1RqEcR7pt5YyKWRLU","types":["liquor_store","store","restaurant","food","point_of_interest","establishment"],"user_ratings_total":62},{"business_status":"OPERATIONAL","formatted_address":"Unter den Linden 77, 10117 Berlin, Germany","geometry":{"location":{"lat":52.5164316,"lng":13.3804302},"viewport":{"northeast":{"lat":52.51773752989272,"lng":13.38178767989272},"southwest":{"lat":52.51503787010727,"lng":13.37908802010728}}},"icon":"https://maps.gstatic.com/mapfiles/place_api/icons/v1/png_71/restaurant-71.png","icon_background_color":"#FF9E67","icon_mask_base_uri":"https://maps.gstatic.com/mapfiles/place_api/icons/v2/restaurant_pinlet","name":"Curry Wolf - Currywurst am Brandenburger Tor","opening_hours":{"open_now":true},"photos":[{"height":800,"html_attributions":["<a href=\"https://maps.google.com/maps/contrib/105138259835971143326\">A Google User</a>"],"photo_reference":"AeJbb3cYcLGEYi6VNKtlT_kV5RMq5MMicOSmbNG-UCq2g4PFDEt-hn2kTg9J3zXffl6Y58a3doyvLq-OKdbyohBgTcETY37w8bfxGYwHz4D1hO-yPR8N4PjMsjmdrbtJ4ocw3XAng6Cv6V02g7-xDR-A6_1dg5G_5lC8kTlGnbLWCAI5byXn","width":1200}],"place_id":"ChIJm7nKOetRqEcRuN7vK-y6HFw","plus_code":{"compound_code":"G98J+H5 Berlin","global_code":"9F4MG98J+H5"},"rating":3.3,"reference":"ChIJm7nKOetRqEcRuN7vK-y6HFw","types":["meal_takeaway","store","restaurant","food","point_of_interest","establishment"],"user_ratings_total":105},{"business_status":"OPERATIONAL","formatted_address":"Grunerstraße 20, 10179 Berlin, Germany","geometry":{"location":{"lat":52.5199004,"lng":13.4147949},"viewport":{"northeast":{"lat":52.52105437989272,"lng":13.41593297989272},"southwest":{"lat":52.51835472010728,"lng":13.41323332010728}}},"icon":"https://maps.gstatic.com/mapfiles/place_api/icons/v1/png_71/restaurant-71.png","icon_background_color":"#FF9E67","icon_mask_base_uri":"https://maps.gstatic.com/mapfiles/place_api/icons/v2/restaurant_pinlet","name":"CURRYWURSCHT; Grunerstr. 20","opening_hours":{"open_now":true},"photos":[{"height":1816,"html_attributions":["<a href=\"https://maps.google.com/maps/contrib/106322645460634261334\">oakstreet20</a>"],"photo_reference":"AeJbb3evcIucngbAa3Z0iNUUTlG122QzHG1aNXKxvMSmOEgLUgY4d1Hann6akHz4MWqF-NMnd8cQaRtYu5jLKaepXSJj9QJGRq4v4oXNoOttM0vzouH2LZ7Krbg2urg4X4u-WB9YlKlZhDR-KkrhOse35EifySTm9HHM29ie0kBsBvibZ3AQ","width":4032}],"place_id":"ChIJ6VEqC_lPqEcRWBdugHiRFdc","plus_code":{"compound_code":"GC97+XW Berlin","global_code":"9F4MGC97+XW"},"rating":3.2,"reference":"ChIJ6VEqC_lPqEcRWBdugHiRFdc","types":["meal_takeaway","restaurant","food","point_of_interest","establishment"],"user_ratings_total":13},{"business_status":"OPERATIONAL","formatted_address":"Wittenbergplatz, Ansbacher Str. 0, 10789 Berlin, Germany","geometry":{"location":{"lat":52.5015857,"lng":13.3421443},"viewport":{"northeast":{"lat":52.50286167989272,"lng":13.34338297989272},"southwest":{"lat":52.50016202010728,"lng":13.34068332010728}}},"icon":"https://maps.gstatic.com/mapfiles/place_api/icons/v1/png_71/restaurant-71.png","icon_background_color":"#FF9E67","icon_mask_base_uri":"https://maps.gstatic.com/mapfiles/place_api/icons/v2/restaurant_pinlet","name":"Original Berliner Currywurst","opening_hours":{"open_now":true},"photos":[{"height":2988,"html_attributions":["<a href=\"https://maps.google.com/maps/contrib/107579935718152309926\">F Thompson</a>"],"photo_reference":"AeJbb3f5k4JjfugznT1lt5qsVk33He1cYTDaOY2fB8zlxsNQwFMf0iIUDswAGAobYoJI92KAsvhwHTo09WappXDp-2gai75pEJRni75Ej4EzO-LoBYgxNCa64SxiVet_OmGTxVD4wzbko50WQXMPdbKLe4bCzkQWQGWa4G04InZHuY9Kt1ev","width":5312}],"place_id":"ChIJgy6fyq9RqEcRB-AX-c4uj0c","plus_code":{"compound_code":"G82R+JV Berlin","global_code":"9F4MG82R+JV"},"rating":3.1,"reference":"ChIJgy6fyq9RqEcRB-AX-c4uj0c","types":["meal_takeaway","restaurant","food","point_of_interest","establishment"],"user_ratings_total":187},{"business_status":"OPERATIONAL","formatted_address":"10117 Berlin, Germany","geometry":{"location":{"lat":52.5164694,"lng":13.3812363},"viewport":{"northeast":{"lat":52.51779202989272,"lng":13.38259232989272},"southwest":{"lat":52.51509237010728,"lng":13.37989267010728}}},"icon":"https://maps.gstatic.com/mapfiles/place_api/icons/v1/png_71/restaurant-71.png","icon_background_color":"#FF9E67","icon_mask_base_uri":"https://maps.gstatic.com/mapfiles/place_api/icons/v2/restaurant_pinlet","name":"Panini Bar - Paninis am Brandenburger Tor","opening_hours":{"open_now":true},"photos":[{"height":4000,"html_attributions":["<a href=\"https://maps.google.com/maps/contrib/113303917488967751939\">franco nicolas giuliani cerovaz</a>"],"photo_reference":"AeJbb3c23qX7qRwjeTxJ8KbsGDN4jqZP2VzPO9gLR4RzUZOKDe7ZPA0Iu34k4P3d3m3fZA7cKqBTrHsVLKOLNtZCFBFw0GUN0IXL9sgctZt8m031I2Ok_L58qHxkpDJ8Qu3s69qMZhBDvTm2co90Hcr70kODGyCZrT24Au964QA-kvkWxJY0","width":3000}],"place_id":"ChIJJVaTA8hRqEcRaIMAEj_Ug0E","plus_code":{"compound_code":"G98J+HF Berlin","global_code":"9F4MG98J+HF"},"rating":3.1,"reference":"ChIJJVaTA8hRqEcRaIMAEj_Ug0E","types":["meal_takeaway","restaurant","food","point_of_interest","establishment"],"user_ratings_total":28},{"business_status":"OPERATIONAL","formatted_address":"Dircksenstraße 1, 10178 Berlin, Germany","geometry":{"location":{"lat":52.5212772,"lng":13.4118745},"viewport":{"northeast":{"lat":52.52290422989273,"lng":13.41269627989272},"southwest":{"lat":52.52020457010728,"lng":13.40999662010728}}},"icon":"https://maps.gstatic.com/mapfiles/place_api/icons/v1/png_71/restaurant-71.png","icon_background_color":"#FF9E67","icon_mask_base_uri":"https://maps.gstatic.com/mapfiles/place_api/icons/v2/restaurant_pinlet","name":"Currywurst Express","opening_hours":{"open_now":true},"photos":[{"height":2160,"html_attributions":["<a href=\"https://maps.google.com/maps/contrib/107195813540253751247\">Ricardo J Cuellar</a>"],"photo_reference":"AeJbb3ePvq7asunelSz-mDp_sSECMcl98WJv8gbAlzoHF0IC2E4plXzEp79QcEcl5Y1tw_mpuZG5KAim8qK-1ZMSkfplXzJ_bAIQ4E_2r9Et-86nihM5Qcj6LQF8w9bvgmQZMyEec4hR4kD0QocI5GxyZ55u4IX4oNKR6PcpAJnK_jUWF639","width":3840}],"place_id":"ChIJhajubx9OqEcRrMn2SMnFUiU","plus_code":{"compound_code":"GCC6+GP Berlin","global_code":"9F4MGCC6+GP"},"rating":2.9,"reference":"ChIJhajubx9OqEcRrMn2SMnFUiU","types":["restaurant","food","point_of_interest","establishment"],"user_ratings_total":236},{"business_status":"OPERATIONAL","formatted_address":"Leipziger Pl. 12, 10117 Berlin, Germany","geometry":{"location":{"lat":52.5104331,"lng":13.3799106},"viewport":{"northeast":{"lat":52.51161357989272,"lng":13.38098672989272},"southwest":{"lat":52.50891392010728,"lng":13.37828707010728}}},"icon":"https://maps.gstatic.com/mapfiles/place_api/icons/v1/png_71/restaurant-71.png","icon_background_color":"#FF9E67","icon_mask_base_uri":"https://maps.gstatic.com/mapfiles/place_api/icons/v2/restaurant_pinlet","name":"Pommes Freunde","opening_hours":{"open_now":true},"photos":[{"height":3024,"html_attributions":["<a href=\"https://maps.google.com/maps/contrib/105741273441959685019\">Nicolaz David Perez Mesa</a>"],"photo_reference":"AeJbb3dOs3trvDvrmHnBu3c055zOHD1Wn-MpEbSeJYK71kZsWBmloRb2S1yqAR5MOf71tKRvUgI4NK3d75VcbUahuz6R6ype0kvwtxv9DdtIT0s3a6RMZxl3VlokV48gC3RJ13p_XpIzVl91hz3SbtcO0cQAQUMeLO0v4cg3LD6t9We75KS8","width":4032}],"place_id":"ChIJaTja3s5RqEcR7j9mZJHoUQc","plus_code":{"compound_code":"G96H+5X Berlin","global_code":"9F4MG96H+5X"},"price_level":2,"rating":2.9,"reference":"ChIJaTja3s5RqEcR7j9mZJHoUQc","types":["restaurant","food","point_of_interest","establishment"],"user_ratings_total":114}]