[{"business_status":"OPERATIONAL","formatted_address":"Kantstraße 140, 10623 Berlin","geometry":{"location":{"lat":52.505789,"lng":13.3189097},"viewport":{"northeast":{"lat":52.50722192989272,"lng":13.32027742989272},"southwest":{"lat":52.50452227010727,"lng":13.31757777010728}}},"icon":"https://maps.gstatic.com/mapfiles/place_api/icons/v1/png_71/restaurant-71.png","icon_background_color":"#FF9E67","icon_mask_base_uri":"https://maps.gstatic.com/mapfiles/place_api/icons/v2/restaurant_pinlet","name":"Siam Chada Restaurants","opening_hours":{"open_now":true},"photos":[{"height":3024,"html_attributions":["<a href=\"https://maps.google.com/maps/contrib/106170560741626654021\">Fadi Ali</a>"],"photo_reference":"AeJbb3cXGgqWnk1QgP9WDf9lP_NwKO3B3sb1l_WSxCaV_kc1odh1HxnLKtsglJWVjAUKtr4zSVaEmr9zOhY8zYezWk_12ERCAhClDKOHicHdU39LkQaIcDLBgmvCcMW-sbrdYlgruIyffxDTVY04h_JPERJfcARuZj9JLCuo3QoB30B9uA5X","width":4032}],"place_id":"ChIJfe5oahVRqEcRmp8mFrlih5k","plus_code":{"compound_code":"G849+8H Berlin","global_code":"9F4MG849+8H"},"rating":5,"reference":"ChIJfe5oahVRqEcRmp8mFrlih5k","types":["restaurant","food","point_of_interest","establishment"],"user_ratings_total":22},{"business_status":"OPERATIONAL","formatted_address":"Köpenicker Str. 11, 12524 Berlin","geometry":{"location":{"lat":52.4227286,"lng":13.5397445},"viewport":{"northeast":{"lat":52.42402727989272,"lng":13.54114587989272},"southwest":{"lat":52.42132762010728,"lng":13.53844622010728}}},"icon":"https://maps.gstatic.com/mapfiles/place_api/icons/v1/png_71/restaurant-71.png","icon_background_color":"#FF9E67","icon_mask_base_uri":"https://maps.gstatic.com/mapfiles/place_api/icons/v2/restaurant_pinlet","name":"Tower of Siam","opening_hours":{"open_now":true},"photos":[{"height":4032,"html_attributions":["<a href=\"https://maps.google.com/maps/contrib/105968746031069244984\">A Google User</a>"],"photo_reference":"AeJbb3c--khO9fiRA4mEbdDTmJcx20hgGmD6N9KFPgRrIRjvzgcKadZnsRn0sRPPA8oxzU0fn0sTPAyhZ8M-uyW4-PZGM1KEk1zypdh0_v09JX9SMmb2GW7Q5BmmY3VZe3ZYIadbKOjATAeJ60AqRFVP1X9CTVbrjm_S42hMuU_Sw-t8QKtF","width":3024}],"place_id":"ChIJP670yUFHqEcRMj5018ww_EM","plus_code":{"compound_code":"CGFQ+3V Berlin","global_code":"9F4MCGFQ+3V"},"rating":4.9,"reference":"ChIJP670yUFHqEcRMj5018ww_EM","types":["restaurant","food","point_of_interest","establishment"],"user_ratings_total":114},{"business_status":"OPERATIONAL","formatted_address":"Teltower Damm 49, 14167 Berlin","geometry":{"location":{"lat":52.429678,"lng":13.2599319},"viewport":{"northeast":{"lat":52.43101767989273,"lng":13.26122317989272},"southwest":{"lat":52.42831802010728,"lng":13.25852352010728}}},"icon":"https://maps.gstatic.com/mapfiles/place_api/icons/v1/png_71/restaurant-71.png","icon_background_color":"#FF9E67","icon_mask_base_uri":"https://maps.gstatic.com/mapfiles/place_api/icons/v2/restaurant_pinlet","name":"Thai Cuisine Berlin Zehlendorf","opening_hours":{"open_now":true},"photos":[{"height":3456,"html_attributions":["<a href=\"https://maps.google.com/maps/contrib/116288472479687898363\">Thai Cuisine</a>"],"photo_reference":"AeJbb3cjgxzxu5m1EMi9B6pEdGi9wDzhXadMDco4DBiWXyFX2qboy88WSgIEqWzFk1yseswKyLFFvvPK-c_pFKaI324mS5UQESfeq9guEK8CSMh4kDsC51vAcRmYtEZEgEx-XcV-NF-g3uDNB8g5-rIyu94fJ1HXoZHzM9HDOXCDWvWgOw6m","width":5184}],"place_id":"ChIJAfotSjNaqEcRvbD_deyPaUw","plus_code":{"compound_code":"C7H5+VX Berlin","global_code":"9F4MC7H5+VX"},"price_level":2,"rating":4.7,"reference":"ChIJAfotSjNaqEcRvbD_deyPaUw","types":["restaurant","food","point_of_interest","establishment"],"user_ratings_total":438},{"business_status":"OPERATIONAL","formatted_address":"Kaiserdamm 89, 14057 Berlin","geometry":{"location":{"lat":52.5097382,"lng":13.2815009},"viewport":{"northeast":{"lat":52.51116792989272,"lng":13.28280017989272},"southwest":{"lat":52.50846827010728,"lng":13.28010052010728}}},"icon":"https://maps.gstatic.com/mapfiles/place_api/icons/v1/png_71/restaurant-71.png","icon_background_color":"#FF9E67","icon_mask_base_uri":"https://maps.gstatic.com/mapfiles/place_api/icons/v2/restaurant_pinlet","name":"Papa Thai","opening_hours":{"open_now":true},"photos":[{"height":3024,"html_attributions":["<a href=\"https://maps.google.com/maps/contrib/113032429201776350698\">Fei He</a>"],"photo_reference":"AeJbb3efauShT3gJa34b7Pf8UHlDfxBSSY6_VYSgk6Z2ZUlBkqi0uE5Q5v6l9NL9Q1AfcjgR08h-cDICvQx7FyNHny2L2GnnD5YEtPw0BAQfIwY55P6VwsMSca1cj1j1_-FYpjx8bdaKhCPyJlX_34yDgSjekp4yrOa4h2yEvL8mKAeRgfG-","width":4032}],"place_id":"ChIJP--u8QFRqEcRG4udldag3yM","plus_code":{"compound_code":"G75J+VJ Berlin","global_code":"9F4MG75J+VJ"},"price_level":2,"rating":4.7,"reference":"ChIJP--u8QFRqEcRG4udldag3yM","types":["restaurant","food","point_of_interest","establishment"],"user_ratings_total":309},{"business_status":"OPERATIONAL","formatted_address":"Schönefelder Str. 12, 12355 Berlin","geometry":{"location":{"lat":52.41404319999999,"lng":13.4975288},"viewport":{"northeast":{"lat":52.41539942989272,"lng":13.49894102989272},"southwest":{"lat":52.41269977010728,"lng":13.49624137010728}}},"icon":"https://maps.gstatic.com/mapfiles/place_api/icons/v1/png_71/restaurant-71.png","icon_background_color":"#FF9E67","icon_mask_base_uri":"https://maps.gstatic.com/mapfiles/place_api/icons/v2/restaurant_pinlet","name":"Lapin - Thai Restaurant & Kulturhaus","opening_hours":{"open_now":false},"photos":[{"height":3024,"html_attributions":["<a href=\"https://maps.google.com/maps/contrib/116092248758609633444\">Hans-D. Graetz</a>"],"photo_reference":"AeJbb3coKUCdUEho46FlVln-bJnOzFzk5vFWYgoM09W4U_MEga9dQAUO4imF6u254UbVyFLbXCKpz71nMNqQMT33v3xw4u5nTFeafTGa3ncKhLgGmoj3mEq0g0JO6BLf60OEhGI8BFrN1idH5nkhTRQbMHml9VmIbv-V0sSbaHWBTi5fMPq5","width":4032}],"place_id":"ChIJS5SAc29GqEcR8ke94X4Z1IU","plus_code":{"compound_code":"CF7W+JX Berlin","global_code":"9F4MCF7W+JX"},"price_level":1,"rating":4.7,"reference":"ChIJS5SAc29GqEcR8ke94X4Z1IU","types":["restaurant","food","point_of_interest","establishment"],"user_ratings_total":222},{"business_status":"OPERATIONAL","formatted_address":"Richardstraße 4, 12043 Berlin","geometry":{"location":{"lat":52.4784571,"lng":13.4384557},"viewport":{"northeast":{"lat":52.47984962989271,"lng":13.43989567989272},"southwest":{"lat":52.47714997010726,"lng":13.43719602010728}}},"icon":"https://maps.gstatic.com/mapfiles/place_api/icons/v1/png_71/restaurant-71.png","icon_background_color":"#FF9E67","icon_mask_base_uri":"https://maps.gstatic.com/mapfiles/place_api/icons/v2/restaurant_pinlet","name":"Sukanya Thai Imbiss","opening_hours":{"open_now":true},"photos":[{"height":2032,"html_attributions":["<a href=\"https://maps.google.com/maps/contrib/115820520580246179900\">A Google User</a>"],"photo_reference":"AeJbb3dw8fPSF9KmYKs9qruvUrCyQ7lPCEqxTmwKDBb8obd-I_my2TLhhqxzDDzCTRk96gqYEvEk03ANvQ9XmgYPcgzAb9opxHRsDGV9--KhKc6z2PQ9V5Wq_wKkJ3spQyPFGSIILPyrkL4ZsCY_5EJb6F15y5Lcg1eo29sVzYn9GUhtd8Zv","width":1652}],"place_id":"ChIJ9W0vCUpPqEcROHRnGxrpqas","plus_code":{"compound_code":"FCHQ+99 Berlin","global_code":"9F4MFCHQ+99"},"rating":4.7,"reference":"ChIJ9W0vCUpPqEcROHRnGxrpqas","types":["meal_takeaway","restaurant","food","point_of_interest","establishment"],"user_ratings_total":130},{"business_status":"OPERATIONAL","formatted_address":"Boxhagener Str. 108, 10245 Berlin","geometry":{"location":{"lat":52.5129374,"lng":13.4577071},"viewport":{"northeast":{"lat":52.51432782989272,"lng":13.45913592989272},"southwest":{"lat":52.51162817010727,"lng":13.45643627010728}}},"icon":"https://maps.gstatic.com/mapfiles/place_api/icons/v1/png_71/restaurant-71.png","icon_background_color":"#FF9E67","icon_mask_base_uri":"https://maps.gstatic.com/mapfiles/place_api/icons/v2/restaurant_pinlet","name":"Hangmee Exotiq Finest Asian Food","opening_hours":{"open_now":true},"photos":[{"height":2736,"html_attributions":["<a href=\"https://maps.google.com/maps/contrib/101918537439998662657\">Martin Korn</a>"],"photo_reference":"AeJbb3cgWJ2Uh6Ql75eybh7b21sZaKNuX95_WDuGJb0Olm29nIzXIfTX0Kq5mVV2Ifs3BK_cwzwFgAx9guer3EJTHlSOVEJCWxOVw7pcuWlAmGXNS14kj3_n8BxoT1U2yUBDxFHBK6deLuNcxRfx8xZYmc07APP5854EyTzXgnZJi1WqQIO2","width":3648}],"place_id":"ChIJCb2ee15OqEcRa_CQKLFwUg4","plus_code":{"compound_code":"GF75+53 Berlin","global_code":"9F4MGF75+53"},"price_level":2,"rating":4.6,"reference":"ChIJCb2ee15OqEcRa_CQKLFwUg4","types":["restaurant","food","point_of_interest","establishment"],"user_ratings_total":1253},{"business_status":"OPERATIONAL","formatted_address":"Kantstraße 53, 10627 Berlin","geometry":{"location":{"lat":52.5067969,"lng":13.3086631},"viewport":{"northeast":{"lat":52.50806352989272,"lng":13.30999922989272},"southwest":{"lat":52.50536387010728,"lng":13.30729957010728}}},"icon":"https://maps.gstatic.com/mapfiles/place_api/icons/v1/png_71/restaurant-71.png","icon_background_color":"#FF9E67","icon_mask_base_uri":"https://maps.gstatic.com/mapfiles/place_api/icons/v2/restaurant_pinlet","name":"Chon Thong","opening_hours":{"open_now":true},"photos":[{"height":1436,"html_attributions":["<a href=\"https://maps.google.com/maps/contrib/114567528108848966479\">Alice Wunder</a>"],"photo_reference":"AeJbb3dwq9iBdHf-ZGJOqL68AouHZx_VX9ULKsPaNCuF9_nFXJcynr7MnWHujSORT5cRBQQ8Gg3O6YM72xJnS7g6m-CyKq5l6Oj4zNQbkrSrYLWAyvFzyl-DCVf9f9rUIaBfBlBd58e6dcrgRx-FZYRDwo_kIJf9CS-fPhxiT4tNdpBNAsIv","width":2528}],"place_id":"ChIJq6palOBQqEcRYmbTCbj8wh4","plus_code":{"compound_code":"G845+PF Berlin","global_code":"9F4MG845+PF"},"price_level":1,"rating":4.6,"reference":"ChIJq6palOBQqEcRYmbTCbj8wh4","types":["restaurant","food","point_of_interest","establishment"],"user_ratings_total":733},{"business_status":"OPERATIONAL","formatted_address":"Dunckerstraße 18, 10437 Berlin","geometry":{"location":{"lat":52.5435357,"lng":13.4219225},"viewport":{"northeast":{"lat":52.54491602989272,"lng":13.42317607989272},"southwest":{"lat":52.54221637010728,"lng":13.42047642010728}}},"icon":"https://maps.gstatic.com/mapfiles/place_api/icons/v1/png_71/restaurant-71.png","icon_background_color":"#FF9E67","icon_mask_base_uri":"https://maps.gstatic.com/mapfiles/place_api/icons/v2/restaurant_pinlet","name":"Thai Aroma","opening_hours":{"open_now":true},"photos":[{"height":3120,"html_attributions":["<a href=\"https://maps.google.com/maps/contrib/109463612905322654437\">Philipp Goldmann</a>"],"photo_reference":"AeJbb3fscCcIE2XSKK_X_kyquWnouyp0NrNXTkIKv1UXvkvArisSUqTsDE-O_onCDrpyHkl_EkH1CFyzJtXm06wrFAD3WogW-aJVTCEQ3VZGehrEdOVzPV7722Tel-ouOwDIGVDoPMfkTT1uFZ8T7aq9pU27ANUH0Ln1EBaR8-9CdyRX_3Rg","width":4160}],"place_id":"ChIJPdiUVP5NqEcRhfAy1SR7EwU","plus_code":{"compound_code":"GCVC+CQ Berlin","global_code":"9F4MGCVC+CQ"},"price_level":2,"rating":4.6,"reference":"ChIJPdiUVP5NqEcRhfAy1SR7EwU","types":["restaurant","food","point_of_interest","establishment"],"user_ratings_total":725},{"business_status":"OPERATIONAL","formatted_address":"Käthe-Niederkirchner-Straße 14, 10407 Berlin","geometry":{"location":{"lat":52.530488,"lng":13.431504},"viewport":{"northeast":{"lat":52.53189577989272,"lng":13.43292262989272},"southwest":{"lat":52.52919612010728,"lng":13.43022297010728}}},"icon":"https://maps.gstatic.com/mapfiles/place_api/icons/v1/png_71/restaurant-71.png","icon_background_color":"#FF9E67","icon_mask_base_uri":"https://maps.gstatic.com/mapfiles/place_api/icons/v2/restaurant_pinlet","name":"Taleh Thai","opening_hours":{"open_now":true},"photos":[{"height":2862,"html_attributions":["<a href=\"https://maps.google.com/maps/contrib/103550081683935470977\">Taleh Thai</a>"],"photo_reference":"AeJbb3co_J2hCg2R73HNOMG5VLHFWk9eR-oBh49NFWOM1BRYYfKLSBdQIEW_-GlmujyRXwd5mNjP2jWtl4Y4GhVUJZpENkFQEChTI5PLXD2dQ4E37FIGok8esW9I0QEZbUqTQGvWgT9OpkxjMwSi93K2WoLO-RIrkIdf3tyNHpxfO7-ZxMMV","width":3579}],"place_id":"ChIJb-CtNw5OqEcRp3kuYtPtR-I","plus_code":{"compound_code":"GCJJ+5J Berlin","global_code":"9F4MGCJJ+5J"},"price_level":2,"rating":4.6,"reference":"ChIJb-CtNw5OqEcRp3kuYtPtR-I","types":["restaurant","food","point_of_interest","establishment"],"user_ratings_total":540},{"business_status":"OPERATIONAL","formatted_address":"Reinickendorfer Str. 96, 13347 Berlin","geometry":{"location":{"lat":52.5475453,"lng":13.3689427},"viewport":{"northeast":{"lat":52.54890047989272,"lng":13.37040362989272},"southwest":{"lat":52.54620082010728,"lng":13.36770397010728}}},"icon":"https://maps.gstatic.com/mapfiles/place_api/icons/v1/png_71/restaurant-71.png","icon_background_color":"#FF9E67","icon_mask_base_uri":"https://maps.gstatic.com/mapfiles/place_api/icons/v2/restaurant_pinlet","name":"Dan Thai Food","opening_hours":{"open_now":true},"photos":[{"height":3456,"html_attributions":["<a href=\"https://maps.google.com/maps/contrib/109763686770982644711\">S.B.H. W.</a>"],"photo_reference":"AeJbb3eaKmaa-oQzOx4DDPvxwU9__SKWkBp1EEvLHTX_T779TW6bGqAtaOZc-OBgDe2GiS1w4JgfzRHDZ4tVJS5me3DpNIcaUqtvdgNWbR2uJ10L4tiTBzNKg_hjXIaoWXWDarcUQtX9g18371-J1MkPwJRShXZlV5huGsqjWtRFwI-9CSAQ","width":4608}],"place_id":"ChIJSwGH2SlSqEcR0_gcvvXI3yc","plus_code":{"compound_code":"G9X9+2H Berlin","global_code":"9F4MG9X9+2H"},"price_level":1,"rating":4.6,"reference":"ChIJSwGH2SlSqEcR0_gcvvXI3yc","types":["restaurant","food","point_of_interest","establishment"],"user_ratings_total":501},{"business_status":"OPERATIONAL","formatted_address":"Goerzallee 111, 12207 Berlin","geometry":{"location":{"lat":52.4221991,"lng":13.2994587},"viewport":{"northeast":{"lat":52.42359837989272,"lng":13.30064697989272},"southwest":{"lat":52.42089872010727,"lng":13.29794732010728}}},"icon":"https://maps.gstatic.com/mapfiles/place_api/icons/v1/png_71/restaurant-71.png","icon_background_color":"#FF9E67","icon_mask_base_uri":"https://maps.gstatic.com/mapfiles/place_api/icons/v2/restaurant_pinlet","name":"Thai By Thai","opening_hours":{"open_now":true},"photos":[{"height":1960,"html_attributions":["<a href=\"https://maps.google.com/maps/contrib/107723832206281144501\">Thai By Thai</a>"],"photo_reference":"AeJbb3elPu1z4IjxPG6-ruqJLKGmXwrPLfvEMGITK986iCnPqzHfG2ckWAVQckiAdxafMO4nMs51TLbf7b5-4BZdytE6z874tp30AwU-ScQcrag2JdHO5MEDzIA0sjDFJGe291oMvOTo5YsyPT1LLJXUu3ctAUc2wNUT_Q2m6aubCw18uSH8","width":4032}],"place_id":"ChIJv69L-gBbqEcR33jp2iPdXyU","plus_code":{"compound_code":"C7CX+VQ Berlin","global_code":"9F4MC7CX+VQ"},"price_level":2,"rating":4.6,"reference":"ChIJv69L-gBbqEcR33jp2iPdXyU","types":["restaurant","food","point_of_interest","establishment"],"user_ratings_total":333},{"business_status":"OPERATIONAL","formatted_address":"Kantstraße 57, 10627 Berlin","geometry":{"location":{"lat":52.5069165,"lng":13.3058096},"viewport":{"northeast":{"lat":52.50822557989272,"lng":13.30713352989272},"southwest":{"lat":52.50552592010727,"lng":13.30443387010728}}},"icon":"https://maps.gstatic.com/mapfiles/place_api/icons/v1/png_71/restaurant-71.png","icon_background_color":"#FF9E67","icon_mask_base_uri":"https://maps.gstatic.com/mapfiles/place_api/icons/v2/restaurant_pinlet","name":"Thai-Art","opening_hours":{"open_now":true},"photos":[{"height":450,"html_attributions":["<a href=\"https://maps.google.com/maps/contrib/114593809716112240400\">Mathias Heinrich</a>"],"photo_reference":"AeJbb3dDtdJj1fit0zOcgiuh2rISUNYD7rYvP6eaNY46vip6GNuoosjTgha-DxMkfhoQPkw09JPXHf3vxLtGsjeKZx-diyl1X5MjsUtZ_AmGxuIio0YO-SBSUbwbradCpsqcYtDP5ryaOVU5oYnnycn-rlX9uCqXXtweW1mD2fqJpN6GTAzz","width":600}],"place_id":"ChIJx9G1vIxQqEcRZIufrZJGalc","plus_code":{"compound_code":"G844+Q8 Berlin","global_code":"9F4MG844+Q8"},"rating":4.6,"reference":"ChIJx9G1vIxQqEcRZIufrZJGalc","types":["restaurant","food","point_of_interest","establishment"],"user_ratings_total":309},{"business_status":"OPERATIONAL","formatted_address":"Gryphiusstraße 10, 10245 Berlin","geometry":{"location":{"lat":52.5086689,"lng":13.4637439},"viewport":{"northeast":{"lat":52.51002482989272,"lng":13.46506772989272},"southwest":{"lat":52.50732517010728,"lng":13.46236807010727}}},"icon":"https://maps.gstatic.com/mapfiles/place_api/icons/v1/png_71/restaurant-71.png","icon_background_color":"#FF9E67","icon_mask_base_uri":"https://maps.gstatic.com/mapfiles/place_api/icons/v2/restaurant_pinlet","name":"Khao Taan","opening_hours":{"open_now":true},"photos":[{"height":2268,"html_attributions":["<a href=\"https://maps.google.com/maps/contrib/105856431021380610283\">erwan</a>"],"photo_reference":"AeJbb3fHnq9f9LO2A0HTO3oWKXetBM90WsBqRB_dgYgXeh7_Bg_8FlJfyUFDECQlkK8zJA1qxbP2y1sF2eUF-X9EGWFgWAyms9s-i6xSQK3PLDgd2aSl6cSk60omiPtRnI7gKBeXdFvoyMhZNNNS1YvU1ju5grnnjoydccnlulsTwbaYmN8m","width":4032}],"place_id":"ChIJ1fx6VmhOqEcRMDHeAA6W_hI","plus_code":{"compound_code":"GF57+FG Berlin","global_code":"9F4MGF57+FG"},"price_level":2,"rating":4.6,"reference":"ChIJ1fx6VmhOqEcRMDHeAA6W_hI","types":["restaurant","food","point_of_interest","establishment"],"user_ratings_total":219},{"business_status":"OPERATIONAL","formatted_address":"Friesenstraße 22, 10965 Berlin","geometry":{"location":{"lat":52.4878537,"lng":13.3946807},"viewport":{"northeast":{"lat":52.48920407989272,"lng":13.39589692989272},"southwest":{"lat":52.48650442010728,"lng":13.39319727010728}}},"icon":"https://maps.gstatic.com/mapfiles/place_api/icons/v1/png_71/restaurant-71.png","icon_background_color":"#FF9E67","icon_mask_base_uri":"https://maps.gstatic.com/mapfiles/place_api/icons/v2/restaurant_pinlet","name":"Sarod's","opening_hours":{"open_now":true},"photos":[{"height":2976,"html_attributions":["<a href=\"https://maps.google.com/maps/contrib/106431935067918229467\">Hans Hartmann</a>"],"photo_reference":"AeJbb3edUP8mSXWydZEdbnkniRrhPkwpY4ZalUavL_Y63btCrmcXyYEOfkzpc5a-5nXWyhY8H4WKV900qjtBhtK6DK3GItV2SfQ1wEv_t99QGKrF6MCDcbqb3f-7V0e0Lf4IqU77KKzhL4LHtrptu-6C_A6kFo7_iwzehA_bAJKVTTiSIzU5","width":3968}],"place_id":"ChIJ2UcGstlPqEcRH6UiEVehSKY","plus_code":{"compound_code":"F9QV+4V Berlin","global_code":"9F4MF9QV+4V"},"price_level":2,"rating":4.5,"reference":"ChIJ2UcGstlPqEcRH6UiEVehSKY","types":["bar","restaurant","food","point_of_interest","establishment"],"user_ratings_total":634},{"business_status":"OPERATIONAL","formatted_address":"Brunowstraße 8, 13507 Berlin","geometry":{"location":{"lat":52.5879588,"lng":13.2861704},"viewport":{"northeast":{"lat":52.58927832989271,"lng":13.28752502989272},"southwest":{"lat":52.58657867010727,"lng":13.28482537010728}}},"icon":"https://maps.gstatic.com/mapfiles/place_api/icons/v1/png_71/restaurant-71.png","icon_background_color":"#FF9E67","icon_mask_base_uri":"https://maps.gstatic.com/mapfiles/place_api/icons/v2/restaurant_pinlet","name":"Rüan-Thai","opening_hours":{"open_now":true},"photos":[{"height":2988,"html_attributions":["<a href=\"https://maps.google.com/maps/contrib/117850064349563127644\">Juergen Goldmann</a>"],"photo_reference":"AeJbb3eKkw2gIy6XpgAqbiyNThJo3nMCzAN2r_Jt8IRKpynMfoYUq-ZUtFAMakujTsyDznDTLG31OEbIBDidCpcSCTvvivTmKArmdjHPr6Poixuc7fpFGgFaHGyitwOm_Iy_2WyLh7_FwkNV7pUANTUpT87LkYEojdF-s6BdJlvOrnKhS6Iz","width":5312}],"place_id":"ChIJI348FmhUqEcRQJKsFtz79CA","plus_code":{"compound_code":"H7QP+6F Berlin","global_code":"9F4MH7QP+6F"},"price_level":2,"rating":4.5,"reference":"ChIJI348FmhUqEcRQJKsFtz79CA","types":["restaurant","food","point_of_interest","establishment"],"user_ratings_total":608},{"business_status":"OPERATIONAL","formatted_address":"Kaiserin-Augusta-Straße 73, 12103 Berlin","geometry":{"location":{"lat":52.4594338,"lng":13.3819884},"viewport":{"northeast":{"lat":52.46078862989272,"lng":13.38316157989272},"southwest":{"lat":52.45808897010728,"lng":13.38046192010728}}},"icon":"https://maps.gstatic.com/mapfiles/place_api/icons/v1/png_71/restaurant-71.png","icon_background_color":"#FF9E67","icon_mask_base_uri":"https://maps.gstatic.com/mapfiles/place_api/icons/v2/restaurant_pinlet","name":"Tonsai","opening_hours":{"open_now":true},"photos":[{"height":3024,"html_attributions":["<a href=\"https://maps.google.com/maps/contrib/111776768969028529606\">Dr. Michael Gellner</a>"],"photo_reference":"AeJbb3fnm_JlXG_5NZrRtIcLTtp6-KujLZzx9Dk8Kp2LD7CKQNSEiH8-Wtz2fozP07YVBdYB1tthaWkuHcPybAqg2HV98nJDp2kurH9ng5QrW-A2Rxee6haQiKVuNf3qFK9R8rtz5ct8lshjsMgYDTZT_DcHrGS2jVJxMedi04eu-Yl9xZik","width":4032}],"place_id":"ChIJRcgAZ_9PqEcRY423WAl9tN0","plus_code":{"compound_code":"F95J+QQ Berlin","global_code":"9F4MF95J+QQ"},"price_level":2,"rating":4.5,"reference":"ChIJRcgAZ_9PqEcRY423WAl9tN0","types":["restaurant","food","point_of_interest","establishment"],"user_ratings_total":517},{"business_status":"OPERATIONAL","formatted_address":"Rigaer Str. 26, 10247 Berlin","geometry":{"location":{"lat":52.5168085,"lng":13.4620795},"viewport":{"northeast":{"lat":52.51822122989272,"lng":13.46344512989272},"southwest":{"lat":52.51552157010727,"lng":13.46074547010728}}},"icon":"https://maps.gstatic.com/mapfiles/place_api/icons/v1/png_71/restaurant-71.png","icon_background_color":"#FF9E67","icon_mask_base_uri":"https://maps.gstatic.com/mapfiles/place_api/icons/v2/restaurant_pinlet","name":"Koy | frische und gute thailändische Küche","opening_hours":{"open_now":true},"photos":[{"height":3024,"html_attributions":["<a href=\"https://maps.google.com/maps/contrib/107085084639609629291\">Jamie Matthews</a>"],"photo_reference":"AeJbb3eHWeP-IP3GEkZ1nRk-QpMIn8UxCKR9-L9DMAN8RkQgJ-bq8stBePNhLh1iVN0MvPc-SAgbXSqPRZCMsfYVAPItOaDyYTqq3TtMwWuZsM-p3taW11OFZ86zHJHAaXljzH8j70bbZKa4dJfrbXBlfJ9rl18GZkSHL2JXORbCeFs8SOOc","width":4032}],"place_id":"ChIJM3SP-mBOqEcRnOnjlJnMbzI","plus_code":{"compound_code":"GF86+PR Berlin","global_code":"9F4MGF86+PR"},"price_level":1,"rating":4.5,"reference":"ChIJM3SP-mBOqEcRnOnjlJnMbzI","types":["restaurant","food","point_of_interest","establishment"],"user_ratings_total":500},{"business_status":"OPERATIONAL","formatted_address":"Luxemburger Str. 4, 13353 Berlin","geometry":{"location":{"lat":52.54583840000001,"lng":13.35789},"viewport":{"northeast":{"lat":52.54715117989272,"lng":13.35930197989272},"southwest":{"lat":52.54445152010728,"lng":13.35660232010728}}},"icon":"https://maps.gstatic.com/mapfiles/place_api/icons/v1/png_71/restaurant-71.png","icon_background_color":"#FF9E67","icon_mask_base_uri":"https://maps.gstatic.com/mapfiles/place_api/icons/v2/restaurant_pinlet","name":"Krua Thai","opening_hours":{"open_now":true},"photos":[{"height":4032,"html_attributions":["<a href=\"https://maps.google.com/maps/contrib/107085084639609629291\">Jamie Matthews</a>"],"photo_reference":"AeJbb3d8mlWtecYuyNxpd3b8Jc9iQ5iv6Yqj61CzsR5OJYO6io8WFXxo_b35X9BFD8nzPpDNc8wYv-goR2E2XI_3gircdBtV2yfJBm98Rgw_t3S7suC59VQM1yA3OLI3awtc_UsiDi_XoTuYSV6zF2U62K1wAYOoetR6P0gnbtGBLjfsJvS1","width":3024}],"place_id":"ChIJyX9lLIBRqEcRepj0seAjvqQ","plus_code":{"compound_code":"G9W5+85 Berlin","global_code":"9F4MG9W5+85"},"price_level":1,"rating":4.5,"reference":"ChIJyX9lLIBRqEcRepj0seAjvqQ","types":["restaurant","food","point_of_interest","establishment"],"user_ratings_total":431},{"business_status":"OPERATIONAL","formatted_address":"Prenzlauer Allee 46, 10405 Berlin","geometry":{"location":{"lat":52.5368226,"lng":13.4232101},"viewport":{"northeast":{"lat":52.53818557989272,"lng":13.42451007989272},"southwest":{"lat":52.53548592010728,"lng":13.42181042010728}}},"icon":"https://maps.gstatic.com/mapfiles/place_api/icons/v1/png_71/restaurant-71.png","icon_background_color":"#FF9E67","icon_mask_base_uri":"https://maps.gstatic.com/mapfiles/place_api/icons/v2/restaurant_pinlet","name":"Bangkok Treffpunkt","opening_hours":{"open_now":true},"photos":[{"height":3654,"html_attributions":["<a href=\"https://maps.google.com/maps/contrib/114362887661244873055\">Treffpunkt Bangkok</a>"],"photo_reference":"AeJbb3d-uJcjYcs1S8yBJIylmi_-bMiJUsJnDHRIXh2nYQxAslHnB7hR6IWcVWMzk0qhbK4SURhsDmOlva51symTTTDLh4zkl0fbbWQd1Nb3P7W7YxD7cvfO-xJqbfvAWGuSJTQDJRArSK-2FquymFnVeri1gQRyqbEX6jsKsuNURUj38LsK","width":5481}],"place_id":"ChIJAQLPuQZOqEcRHvh4GgXFtl0","plus_code":{"compound_code":"GCPF+P8 Berlin","global_code":"9F4MGCPF+P8"},"price_level":1,"rating":4.5,"reference":"ChIJAQLPuQZOqEcRHvh4GgXFtl0","types":["restaurant","food","point_of_interest","establishment"],"user_ratings_total":407},{"business_status":"OPERATIONAL","formatted_address":"Frankfurter Allee 102, 10247 Berlin","geometry":{"location":{"lat":52.51360560000001,"lng":13.4737239},"viewport":{"northeast":{"lat":52.51495967989271,"lng":13.47488137989272},"southwest":{"lat":52.51226002010727,"lng":13.47218172010728}}},"icon":"https://maps.gstatic.com/mapfiles/place_api/icons/v1/png_71/restaurant-71.png","icon_background_color":"#FF9E67","icon_mask_base_uri":"https://maps.gstatic.com/mapfiles/place_api/icons/v2/restaurant_pinlet","name":"Thai Snack","opening_hours":{"open_now":true},"photos":[{"height":4608,"html_attributions":["<a href=\"https://maps.google.com/maps/contrib/108805991751951131947\">A Google User</a>"],"photo_reference":"AeJbb3eRCf3DjCJfHpxem-34jKtJlPNHdQ6f78urwSbZ1vaP_oTO189jE7si-1ARZa9Myag7XZi71aOZihkbrBQcS0J6xOyViT6hD_LDEYASCxadQKLsSBfmMJU2zKRMZyQB-MSSaLz_P6wM6wz_JqCAw5h6HNMYtFoQi7Uk2F-BmmD6mwx7","width":3456}],"place_id":"ChIJ09K4rYxOqEcRjzb1IHstNT0","plus_code":{"compound_code":"GF7F+CF Berlin","global_code":"9F4MGF7F+CF"},"price_level":1,"rating":4.5,"reference":"ChIJ09K4rYxOqEcRjzb1IHstNT0","types":["restaurant","food","point_of_interest","establishment"],"user_ratings_total":288},{"business_status":"OPERATIONAL","formatted_address":"Krumme Str. 36, 10627 Berlin","geometry":{"location":{"lat":52.509233,"lng":13.3093504},"viewport":{"northeast":{"lat":52.51056102989273,"lng":13.31074927989272},"southwest":{"lat":52.50786137010728,"lng":13.30804962010728}}},"icon":"https://maps.gstatic.com/mapfiles/place_api/icons/v1/png_71/restaurant-71.png","icon_background_color":"#FF9E67","icon_mask_base_uri":"https://maps.gstatic.com/mapfiles/place_api/icons/v2/restaurant_pinlet","name":"myThais","opening_hours":{"open_now":false},"photos":[{"height":2988,"html_attributions":["<a href=\"https://maps.google.com/maps/contrib/108199341114892997489\">My Thais Korat Küche</a>"],"photo_reference":"AeJbb3fW8Bs32f8STUFLw794-KeGIOB43b1JjQVjeljIngU-vUrXuv2pduYMlmRzvFWb54yZew2qyhlYuAGU9MhnXuuOSHAU9F5pPUQeB7_P4ZA0ktMsoO1UOJ3fxaIkWOBYi3RVWgnqJnz1N_LBb2hQFdMhKoGe89pdJzWFDsohEwBpqYo2","width":4478}],"place_id":"ChIJzZggbeBQqEcRDEpEhED_NRg","plus_code":{"compound_code":"G855+MP Berlin","global_code":"9F4MG855+MP"},"price_level":1,"rating":4.5,"reference":"ChIJzZggbeBQqEcRDEpEhED_NRg","types":["restaurant","food","point_of_interest","establishment"],"user_ratings_total":281},{"business_status":"OPERATIONAL","formatted_address":"Hauptstraße 82, 12159 Berlin","geometry":{"location":{"lat":52.47275140000001,"lng":13.3371013},"viewport":{"northeast":{"lat":52.47414372989272,"lng":13.33835642989272},"southwest":{"lat":52.47144407010727,"lng":13.33565677010728}}},"icon":"https://maps.gstatic.com/mapfiles/place_api/icons/v1/png_71/restaurant-71.png","icon_background_color":"#FF9E67","icon_mask_base_uri":"https://maps.gstatic.com/mapfiles/place_api/icons/v2/restaurant_pinlet","name":"Sweet Cocos","opening_hours":{"open_now":true},"photos":[{"height":1389,"html_attributions":["<a href=\"https://maps.google.com/maps/contrib/111679379473551294280\">Günther Herrmann</a>"],"photo_reference":"AeJbb3eKdyNcMNNZlLdVFPBcZU-f_pAy2xQjhqcy2Uo5XVZxv_ir1Ul64emc5z0mfgyfDM7bHNvWmVEDSBF6Q0p2R2vCDrbUNSNJteGBK5-Xr4Hwwlpv7mMs3koIfBgAQi5C2iOo7z3oQAqqaxplDvPeS1gBvmTnRmpHyR3hJDmzrg-Vl1Gi","width":2560}],"place_id":"ChIJtQxIfHBQqEcR7sSyQe0us8U","plus_code":{"compound_code":"F8FP+4R Berlin","global_code":"9F4MF8FP+4R"},"price_level":2,"rating":4.5,"reference":"ChIJtQxIfHBQqEcR7sSyQe0us8U","types":["restaurant","food","point_of_interest","establishment"],"user_ratings_total":257},{"business_status":"OPERATIONAL","formatted_address":"Düppelstraße 41, 12163 Berlin","geometry":{"location":{"lat":52.4570568,"lng":13.3223563},"viewport":{"northeast":{"lat":52.45837227989272,"lng":13.32371767989272},"southwest":{"lat":52.45567262010727,"lng":13.32101802010728}}},"icon":"https://maps.gstatic.com/mapfiles/place_api/icons/v1/png_71/restaurant-71.png","icon_background_color":"#FF9E67","icon_mask_base_uri":"https://maps.gstatic.com/mapfiles/place_api/icons/v2/restaurant_pinlet","name":"Thung Thai Restaurant","opening_hours":{"open_now":true},"photos":[{"height":1000,"html_attributions":["<a href=\"https://maps.google.com/maps/contrib/113698229496194620909\">donpai paidon</a>"],"photo_reference":"AeJbb3cT3Tcnxr5DKAYv-IX2FU0pJ9zIpEwKSAZIdiYanN5Kkc11gR4cwqPivK9W2X50qzipzc4D-ba4Wqap_XmZJ1JEWlyg5gLYBHCGCcCudNo5v2XDjmsda249d4TYL-wGhkpGIjci2pSH75sZ9OC4yTGQmBCBKKtMZvtYAsYQx_UZW8YA","width":1500}],"place_id":"ChIJZdTw3rNbqEcR_L_9HLtDlkQ","plus_code":{"compound_code":"F84C+RW Berlin","global_code":"9F4MF84C+RW"},"price_level":2,"rating":4.5,"reference":"ChIJZdTw3rNbqEcR_L_9HLtDlkQ","types":["restaurant","food","point_of_interest","establishment"],"user_ratings_total":239},{"business_status":"OPERATIONAL","formatted_address":"Kaiser-Friedrich-Straße 89, 10585 Berlin","geometry":{"location":{"lat":52.5145817,"lng":13.30134},"viewport":{"northeast":{"lat":52.51592497989273,"lng":13.30256082989272},"southwest":{"lat":52.51322532010728,"lng":13.29986117010728}}},"icon":"https://maps.gstatic.com/mapfiles/place_api/icons/v1/png_71/restaurant-71.png","icon_background_color":"#FF9E67","icon_mask_base_uri":"https://maps.gstatic.com/mapfiles/place_api/icons/v2/restaurant_pinlet","name":"Kien-Du-Kiang-Thong","opening_hours":{"open_now":false},"photos":[{"height":3024,"html_attributions":["<a href=\"https://maps.google.com/maps/contrib/104056991146844844380\">Mirco Di paola</a>"],"photo_reference":"AeJbb3cXXIp3eWuAOto2fbHGMqItk7F_8yTxMWlhtzc8U2PWUpw_VkddO11FIwqjFYk5Zi4Mf3W4dHsL-7X9ptlNEdspgiO3PpVMd4BrdMeyXngjkVsesDgpLD4uadlYnN0LfzhnimSGxizDNQfg3tn9ZhpNHizmN3RMeR4VjDEKv0BWNfl_","width":4032}],"place_id":"ChIJDWxz3CZRqEcRXGDatkETSXw","plus_code":{"compound_code":"G872+RG Berlin","global_code":"9F4MG872+RG"},"price_level":2,"rating":4.5,"reference":"ChIJDWxz3CZRqEcRXGDatkETSXw","types":["restaurant","food","point_of_interest","establishment"],"user_ratings_total":133},{"business_status":"OPERATIONAL","formatted_address":"Hansastraße 69, 13088 Berlin","geometry":{"location":{"lat":52.5497482,"lng":13.4743038},"viewport":{"northeast":{"lat":52.55112882989272,"lng":13.47588442989272},"southwest":{"lat":52.54842917010728,"lng":13.47318477010728}}},"icon":"https://maps.gstatic.com/mapfiles/place_api/icons/v1/png_71/restaurant-71.png","icon_background_color":"#FF9E67","icon_mask_base_uri":"https://maps.gstatic.com/mapfiles/place_api/icons/v2/restaurant_pinlet","name":"Thai Lotus Restaurant","opening_hours":{"open_now":true},"photos":[{"height":3648,"html_attributions":["<a href=\"https://maps.google.com/maps/contrib/111912933499660354132\">A Google User</a>"],"photo_reference":"AeJbb3dpjeZH3R_1J_k0U7SB2dcVwED6_dlDFip5_tmxlXwqHSAExBUNy6wb5dbHnv5KeG2Ohk0VwIAYybV96WD78nvLxfKq6D60lXOMzzaSFzIS6eLxiNC2BRsr5eSVSosDJPBqPQRo-ZS4q99zxmvJSfoIWB64pR21UeR73YavFFUh8F2i","width":2736}],"place_id":"ChIJmdXhmc5NqEcRiA8mzfi5pmU","plus_code":{"compound_code":"GFXF+VP Berlin","global_code":"9F4MGFXF+VP"},"price_level":1,"rating":4.5,"reference":"ChIJmdXhmc5NqEcRiA8mzfi5pmU","types":["restaurant","food","point_of_interest","establishment"],"user_ratings_total":90},{"business_status":"OPERATIONAL","formatted_address":"Dircksenstraße 47, 10178 Berlin","geometry":{"location":{"lat":52.5235723,"lng":13.4048624},"viewport":{"northeast":{"lat":52.52484867989271,"lng":13.40624567989272},"southwest":{"lat":52.52214902010727,"lng":13.40354602010728}}},"icon":"https://maps.gstatic.com/mapfiles/place_api/icons/v1/png_71/restaurant-71.png","icon_background_color":"#FF9E67","icon_mask_base_uri":"https://maps.gstatic.com/mapfiles/place_api/icons/v2/restaurant_pinlet","name":"Sisaket","opening_hours":{"open_now":true},"photos":[{"height":2448,"html_attributions":["<a href=\"https://maps.google.com/maps/contrib/115337668748731101909\">Michael Weiland</a>"],"photo_reference":"AeJbb3dkAGbQGcQ9JWhKsMmXTO4LEHzO5i8wOTqNVNuEgc6w9WJ5bndHubjSQx85_O5-x--JtHvuu2R0_VIh4iHSBV-jBpmAi19B7jmT-U4hVdOHb9z5H7FcNjj1LtA5mQOc1AwR8SZy22ncLWxcITM4_-AA5jr_v1GzA1FAG5gopo1EsxOf","width":2448}],"place_id":"ChIJPVEjtNFRqEcRHU-kiAJW3bk","plus_code":{"compound_code":"GCF3+CW Berlin","global_code":"9F4MGCF3+CW"},"price_level":2,"rating":4.4,"reference":"ChIJPVEjtNFRqEcRHU-kiAJW3bk","types":["restaurant","food","point_of_interest","establishment"],"user_ratings_total":809},{"business_status":"OPERATIONAL","formatted_address":"Sonnenallee 134, 12059 Berlin","geometry":{"location":{"lat":52.4795275,"lng":13.4440589},"viewport":{"northeast":{"lat":52.48090977989271,"lng":13.44545112989272},"southwest":{"lat":52.47821012010727,"lng":13.44275147010728}}},"icon":"https://maps.gstatic.com/mapfiles/place_api/icons/v1/png_71/restaurant-71.png","icon_background_color":"#FF9E67","icon_mask_base_uri":"https://maps.gstatic.com/mapfiles/place_api/icons/v2/restaurant_pinlet","name":"Mae Charoen Thai Imbiss","opening_hours":{"open_now":true},"photos":[{"height":1836,"html_attributions":["<a href=\"https://maps.google.com/maps/contrib/108670420206574481799\">Patrick P</a>"],"photo_reference":"AeJbb3d9E4a7P93mIcNuZWxtOCs1VW2QFidhjz2BMFCWMDqQ90Kac5jjB9WBAp4JHeL-l6OuXY6pjJBW5kbXLqimWT7DCNnqvpWJixv3_u1k3meXvturvTt5RbIBydrDwHuZpYj0PEOvXRcFoVM62_C5uwGiYMG9MPusaj4VE5kkxZWF2M5P","width":3264}],"place_id":"ChIJT3td16ZPqEcRwqrkpicCTMk","plus_code":{"compound_code":"FCHV+RJ Berlin","global_code":"9F4MFCHV+RJ"},"price_level":1,"rating":4.4,"reference":"ChIJT3td16ZPqEcRwqrkpicCTMk","types":["restaurant","food","point_of_interest","establishment"],"user_ratings_total":752},{"business_status":"OPERATIONAL","formatted_address":"Krossener Str. 11, 10245 Berlin","geometry":{"location":{"lat":52.5107063,"lng":13.4580612},"viewport":{"northeast":{"lat":52.51202352989272,"lng":13.45939537989272},"southwest":{"lat":52.50932387010727,"lng":13.45669572010728}}},"icon":"https://maps.gstatic.com/mapfiles/place_api/icons/v1/png_71/restaurant-71.png","icon_background_color":"#FF9E67","icon_mask_base_uri":"https://maps.gstatic.com/mapfiles/place_api/icons/v2/restaurant_pinlet","name":"papaya thai cuisine am boxhagener","opening_hours":{"open_now":true},"photos":[{"height":3120,"html_attributions":["<a href=\"https://maps.google.com/maps/contrib/112506547084030774387\">Sebastian Lück</a>"],"photo_reference":"AeJbb3dR_XLSxszoTOBFs8AK3d7tQnpgKc8rjAfbKtJsQA1A3h-LGwcOJb_s6_2HwRPvNdKxgqPrdvfDTy1rYl_mRN5GUyjx0ieXDVHMYxyUdJdSkHEhonAtO00r7-p9tiBEuPn3356hjIO2NZv4tEPhdGKe4Q5uVTnEw6PVHuWerYY7hUld","width":4160}],"place_id":"ChIJOTQkx15OqEcR4xkt2tIj6Xc","plus_code":{"compound_code":"GF65+76 Berlin","global_code":"9F4MGF65+76"},"price_level":2,"rating":4.4,"reference":"ChIJOTQkx15OqEcR4xkt2tIj6Xc","types":["restaurant","food","point_of_interest","establishment"],"user_ratings_total":641},{"business_status":"OPERATIONAL","formatted_address":"Kantstraße 133, 10625 Berlin","geometry":{"location":{"lat":52.5060468,"lng":13.3150963},"viewport":{"northeast":{"lat":52.50745737989272,"lng":13.31644082989272},"southwest":{"lat":52.50475772010728,"lng":13.31374117010728}}},"icon":"https://maps.gstatic.com/mapfiles/place_api/icons/v1/png_71/restaurant-71.png","icon_background_color":"#FF9E67","icon_mask_base_uri":"https://maps.gstatic.com/mapfiles/place_api/icons/v2/restaurant_pinlet","name":"DAO by Meo Thai-Restaurant","opening_hours":{"open_now":true},"photos":[{"height":3333,"html_attributions":["<a href=\"https://maps.google.com/maps/contrib/100513571698109059719\">100513571698109059719</a>"],"photo_reference":"AeJbb3eQ4vLGYNbtd0Uh7Tl65I1ogsJGm43dTKoZEp3CCvaUU2kW54Xjlmkfiw5qbUZaFtWkl-VCBApW2LSanVb8_fFMQeD5kAgzU27gc9uLcHRc3wR5klH566Q21k8eMzJoTvCLA3G0-dExjl8ALw9Ie5rvcDhNhMDaZVEDmaCmhRcw25hm","width":4574}],"place_id":"ChIJldZa3ONQqEcRGw4riZzQq5w","plus_code":{"compound_code":"G848+C2 Berlin","global_code":"9F4MG848+C2"},"price_level":2,"rating":4.4,"reference":"ChIJldZa3ONQqEcRGw4riZzQq5w","types":["restaurant","food","point_of_interest","establishment"],"user_ratings_total":572},{"business_status":"OPERATIONAL","formatted_address":"Wörther Str. 30, 10405 Berlin","geometry":{"location":{"lat":52.5363889,"lng":13.4197222},"viewport":{"northeast":{"lat":52.53766872989272,"lng":13.42101867989272},"southwest":{"lat":52.53496907010727,"lng":13.41831902010728}}},"icon":"https://maps.gstatic.com/mapfiles/place_api/icons/v1/png_71/restaurant-71.png","icon_background_color":"#FF9E67","icon_mask_base_uri":"https://maps.gstatic.com/mapfiles/place_api/icons/v2/restaurant_pinlet","name":"MaoThai Restaurant","opening_hours":{"open_now":true},"photos":[{"height":2988,"html_attributions":["<a href=\"https://maps.google.com/maps/contrib/102677006996874808236\">Thomas Emmdee</a>"],"photo_reference":"AeJbb3fWTVoBNqSlR_191pFpMWVwbnbY9-7rD4bD8pVhcGOFiOCYLaInH9Sf3dSpZPKtXU1qX7-5d5vjREKfLI2UVq6YsZpbqsgycu-4VKKHaBvtGp3Mv-vLKiTV-v1n7rwGYW008pwJbn-YcYuF0xxb2sGEle_MRbeAJmkTo-2VmOuU1-aJ","width":5312}],"place_id":"ChIJbWg1bwFOqEcRNbDIVGvgYDI","plus_code":{"compound_code":"GCP9+HV Berlin","global_code":"9F4MGCP9+HV"},"price_level":2,"rating":4.4,"reference":"ChIJbWg1bwFOqEcRNbDIVGvgYDI","types":["restaurant","food","point_of_interest","establishment"],"user_ratings_total":499},{"business_status":"OPERATIONAL","formatted_address":"Bergmannstraße 88, 10961 Berlin","geometry":{"location":{"lat":52.4893283,"lng":13.3934464},"viewport":{"northeast":{"lat":52.49059842989272,"lng":13.39475647989272},"southwest":{"lat":52.48789877010728,"lng":13.39205682010728}}},"icon":"https://maps.gstatic.com/mapfiles/place_api/icons/v1/png_71/restaurant-71.png","icon_background_color":"#FF9E67","icon_mask_base_uri":"https://maps.gstatic.com/mapfiles/place_api/icons/v2/restaurant_pinlet","name":"Pagode Thai Kitchen","opening_hours":{"open_now":true},"photos":[{"height":398,"html_attributions":["<a href=\"https://maps.google.com/maps/contrib/111562544764747122296\">Pagode Thai Kitchen</a>"],"photo_reference":"AeJbb3cdHo-1HS5zmgYJ4TbW-XAXmxLOEJxmN-YX3lMz71JVEl-kRsLg3RnDxHZq_cH_uiANrFOftrhm_zW-XsgTbIi5AHqcI5fiNxp4Ikc_3syI7BF-Suz_bUw35ITCYYPOsZuh5d_R1LJmH_ZvPN6MaA52ACbjo0PgVyzF2OBmy6bHGe4f","width":674}],"place_id":"ChIJSZUDPdhPqEcRgkY7H8j2lso","plus_code":{"compound_code":"F9QV+P9 Berlin","global_code":"9F4MF9QV+P9"},"price_level":1,"rating":4.4,"reference":"ChIJSZUDPdhPqEcRgkY7H8j2lso","types":["meal_takeaway","restaurant","food","point_of_interest","establishment"],"user_ratings_total":496},{"business_status":"OPERATIONAL","formatted_address":"Reichsstraße 92, 14052 Berlin","geometry":{"location":{"lat":52.51354070000001,"lng":13.2649471},"viewport":{"northeast":{"lat":52.51495702989273,"lng":13.26626672989272},"southwest":{"lat":52.51225737010729,"lng":13.26356707010728}}},"icon":"https://maps.gstatic.com/mapfiles/place_api/icons/v1/png_71/restaurant-71.png","icon_background_color":"#FF9E67","icon_mask_base_uri":"https://maps.gstatic.com/mapfiles/place_api/icons/v2/restaurant_pinlet","name":"Thai Food Orchidee","opening_hours":{"open_now":true},"photos":[{"height":2160,"html_attributions":["<a href=\"https://maps.google.com/maps/contrib/110982136917048366381\">A Google User</a>"],"photo_reference":"AeJbb3e4jBqx1Ja85_1i126_TwWPvDz5EWlxf1lwMcn1nXpM_ZgBxeEZ_w2CvtzM4nCjidjYrMFcOeYCayS5HqbwfdNuSdNWWoca_mpF0kRWruV2A2DBIscI5F2IZcQe9GFrQ48vN6v1hqaOpmBRHlb-eoowaXRwzbzPxxFVhIYckbdhdPn8","width":3840}],"place_id":"ChIJX4oVeyhXqEcRY68h8GYg1y4","plus_code":{"compound_code":"G777+CX Berlin","global_code":"9F4MG777+CX"},"price_level":1,"rating":4.4,"reference":"ChIJX4oVeyhXqEcRY68h8GYg1y4","types":["restaurant","food","point_of_interest","establishment"],"user_ratings_total":273},{"business_status":"OPERATIONAL","formatted_address":"Schreinerstraße 51, 10247 Berlin","geometry":{"location":{"lat":52.51735739999999,"lng":13.4660288},"viewport":{"northeast":{"lat":52.51864267989273,"lng":13.46737522989272},"southwest":{"lat":52.51594302010729,"lng":13.46467557010728}}},"icon":"https://maps.gstatic.com/mapfiles/place_api/icons/v1/png_71/restaurant-71.png","icon_background_color":"#FF9E67","icon_mask_base_uri":"https://maps.gstatic.com/mapfiles/place_api/icons/v2/restaurant_pinlet","name":"Thai Curry","opening_hours":{"open_now":true},"photos":[{"height":2610,"html_attributions":["<a href=\"https://maps.google.com/maps/contrib/110797656270587558132\">F</a>"],"photo_reference":"AeJbb3dGWhzCDeqBDx3ma5ueW69EIa8gexwUyDL9-aTEN4Vm2baLV_zcwxUCgQIq_3qeP-G7lg_jC-ZKvcSNIvM7t5Yw4MT9kF2V_F55iN-oH9WOHAjj9rohG2TKa3WaHy2GWg4T2l3k3Baet0g9HrS5McQ12D7EfN19J6xnty_3mx4-6yqG","width":4640}],"place_id":"ChIJn9ge0mFOqEcRjRkgnEsbOwE","plus_code":{"compound_code":"GF88+WC Berlin","global_code":"9F4MGF88+WC"},"price_level":1,"rating":4.4,"reference":"ChIJn9ge0mFOqEcRjRkgnEsbOwE","types":["restaurant","food","point_of_interest","establishment"],"user_ratings_total":242},{"business_status":"OPERATIONAL","formatted_address":"Cicerostraße 49, 10709 Berlin","geometry":{"location":{"lat":52.4947239,"lng":13.3017905},"viewport":{"northeast":{"lat":52.49606042989272,"lng":13.30301392989272},"southwest":{"lat":52.49336077010727,"lng":13.30031427010728}}},"icon":"https://maps.gstatic.com/mapfiles/place_api/icons/v1/png_71/restaurant-71.png","icon_background_color":"#FF9E67","icon_mask_base_uri":"https://maps.gstatic.com/mapfiles/place_api/icons/v2/restaurant_pinlet","name":"Pad Thai","opening_hours":{"open_now":true},"photos":[{"height":3456,"html_attributions":["<a href=\"https://maps.google.com/maps/contrib/105726256338694543415\">A Google User</a>"],"photo_reference":"AeJbb3cRtYHCrNNRcMPPwT2ICnJSIdxUzoQKjnJxk4H09Irc2EfqBMAr6You6FGtFg5pePsr_3hqlP5U4YQCl0acdyQloNYcX7gWjc6_c3eE2ABE_zo2zm47ZnadJO-E73CDCDeOh7T0AEYKqxbRs2JTkG3YlOd0DMFsH7SFPJF_A8PKpKbf","width":5184}],"place_id":"ChIJMfUL-VdRqEcRIR4gUb9MzZA","plus_code":{"compound_code":"F8V2+VP Berlin","global_code":"9F4MF8V2+VP"},"price_level":2,"rating":4.4,"reference":"ChIJMfUL-VdRqEcRIR4gUb9MzZA","types":["restaurant","food","point_of_interest","establishment"],"user_ratings_total":210},{"business_status":"OPERATIONAL","formatted_address":"Reichsstraße 3, 14052 Berlin","geometry":{"location":{"lat":52.51073969999999,"lng":13.2706251},"viewport":{"northeast":{"lat":52.51205367989272,"lng":13.27196907989272},"southwest":{"lat":52.50935402010727,"lng":13.26926942010728}}},"icon":"https://maps.gstatic.com/mapfiles/place_api/icons/v1/png_71/restaurant-71.png","icon_background_color":"#FF9E67","icon_mask_base_uri":"https://maps.gstatic.com/mapfiles/place_api/icons/v2/restaurant_pinlet","name":"Mahanakhon Thai Cuisine","opening_hours":{"open_now":true},"photos":[{"height":3024,"html_attributions":["<a href=\"https://maps.google.com/maps/contrib/117826092376544402624\">Jo Billington</a>"],"photo_reference":"AeJbb3fwhRa7hp2qO3cCkUCMMwv5EdysIiyxMRd6gHJV03oP9cOuz0ucMC8EnEDevIkuk82ZRyVA03Rfk2gwHMwfIaeYf-zXpcKLLnK060Dsy0KZRVG31ah0XMO80QMJCFFNlbcR3yCq2bXCwei15lyaCgt4a50hz7riUuQad35jd8hSROof","width":4032}],"place_id":"ChIJMeLkGdpXqEcR2jDpGlmh394","plus_code":{"compound_code":"G76C+86 Berlin","global_code":"9F4MG76C+86"},"rating":4.4,"reference":"ChIJMeLkGdpXqEcR2jDpGlmh394","types":["restaurant","food","point_of_interest","establishment"],"user_ratings_total":152},{"business_status":"OPERATIONAL","formatted_address":"Teltower Damm 33, 14169 Berlin","geometry":{"location":{"lat":52.4318724,"lng":13.2595835},"viewport":{"northeast":{"lat":52.43317657989272,"lng":13.26089062989272},"southwest":{"lat":52.43047692010727,"lng":13.25819097010728}}},"icon":"https://maps.gstatic.com/mapfiles/place_api/icons/v1/png_71/restaurant-71.png","icon_background_color":"#FF9E67","icon_mask_base_uri":"https://maps.gstatic.com/mapfiles/place_api/icons/v2/restaurant_pinlet","name":"Koh Phai 33 - asiatisches Restaurant","opening_hours":{"open_now":true},"photos":[{"height":2084,"html_attributions":["<a href=\"https://maps.google.com/maps/contrib/102315762249162067957\">Ebert Artur</a>"],"photo_reference":"AeJbb3fFI21Ld9MBrUS_-iQ6tTUiRcrEUnFHDT_KEONbujODDKrGWZBpcU-Hga0HqbJSYVTYtMnQ2TCleCHjXatXF32sp6JARwzZXCHnwJOeEdGbsq_QCJm2PdaLactjvZIeK239obo9BKKZpD8YnUosvs57ce34ooZx0xVzh3-naJ2h4tz8","width":4624}],"place_id":"ChIJ_21KATNaqEcRyNS35iwlWY0","plus_code":{"compound_code":"C7J5+PR Berlin","global_code":"9F4MC7J5+PR"},"price_level":1,"rating":4.4,"reference":"ChIJ_21KATNaqEcRyNS35iwlWY0","types":["restaurant","food","point_of_interest","establishment"],"user_ratings_total":149},{"business_status":"OPERATIONAL","formatted_address":"Christstraße 32a, 14059 Berlin","geometry":{"location":{"lat":52.5165961,"lng":13.290781},"viewport":{"northeast":{"lat":52.51795302989272,"lng":13.29214367989272},"southwest":{"lat":52.51525337010727,"lng":13.28944402010728}}},"icon":"https://maps.gstatic.com/mapfiles/place_api/icons/v1/png_71/restaurant-71.png","icon_background_color":"#FF9E67","icon_mask_base_uri":"https://maps.gstatic.com/mapfiles/place_api/icons/v2/restaurant_pinlet","name":"New Asia Food","opening_hours":{"open_now":true},"photos":[{"height":4128,"html_attributions":["<a href=\"https://maps.google.com/maps/contrib/110475856073328164701\">Frosch Murmeltier</a>"],"photo_reference":"AeJbb3cQQ3hrAFQ0JZPYNrkwBNzECnKmh_j6evgiJ6wVLvAQ-ODcgJhRAXrRxIGCgflweaE6h8KODU4cez9P6cFDCSnN8vusXObDNiCkBTho2708YHaqy9X1PHDMMOJ-YOIsoVUm4mC85GWCWG0laiWC1Iqx1glu8s2GxTYFKweXDgISISVg","width":3096}],"place_id":"ChIJ-3wgta9RqEcRCLoR5mNXG_0","plus_code":{"compound_code":"G78R+J8 Berlin","global_code":"9F4MG78R+J8"},"rating":4.4,"reference":"ChIJ-3wgta9RqEcRCLoR5mNXG_0","types":["restaurant","food","point_of_interest","establishment"],"user_ratings_total":23},{"business_status":"OPERATIONAL","formatted_address":"Feuerbachstraße 16, 12163 Berlin","geometry":{"location":{"lat":52.4631502,"lng":13.328954},"viewport":{"northeast":{"lat":52.46456917989272,"lng":13.33026707989272},"southwest":{"lat":52.46186952010728,"lng":13.32756742010728}}},"icon":"https://maps.gstatic.com/mapfiles/place_api/icons/v1/png_71/restaurant-71.png","icon_background_color":"#FF9E67","icon_mask_base_uri":"https://maps.gstatic.com/mapfiles/place_api/icons/v2/restaurant_pinlet","name":"Mai Phai","opening_hours":{"open_now":true},"photos":[{"height":2976,"html_attributions":["<a href=\"https://maps.google.com/maps/contrib/104681437323886140003\">Madleen Viol</a>"],"photo_reference":"AeJbb3f2nd-5l_QZ_Fwr_E7QU-HQkAyeyJlH3TcsRwsDTiKQt17tmu3VYIDzI51-4jEVkRYoTo-c3avMGQYLgNnln0HMRZKwTLSVB4_NrEsPYf8VZdlay-72nK4fUS4oBbQWj_RXDUH3Wpfudp_oC6UhICpR1MF1y62cfqX5qM1kNDragjCd","width":3968}],"place_id":"ChIJfbrN84JaqEcR9Cy_BH_Kr_0","plus_code":{"compound_code":"F87H+7H Berlin","global_code":"9F4MF87H+7H"},"price_level":2,"rating":4.3,"reference":"ChIJfbrN84JaqEcR9Cy_BH_Kr_0","types":["restaurant","food","point_of_interest","establishment"],"user_ratings_total":683},{"business_status":"OPERATIONAL","formatted_address":"Winterfeldtstraße 42, 10781 Berlin","geometry":{"location":{"lat":52.4972423,"lng":13.3539745},"viewport":{"northeast":{"lat":52.49867632989272,"lng":13.35556647989272},"southwest":{"lat":52.49597667010728,"lng":13.35286682010728}}},"icon":"https://maps.gstatic.com/mapfiles/place_api/icons/v1/png_71/restaurant-71.png","icon_background_color":"#FF9E67","icon_mask_base_uri":"https://maps.gstatic.com/mapfiles/place_api/icons/v2/restaurant_pinlet","name":"Papaya am Winterfeldtplatz","opening_hours":{"open_now":true},"photos":[{"height":2988,"html_attributions":["<a href=\"https://maps.google.com/maps/contrib/100314518732833115568\">Maike M</a>"],"photo_reference":"AeJbb3cr82tAXfZf5mVMFYvWyEwG2SRc_tYEJFDgbP6ITlH_xOvJfjuEtHcmIYmgMe7Jc_hIQN0bu2QSqTzAPZoFVBa4xwRuF6gBiRCKM2sbnekdvLitdabJ_5CEsVeZn8eJOX1pZEoI3mQABxBvnHiZL-_Ta70zb0gshYih42BSb6nisI41","width":5312}],"place_id":"ChIJdVAoHE9QqEcRT1azafbAFiI","plus_code":{"compound_code":"F9W3+VH Berlin","global_code":"9F4MF9W3+VH"},"price_level":1,"rating":4.3,"reference":"ChIJdVAoHE9QqEcRT1azafbAFiI","types":["restaurant","food","point_of_interest","establishment"],"user_ratings_total":423},{"business_status":"OPERATIONAL","formatted_address":"Südstern 14, 10961 Berlin","geometry":{"location":{"lat":52.4886227,"lng":13.40735},"viewport":{"northeast":{"lat":52.48998442989272,"lng":13.40872922989272},"southwest":{"lat":52.48728477010727,"lng":13.40602957010728}}},"icon":"https://maps.gstatic.com/mapfiles/place_api/icons/v1/png_71/restaurant-71.png","icon_background_color":"#FF9E67","icon_mask_base_uri":"https://maps.gstatic.com/mapfiles/place_api/icons/v2/restaurant_pinlet","name":"Kinnaree Thai","opening_hours":{"open_now":true},"photos":[{"height":2756,"html_attributions":["<a href=\"https://maps.google.com/maps/contrib/101019828633461689839\">Kinnaree Thai</a>"],"photo_reference":"AeJbb3eMkbXT-yM7zUpdofH97f1pteEF2IbhlPlKgcQJLTn8MLC6r2gV_OdWB6y0MfCwtEK1RtD36SmbC5MoQXLEc9eplj3OtVyD4NjHFCmtNGuuHxIH5w4Wi0BlWINKqWIOEKejsfYli7ylgOZ4KFaFD4LS6iLZ-8dD0ZsQ3XriH5F7Qhe_","width":4134}],"place_id":"ChIJ8w9e989PqEcRtkv4AyiV0Y4","plus_code":{"compound_code":"FCQ4+CW Berlin","global_code":"9F4MFCQ4+CW"},"price_level":2,"rating":4.3,"reference":"ChIJ8w9e989PqEcRtkv4AyiV0Y4","types":["restaurant","food","point_of_interest","establishment"],"user_ratings_total":394},{"business_status":"OPERATIONAL","formatted_address":"Oranienburger Str. 69, 10117 Berlin","geometry":{"location":{"lat":52.524933,"lng":13.392456},"viewport":{"northeast":{"lat":52.52634122989272,"lng":13.39388682989272},"southwest":{"lat":52.52364157010727,"lng":13.39118717010728}}},"icon":"https://maps.gstatic.com/mapfiles/place_api/icons/v1/png_71/restaurant-71.png","icon_background_color":"#FF9E67","icon_mask_base_uri":"https://maps.gstatic.com/mapfiles/place_api/icons/v2/restaurant_pinlet","name":"Kamala","opening_hours":{"open_now":true},"photos":[{"height":2268,"html_attributions":["<a href=\"https://maps.google.com/maps/contrib/106981894115204690863\">A Google User</a>"],"photo_reference":"AeJbb3cRVabvSdwviEVpbBPHGnkH5DSFrD0KA97ubl2SKoaaMeZ74bhMcaoU9v3Yq6ERkIwcll0KOX-D-kIXBCI9gmFN3e6SKF8sqylPSVB4CjbKcwKyRj-t1ddfwZMH-woKwRGeAK6_0Y6zciV2GoKHxC89L-eyYB5bgy9AY5mR2qS9xyB7","width":4032}],"place_id":"ChIJm1eQXuhRqEcRVlMxToT7xlk","plus_code":{"compound_code":"G9FR+XX Berlin","global_code":"9F4MG9FR+XX"},"price_level":2,"rating":4.3,"reference":"ChIJm1eQXuhRqEcRVlMxToT7xlk","types":["restaurant","food","point_of_interest","establishment"],"user_ratings_total":354},{"business_status":"OPERATIONAL","formatted_address":"Kantstraße 134, 10625 Berlin","geometry":{"location":{"lat":52.50603,"lng":13.3156308},"viewport":{"northeast":{"lat":52.50742682989272,"lng":13.31706992989272},"southwest":{"lat":52.50472717010727,"lng":13.31437027010728}}},"icon":"https://maps.gstatic.com/mapfiles/place_api/icons/v1/png_71/restaurant-71.png","icon_background_color":"#FF9E67","icon_mask_base_uri":"https://maps.gstatic.com/mapfiles/place_api/icons/v2/restaurant_pinlet","name":"Sawaddie Thai Food","opening_hours":{"open_now":true},"photos":[{"height":4032,"html_attributions":["<a href=\"https://maps.google.com/maps/contrib/102785929839699407629\">Ivan Prgic</a>"],"photo_reference":"AeJbb3f-PnqSSeIi8HDc5JKPk6QeG6m_AFzhUYK1A9s24aouiJDQaqe_hD4cm0EjdV5kgX_Mvt3aS3AsdjX8BwVV2_p7cp0mZj0qEU7GBF7z6NlmmTaRu8aHgW5srpVFm71Agfmfm543ECE20YRsNnFfXM4KqQ5vV8MWNd5037VHWrCDznro","width":2268}],"place_id":"ChIJb7u3Fh5OqEcR3zzAOwQO1K4","plus_code":{"compound_code":"G848+C7 Berlin","global_code":"9F4MG848+C7"},"price_level":2,"rating":4.3,"reference":"ChIJb7u3Fh5OqEcR3zzAOwQO1K4","types":["restaurant","food","point_of_interest","establishment"],"user_ratings_total":305},{"business_status":"OPERATIONAL","formatted_address":"Knaackstraße 22, 10405 Berlin","geometry":{"location":{"lat":52.534814,"lng":13.4188597},"viewport":{"northeast":{"lat":52.53612732989273,"lng":13.42020232989272},"southwest":{"lat":52.53342767010729,"lng":13.41750267010728}}},"icon":"https://maps.gstatic.com/mapfiles/place_api/icons/v1/png_71/restaurant-71.png","icon_background_color":"#FF9E67","icon_mask_base_uri":"https://maps.gstatic.com/mapfiles/place_api/icons/v2/restaurant_pinlet","name":"Bangkok Bites","opening_hours":{"open_now":true},"photos":[{"height":1600,"html_attributions":["<a href=\"https://maps.google.com/maps/contrib/116915587819415944094\">A Google User</a>"],"photo_reference":"AeJbb3cgRau-tuNGCphkmq1yuv31Wtu-WtAESxTMDnuE6GDxV5gBUH_-sUJLISNayyUr6Vy2apWdepFX2_wkFzlayfv20vbom9K7bbIUpswMGduVE9_LsBBk3R0wEk343UZqHNptdlvwriOn0q8sbHMtWjKOiVdCd9DUFnxN8rKMXeWrAM__","width":1200}],"place_id":"ChIJL9-SxHlPqEcRZH4TfMH0Tl0","plus_code":{"compound_code":"GCM9+WG Berlin","global_code":"9F4MGCM9+WG"},"rating":4.3,"reference":"ChIJL9-SxHlPqEcRZH4TfMH0Tl0","types":["restaurant","food","point_of_interest","establishment"],"user_ratings_total":292},{"business_status":"OPERATIONAL","formatted_address":"Muthesiusstraße 38, 12163 Berlin","geometry":{"location":{"lat":52.46032109999999,"lng":13.3175282},"viewport":{"northeast":{"lat":52.46158842989272,"lng":13.31879942989272},"southwest":{"lat":52.45888877010728,"lng":13.31609977010728}}},"icon":"https://maps.gstatic.com/mapfiles/place_api/icons/v1/png_71/restaurant-71.png","icon_background_color":"#FF9E67","icon_mask_base_uri":"https://maps.gstatic.com/mapfiles/place_api/icons/v2/restaurant_pinlet","name":"Dokmai Thai Restaurant - Bringdienst - Berlin","opening_hours":{"open_now":false},"photos":[{"height":2322,"html_attributions":["<a href=\"https://maps.google.com/maps/contrib/104176766184582996581\">Sven Plura</a>"],"photo_reference":"AeJbb3cZpooQyI4sfTL2sVH_CpWE2NO7cuLb7O0MHjNs9b-KvC2QTA3UORP2enZV7AL7SqV5knr_wYrIeAQz-XlOZaZXpn-2_Ib4x3irUxCmidSKkeA3efeUrNOT92iOiFWoLbcLqW1J4vtKtnCTsCvF9EeqtUAmCcH7j0pNkvmtBtY6CfLA","width":4128}],"place_id":"ChIJPZG-NodaqEcRFSyFqMx1L1w","plus_code":{"compound_code":"F869+42 Berlin","global_code":"9F4MF869+42"},"price_level":2,"rating":4.3,"reference":"ChIJPZG-NodaqEcRFSyFqMx1L1w","types":["meal_takeaway","meal_delivery","restaurant","food","point_of_interest","establishment"],"user_ratings_total":254},{"business_status":"OPERATIONAL","formatted_address":"Alt-Moabit 112, 10559 Berlin","geometry":{"location":{"lat":52.5239631,"lng":13.351944},"viewport":{"northeast":{"lat":52.52541987989272,"lng":13.35331717989272},"southwest":{"lat":52.52272022010727,"lng":13.35061752010728}}},"icon":"https://maps.gstatic.com/mapfiles/place_api/icons/v1/png_71/restaurant-71.png","icon_background_color":"#FF9E67","icon_mask_base_uri":"https://maps.gstatic.com/mapfiles/place_api/icons/v2/restaurant_pinlet","name":"Smile Moabit - authentic thai food","opening_hours":{"open_now":true},"photos":[{"height":4000,"html_attributions":["<a href=\"https://maps.google.com/maps/contrib/109006466982540978376\">A Google User</a>"],"photo_reference":"AeJbb3e5XSG9zxXeMmzwUqD46Glhx4B42gUFXYL0iEl2Lz1ghiMi9kpzTk_2HG_ORL5XtpZy-K4ug6ynki3Pxn0UQHzpPvZTcMzYWaeouNirrPAVzQpmIj0HcdrctrT1ZzX7mBRbgSBHL9fH7eGsww34dKLxis2md6-jCahC2tBJrwf7bEvi","width":6000}],"place_id":"ChIJd9My86hRqEcRJXYPT_eQRiU","plus_code":{"compound_code":"G9F2+HQ Berlin","global_code":"9F4MG9F2+HQ"},"rating":4.3,"reference":"ChIJd9My86hRqEcRJXYPT_eQRiU","types":["meal_takeaway","restaurant","food","point_of_interest","establishment"],"user_ratings_total":108},{"business_status":"OPERATIONAL","formatted_address":"Ansbacher Str. 26, 10789 Berlin","geometry":{"location":{"lat":52.5017669,"lng":13.3410828},"viewport":{"northeast":{"lat":52.50323572989272,"lng":13.34204557989272},"southwest":{"lat":52.50053607010727,"lng":13.33934592010728}}},"icon":"https://maps.gstatic.com/mapfiles/place_api/icons/v1/png_71/restaurant-71.png","icon_background_color":"#FF9E67","icon_mask_base_uri":"https://maps.gstatic.com/mapfiles/place_api/icons/v2/restaurant_pinlet","name":"Papaya Royal Thai Cuisine (KaDeWe)","opening_hours":{"open_now":true},"photos":[{"height":3024,"html_attributions":["<a href=\"https://maps.google.com/maps/contrib/114822255494975986941\">Sammi Chih</a>"],"photo_reference":"AeJbb3eOfrwTdQIP7a6CM3TeD8bZSlqyfqtFKl7HyJ_10DyERHy9r_t7oYWsEg4pre_K4wVa-zTnTgAZ4aCQg0xd7iaC7v3i-UVAFnxUGOpfeUfLEnSlPZmdNKHPfV7YeNFVJ6sUhS97i0xw6yqebY52JSy78Kbxc_ZCfaOHT3Ys5hjYEXj7","width":4032}],"place_id":"ChIJuQzNoVZQqEcRz_55HKmMz4U","plus_code":{"compound_code":"G82R+PC Berlin","global_code":"9F4MG82R+PC"},"rating":4.3,"reference":"ChIJuQzNoVZQqEcRz_55HKmMz4U","types":["restaurant","food","point_of_interest","establishment"],"user_ratings_total":55},{"business_status":"OPERATIONAL","formatted_address":"Hausvogteipl. 11, 10117 Berlin","geometry":{"location":{"lat":52.512539,"lng":13.3968225},"viewport":{"northeast":{"lat":52.51405322989272,"lng":13.39810217989272},"southwest":{"lat":52.51135357010728,"lng":13.39540252010728}}},"icon":"https://maps.gstatic.com/mapfiles/place_api/icons/v1/png_71/restaurant-71.png","icon_background_color":"#FF9E67","icon_mask_base_uri":"https://maps.gstatic.com/mapfiles/place_api/icons/v2/restaurant_pinlet","name":"Good Time Restaurant","opening_hours":{"open_now":true},"photos":[{"height":2268,"html_attributions":["<a href=\"https://maps.google.com/maps/contrib/116104589548826032312\">Daniel Markefka</a>"],"photo_reference":"AeJbb3foDf3RfVTcMgCOhVATRgCg_7bofb7UfF7vkQ1mgt3FBsagIMw0G7oZ_2VqPJ8-ETBY5Ix_pMEQWw9fjJsX4VsbI0gyNhM5apjYshMm_YXQXLiYmRaJGo-tMC84eDxa117yqNH1GB7hiLr6KZ0afxhZTAV9cA8-1u02P0BL5F-fcf7c","width":4032}],"place_id":"ChIJt7AEwNlRqEcRuxBAg1UoLHQ","plus_code":{"compound_code":"G97W+2P Berlin","global_code":"9F4MG97W+2P"},"price_level":2,"rating":4.2,"reference":"ChIJt7AEwNlRqEcRuxBAg1UoLHQ","types":["restaurant","food","point_of_interest","establishment"],"user_ratings_total":1678},{"business_status":"OPERATIONAL","formatted_address":"Simon-Dach-Straße 2, 10245 Berlin","geometry":{"location":{"lat":52.5125013,"lng":13.4571319},"viewport":{"northeast":{"lat":52.51381392989271,"lng":13.45864857989272},"southwest":{"lat":52.51111427010727,"lng":13.45594892010728}}},"icon":"https://maps.gstatic.com/mapfiles/place_api/icons/v1/png_71/restaurant-71.png","icon_background_color":"#FF9E67","icon_mask_base_uri":"https://maps.gstatic.com/mapfiles/place_api/icons/v2/restaurant_pinlet","name":"Lemongrass","opening_hours":{"open_now":true},"photos":[{"height":2304,"html_attributions":["<a href=\"https://maps.google.com/maps/contrib/105068131614729196436\">Florian Erbach</a>"],"photo_reference":"AeJbb3dCF2pcBsxQrJzW_Jsh6vK7EzLK7UmfuMjzwIXoXkYMZE_h0ugz5iPg-annXXjAmXm5EGJf4FXcDU5vfqQ7qb0qw85Uu99YAFymUbV8l4_FsNrgYDC-xfKn4ecONlGSsdfrndmDlJ8VrzwvsbqqBhvDM5eZ0fb69c5fUELWROh-sEL7","width":4096}],"place_id":"ChIJ4WacgF5OqEcREmhv4K5Cm9c","plus_code":{"compound_code":"GF64+XV Berlin","global_code":"9F4MGF64+XV"},"price_level":2,"rating":4.2,"reference":"ChIJ4WacgF5OqEcREmhv4K5Cm9c","types":["restaurant","food","point_of_interest","establishment"],"user_ratings_total":1201},{"business_status":"OPERATIONAL","formatted_address":"Ansbacher Str. 4, 10787 Berlin","geometry":{"location":{"lat":52.5043399,"lng":13.3424447},"viewport":{"northeast":{"lat":52.50569632989271,"lng":13.34396002989272},"southwest":{"lat":52.50299667010727,"lng":13.34126037010728}}},"icon":"https://maps.gstatic.com/mapfiles/place_api/icons/v1/png_71/restaurant-71.png","icon_background_color":"#FF9E67","icon_mask_base_uri":"https://maps.gstatic.com/mapfiles/place_api/icons/v2/restaurant_pinlet","name":"Suksan","opening_hours":{"open_now":true},"photos":[{"height":2988,"html_attributions":["<a href=\"https://maps.google.com/maps/contrib/112027240338437081662\">John Alex Hvidlykke</a>"],"photo_reference":"AeJbb3dTKc6U-kkL-sCcZuStETrGsIDBQwwPfKr3n6ra3W7h6zh9tjxtWEKjE0-07EhpMOqwznSCtaPPsB0EU7Tmwn3LfNXYEKML6126Tq1NSTDS58u35aKYmtcpI17VWfNOYBVt9IMcjvfEfHboUOdVDK4YvpGvJq2HnAf-kXIP-AWNLaoI","width":5312}],"place_id":"ChIJ4z2z9FRQqEcRb6XRKa2v4_w","plus_code":{"compound_code":"G83R+PX Berlin","global_code":"9F4MG83R+PX"},"price_level":2,"rating":4.2,"reference":"ChIJ4z2z9FRQqEcRb6XRKa2v4_w","types":["bar","restaurant","food","point_of_interest","establishment"],"user_ratings_total":890},{"business_status":"OPERATIONAL","formatted_address":"Dircksenstraße 40, 10178 Berlin","geometry":{"location":{"lat":52.5235406,"lng":13.4070642},"viewport":{"northeast":{"lat":52.52488292989272,"lng":13.40851017989272},"southwest":{"lat":52.52218327010727,"lng":13.40581052010728}}},"icon":"https://maps.gstatic.com/mapfiles/place_api/icons/v1/png_71/restaurant-71.png","icon_background_color":"#FF9E67","icon_mask_base_uri":"https://maps.gstatic.com/mapfiles/place_api/icons/v2/restaurant_pinlet","name":"Tuans Hütte Thai u. Sushi","opening_hours":{"open_now":true},"photos":[{"height":3264,"html_attributions":["<a href=\"https://maps.google.com/maps/contrib/113150371426069457546\">Jędrzej Kamiński</a>"],"photo_reference":"AeJbb3ejl8WyOmUphPEheeyAblngaR-qssP8R6lSr9kQawb5g1QZee50efYndY18Q-fZVIjrBwwaf3yFdtZuSWxZ2ZrPoCAV9bKRFxs_D3xp8HhtSFMo8KrBlu2MSaNh2f0zTc8hbMridFDQspZPF91wfZRwtTYP8ZNQdrYeFFPLmUetYTkT","width":4896}],"place_id":"ChIJ1zUeNOBRqEcR3KFIDPHd630","plus_code":{"compound_code":"GCF4+CR Berlin","global_code":"9F4MGCF4+CR"},"price_level":2,"rating":4.2,"reference":"ChIJ1zUeNOBRqEcR3KFIDPHd630","types":["restaurant","food","point_of_interest","establishment"],"user_ratings_total":798},{"business_status":"OPERATIONAL","formatted_address":"Fasanenstraße 15, 10623 Berlin","geometry":{"location":{"lat":52.5044759,"lng":13.3274366},"viewport":{"northeast":{"lat":52.50581902989271,"lng":13.32890077989272},"southwest":{"lat":52.50311937010727,"lng":13.32620112010728}}},"icon":"https://maps.gstatic.com/mapfiles/place_api/icons/v1/png_71/restaurant-71.png","icon_background_color":"#FF9E67","icon_mask_base_uri":"https://maps.gstatic.com/mapfiles/place_api/icons/v2/restaurant_pinlet","name":"Thai Restaurant Elephant","opening_hours":{"open_now":true},"photos":[{"height":2988,"html_attributions":["<a href=\"https://maps.google.com/maps/contrib/115382860268523556780\">Ohne Ende</a>"],"photo_reference":"AeJbb3eCOxd9ataAoSOjffDb6COZ-8h6PQOn2KuTktifNI1yX_nI14RCdxqovbbwL-mI48FW7f9f5V5fMo8jFUZ_EJauyv5UCBdX6h95eleZ-m50qLy6pFAXe-SxMR-RmK24Q9IgwiEGhnvNLvTRrhStFFXyyWEGW-0hc-D-2pQcXg_foeAD","width":5312}],"place_id":"ChIJ6cr-PfxQqEcRzvNqXmHPRjo","plus_code":{"compound_code":"G83G+QX Berlin","global_code":"9F4MG83G+QX"},"price_level":2,"rating":4.2,"reference":"ChIJ6cr-PfxQqEcRzvNqXmHPRjo","types":["restaurant","food","point_of_interest","establishment"],"user_ratings_total":469},{"business_status":"OPERATIONAL","formatted_address":"Ahornstraße 32, 12163 Berlin","geometry":{"location":{"lat":52.4604315,"lng":13.3231189},"viewport":{"northeast":{"lat":52.46189087989272,"lng":13.32439957989272},"southwest":{"lat":52.45919122010728,"lng":13.32169992010728}}},"icon":"https://maps.gstatic.com/mapfiles/place_api/icons/v1/png_71/restaurant-71.png","icon_background_color":"#FF9E67","icon_mask_base_uri":"https://maps.gstatic.com/mapfiles/place_api/icons/v2/restaurant_pinlet","name":"Sida","opening_hours":{"open_now":true},"photos":[{"height":2314,"html_attributions":["<a href=\"https://maps.google.com/maps/contrib/112975615921856871390\">Sebastian Gläsel</a>"],"photo_reference":"AeJbb3cWLZeQz_Iyv3MvxU0Tlc5ZKSkLqpLEY3ESvyZgbgT1dItbp12eqwRtadm9DtaMmWOkwpLUj0wbtLj4xomXGXuAhCAR28JbZuDiVhpwrcTC3OKNp1Yoh-Uh1zbydxe8qPtZpb3LNmI3fhrKQ-xnlLW87BFvlNUZnFsdb3zA2K2-5nIk","width":3340}],"place_id":"ChIJw34l-oNaqEcRFO-xPq5L4_k","plus_code":{"compound_code":"F86F+56 Berlin","global_code":"9F4MF86F+56"},"price_level":2,"rating":4.2,"reference":"ChIJw34l-oNaqEcRFO-xPq5L4_k","types":["restaurant","food","point_of_interest","establishment"],"user_ratings_total":275},{"business_status":"OPERATIONAL","formatted_address":"Kaiser-Friedrich-Straße 41, 10627 Berlin","geometry":{"location":{"lat":52.5089748,"lng":13.3016395},"viewport":{"northeast":{"lat":52.51029882989273,"lng":13.30309577989272},"southwest":{"lat":52.50759917010728,"lng":13.30039612010728}}},"icon":"https://maps.gstatic.com/mapfiles/place_api/icons/v1/png_71/restaurant-71.png","icon_background_color":"#FF9E67","icon_mask_base_uri":"https://maps.gstatic.com/mapfiles/place_api/icons/v2/restaurant_pinlet","name":"Samakki Talad Thai","opening_hours":{"open_now":true},"photos":[{"height":1536,"html_attributions":["<a href=\"https://maps.google.com/maps/contrib/116047042376324477519\">Benyapa Kaewmee</a>"],"photo_reference":"AeJbb3d-e9bw_VALSENe6md4rpyJ-5MneEocMx_A97L7_2sV6OTE5iy7fSDLUD7aOTd5bHxJIwYppwfZealjRDoo5lgYEuk398VsLE4CqND2VtMl8Qn4Q5zgx6qr_-bN5NxrcjPXEdI9BAO8fKDxjwKQ65x3SIzz2PD0Y2Vumrjn67vYNjcg","width":2304}],"place_id":"ChIJ346qKd9QqEcR8xxSZGQy6PY","plus_code":{"compound_code":"G852+HM Berlin","global_code":"9F4MG852+HM"},"price_level":1,"rating":4.2,"reference":"ChIJ346qKd9QqEcR8xxSZGQy6PY","types":["restaurant","food","point_of_interest","establishment"],"user_ratings_total":209},{"business_status":"OPERATIONAL","formatted_address":"Hohenzollernpl 7-8, 14129 Berlin","geometry":{"location":{"lat":52.4305338,"lng":13.1935385},"viewport":{"northeast":{"lat":52.43192932989272,"lng":13.19500112989272},"southwest":{"lat":52.42922967010728,"lng":13.19230147010728}}},"icon":"https://maps.gstatic.com/mapfiles/place_api/icons/v1/png_71/restaurant-71.png","icon_background_color":"#FF9E67","icon_mask_base_uri":"https://maps.gstatic.com/mapfiles/place_api/icons/v2/restaurant_pinlet","name":"thai hang","opening_hours":{"open_now":true},"photos":[{"height":4032,"html_attributions":["<a href=\"https://maps.google.com/maps/contrib/118086898362855343595\">Julian Albrecht</a>"],"photo_reference":"AeJbb3dcw12wVlQ68RNr7I_tuaacpqIKh_opZR_LClwRtJIul9zaPSCkv7NpsQBR-95QkvuBmH26KPXIQUIEYqpH2LvHCTtdSGhz2A3v0kV02foNFTUxri3mUaHG_TqntWra0nuAbSHFSzp6RgPP_t9_SApQe-66pXkgiW7Uwe2J7fVantuS","width":3024}],"place_id":"ChIJ01rdWg9ZqEcR-hweZpJfl1U","plus_code":{"compound_code":"C5JV+6C Berlin","global_code":"9F4MC5JV+6C"},"price_level":1,"rating":4.2,"reference":"ChIJ01rdWg9ZqEcR-hweZpJfl1U","types":["restaurant","food","point_of_interest","establishment"],"user_ratings_total":103},{"business_status":"OPERATIONAL","formatted_address":"Prenzlauer Allee 226, 10405 Berlin","geometry":{"location":{"lat":52.5334138,"lng":13.4204015},"viewport":{"northeast":{"lat":52.53471737989272,"lng":13.42185517989272},"southwest":{"lat":52.53201772010728,"lng":13.41915552010728}}},"icon":"https://maps.gstatic.com/mapfiles/place_api/icons/v1/png_71/restaurant-71.png","icon_background_color":"#FF9E67","icon_mask_base_uri":"https://maps.gstatic.com/mapfiles/place_api/icons/v2/restaurant_pinlet","name":"Linh Thai Snack","opening_hours":{"open_now":true},"photos":[{"height":3000,"html_attributions":["<a href=\"https://maps.google.com/maps/contrib/100920691169342024140\">Fernando Veiga</a>"],"photo_reference":"AeJbb3cot61YmaZS00vAfHQZmIYPc6cdjkoreO8JpcIkQ_ILKtHdOcnmf6C-WHI5zf4Zy9J8TjCXF64Osrav4lcqh6Y4dFMxH36hwTzzCEmGAb12CxsHos25oCEaQ_JAgw4fof1ZVx4jDKOoL7xqf07b48tJV3m04GDv83CutWQKHJKe0kID","width":3000}],"place_id":"ChIJzfIkgQNOqEcR2a0zbBGr-to","plus_code":{"compound_code":"GCMC+95 Berlin","global_code":"9F4MGCMC+95"},"price_level":1,"rating":4.2,"reference":"ChIJzfIkgQNOqEcR2a0zbBGr-to","types":["restaurant","food","point_of_interest","establishment"],"user_ratings_total":101},{"business_status":"OPERATIONAL","formatted_address":"Hufelandstraße 10, 10407 Berlin","geometry":{"location":{"lat":52.5323173,"lng":13.4306803},"viewport":{"northeast":{"lat":52.53368042989272,"lng":13.43204537989272},"southwest":{"lat":52.53098077010728,"lng":13.42934572010727}}},"icon":"https://maps.gstatic.com/mapfiles/place_api/icons/v1/png_71/restaurant-71.png","icon_background_color":"#FF9E67","icon_mask_base_uri":"https://maps.gstatic.com/mapfiles/place_api/icons/v2/restaurant_pinlet","name":"Thaipagode","opening_hours":{"open_now":true},"photos":[{"height":2610,"html_attributions":["<a href=\"https://maps.google.com/maps/contrib/105594615591055212377\">Hans-Christian Höpcke</a>"],"photo_reference":"AeJbb3e8vvI4GBsxTkWmohvTkI6MZcuZTtDIQbodooqSt6OmTW0PpexXgJxP02H5MQcatvffkI_iK8FE0LD_gmRrFPoM7yayyzoR8CXAf7CFqoM9iaeeDdjoa3T2wMzf2Ld9qGCWEno3okdhFeGrFcgQDXyJHC1jkIELwlgGHO3dLJOwMcTT","width":4640}],"place_id":"ChIJ1-e9CQ9OqEcRR_ZRcIubdnM","plus_code":{"compound_code":"GCJJ+V6 Berlin","global_code":"9F4MGCJJ+V6"},"price_level":1,"rating":4.1,"reference":"ChIJ1-e9CQ9OqEcRR_ZRcIubdnM","types":["restaurant","food","point_of_interest","establishment"],"user_ratings_total":70},{"business_status":"OPERATIONAL","formatted_address":"Luisenstraße 14, 10117 Berlin","geometry":{"location":{"lat":52.52338839999999,"lng":13.3793534},"viewport":{"northeast":{"lat":52.52473517989272,"lng":13.38076662989272},"southwest":{"lat":52.52203552010728,"lng":13.37806697010728}}},"icon":"https://maps.gstatic.com/mapfiles/place_api/icons/v1/png_71/restaurant-71.png","icon_background_color":"#FF9E67","icon_mask_base_uri":"https://maps.gstatic.com/mapfiles/place_api/icons/v2/restaurant_pinlet","name":"Thai Tasty","opening_hours":{"open_now":false},"photos":[{"height":3024,"html_attributions":["<a href=\"https://maps.google.com/maps/contrib/103100646849164449052\">San</a>"],"photo_reference":"AeJbb3ezmxsmZu8hXJQSnwmA0oWzGiS9jjWTkIGfve1HkOA6Xjo74_zeV4b8RacLFyFiSGQFJ9MxMr954rttUSrgUt9vKrmpusD6bk3AAALShtuOCv6wga_WLNzZkQVgTHzwy9-I4nplS7FoLO38ck9vKYtqWnixTRKNk-kjlDGOUrdWeIUn","width":4032}],"place_id":"ChIJz8FnPMBRqEcRdPwZZO4bIR8","plus_code":{"compound_code":"G9FH+9P Berlin","global_code":"9F4MG9FH+9P"},"rating":4,"reference":"ChIJz8FnPMBRqEcRdPwZZO4bIR8","types":["restaurant","food","point_of_interest","establishment"],"user_ratings_total":94},{"business_status":"OPERATIONAL","formatted_address":"Brunnenstraße 4, 10119 Berlin","geometry":{"location":{"lat":52.5305468,"lng":13.4009862},"viewport":{"northeast":{"lat":52.53183887989272,"lng":13.40222857989272},"southwest":{"lat":52.52913922010728,"lng":13.39952892010728}}},"icon":"https://maps.gstatic.com/mapfiles/place_api/icons/v1/png_71/restaurant-71.png","icon_background_color":"#FF9E67","icon_mask_base_uri":"https://maps.gstatic.com/mapfiles/place_api/icons/v2/restaurant_pinlet","name":"Thai Ha","opening_hours":{"open_now":true},"photos":[{"height":2988,"html_attributions":["<a href=\"https://maps.google.com/maps/contrib/101029841636826689539\">A Google User</a>"],"photo_reference":"AeJbb3eymdO3d7V9tvPBl0Ikdx5opmaWsQnGwnBEUFh4fNHIhIOe74jIQzjafWTvx78KD4AP_dy5VbBir6klEzuFvECYV_RaxXjjDbmueokRUil1c0uJ5V5omiI7ecDJKjgSPQ-iUhpztt6qcU23o1sFycyqG4P8lb5TwCn5RY81Uxf8PttF","width":5312}],"place_id":"ChIJGx7T7-RRqEcRSGNhoU7IDg8","plus_code":{"compound_code":"GCJ2+69 Berlin","global_code":"9F4MGCJ2+69"},"price_level":1,"rating":3.8,"reference":"ChIJGx7T7-RRqEcRSGNhoU7IDg8","types":["restaurant","food","point_of_interest","establishment"],"user_ratings_total":180},{"business_status":"OPERATIONAL","formatted_address":"Linienstraße 134, 10115 Berlin","geometry":{"location":{"lat":52.5264518,"lng":13.3877732},"viewport":{"northeast":{"lat":52.52772557989272,"lng":13.38911142989272},"southwest":{"lat":52.52502592010728,"lng":13.38641177010728}}},"icon":"https://maps.gstatic.com/mapfiles/place_api/icons/v1/png_71/restaurant-71.png","icon_background_color":"#FF9E67","icon_mask_base_uri":"https://maps.gstatic.com/mapfiles/place_api/icons/v2/restaurant_pinlet","name":"Thai Cuisine Berlin Mitte","opening_hours":{"open_now":true},"photos":[{"height":4032,"html_attributions":["<a href=\"https://maps.google.com/maps/contrib/100213798728581483562\">Mihkel Saar</a>"],"photo_reference":"AeJbb3cWlYRZE5HKU92x0m5sENSxpWCy1hwqgAwf8pJhEGHPgK1C58-Jv0pdzkVWbZe1V6FANYCXLSvELxoEPbYjcOEUnGkslQ6aO3hJFuZ0dQyqHugrsjrzj8KRprnl9URdWwB6budGMzgb06dGRvshDoQsl4XBEhoWmaUzufhcAQfX3PxQ","width":3024}],"place_id":"ChIJTQ4pculRqEcRsJI4oSZ8wCs","plus_code":{"compound_code":"G9GQ+H4 Berlin","global_code":"9F4MG9GQ+H4"},"price_level":2,"rating":3.4,"reference":"ChIJTQ4pculRqEcRsJI4oSZ8wCs","types":["restaurant","food","point_of_interest","establishment"],"user_ratings_total":204}]