[{"business_status":"OPERATIONAL","formatted_address":"Kantstraße 140, 10623 Berlin","geometry":{"location":{"lat":52.505789,"lng":13.3189097},"viewport":{"northeast":{"lat":52.50722192989272,"lng":13.32027742989272},"southwest":{"lat":52.50452227010727,"lng":13.31757777010728}}},"icon":"https://maps.gstatic.com/mapfiles/place_api/icons/v1/png_71/restaurant-71.png","icon_background_color":"#FF9E67","icon_mask_base_uri":"https://maps.gstatic.com/mapfiles/place_api/icons/v2/restaurant_pinlet","name":"Siam Chada Restaurants","opening_hours":{"open_now":false},"photos":[{"height":3024,"html_attributions":["<a href=\"https://maps.google.com/maps/contrib/106170560741626654021\">Fadi Ali</a>"],"photo_reference":"AeJbb3cO0d4NE0SGZMgAh1Qc2TrfiFxmlypVAytj1THbDMVQaFefDflYfm08XRlq1K5Ix1XmYf4v8wgh0VpC5Lhmigd33CGzst3lPTdU4jMSHwMGxrOaksTjjccIPcLrQ1G539Tks7lOLarAtXdWGM74IEkLl3rizsqG-7wt3I0GcXONZNzA","width":4032}],"place_id":"ChIJfe5oahVRqEcRmp8mFrlih5k","plus_code":{"compound_code":"G849+8H Berlin","global_code":"9F4MG849+8H"},"rating":5,"reference":"ChIJfe5oahVRqEcRmp8mFrlih5k","types":["restaurant","food","point_of_interest","establishment"],"user_ratings_total":19},{"business_status":"OPERATIONAL","formatted_address":"Köpenicker Str. 11, 12524 Berlin","geometry":{"location":{"lat":52.4227286,"lng":13.5397445},"viewport":{"northeast":{"lat":52.42402727989272,"lng":13.54114587989272},"southwest":{"lat":52.42132762010728,"lng":13.53844622010728}}},"icon":"https://maps.gstatic.com/mapfiles/place_api/icons/v1/png_71/restaurant-71.png","icon_background_color":"#FF9E67","icon_mask_base_uri":"https://maps.gstatic.com/mapfiles/place_api/icons/v2/restaurant_pinlet","name":"Tower of Siam","opening_hours":{"open_now":false},"photos":[{"height":4032,"html_attributions":["<a href=\"https://maps.google.com/maps/contrib/105968746031069244984\">A Google User</a>"],"photo_reference":"AeJbb3cPCX2x_0ucyIdqMkQ1gM6qOhM2I61D7wpbVoNd2Y95ImIurcG4Bj7H4YxH89DNDfAvvTd0AA8BtYgsnTPfyrKlppFGczQfbHgGWD558W6pbazrCgr2QTqhq6cbqM9ONbwnIYkPsJbjskmz0gm5_x7YQx0wzUZIREjqcKTaF-Dvqh60","width":3024}],"place_id":"ChIJP670yUFHqEcRMj5018ww_EM","plus_code":{"compound_code":"CGFQ+3V Berlin","global_code":"9F4MCGFQ+3V"},"rating":4.9,"reference":"ChIJP670yUFHqEcRMj5018ww_EM","types":["restaurant","food","point_of_interest","establishment"],"user_ratings_total":114},{"business_status":"OPERATIONAL","formatted_address":"Teltower Damm 49, 14167 Berlin","geometry":{"location":{"lat":52.429678,"lng":13.2599319},"viewport":{"northeast":{"lat":52.43101767989273,"lng":13.26122317989272},"southwest":{"lat":52.42831802010728,"lng":13.25852352010728}}},"icon":"https://maps.gstatic.com/mapfiles/place_api/icons/v1/png_71/restaurant-71.png","icon_background_color":"#FF9E67","icon_mask_base_uri":"https://maps.gstatic.com/mapfiles/place_api/icons/v2/restaurant_pinlet","name":"Thai Cuisine Berlin Zehlendorf","opening_hours":{"open_now":false},"photos":[{"height":3456,"html_attributions":["<a href=\"https://maps.google.com/maps/contrib/116288472479687898363\">Thai Cuisine</a>"],"photo_reference":"AeJbb3dfNzBYBr6HWxqLS4tkdKAevHOSG7v1unROqR3_iOgZQYqzP_5oe0G3NOS1wFDyXhqvHMJT77g1EYPmGph3s7kGy6Kd9vFbt_A10p08EFOVHe_mYBR4gLon9W9VZQZz25uH38HzByZjAMOZpV5DTd6eMNIq7TAZoRd-XEY-z9ZciiRA","width":5184}],"place_id":"ChIJAfotSjNaqEcRvbD_deyPaUw","plus_code":{"compound_code":"C7H5+VX Berlin","global_code":"9F4MC7H5+VX"},"price_level":2,"rating":4.7,"reference":"ChIJAfotSjNaqEcRvbD_deyPaUw","types":["restaurant","food","point_of_interest","establishment"],"user_ratings_total":436},{"business_status":"OPERATIONAL","formatted_address":"Kaiserdamm 89, 14057 Berlin","geometry":{"location":{"lat":52.5097382,"lng":13.2815009},"viewport":{"northeast":{"lat":52.51116792989272,"lng":13.28280017989272},"southwest":{"lat":52.50846827010728,"lng":13.28010052010728}}},"icon":"https://maps.gstatic.com/mapfiles/place_api/icons/v1/png_71/restaurant-71.png","icon_background_color":"#FF9E67","icon_mask_base_uri":"https://maps.gstatic.com/mapfiles/place_api/icons/v2/restaurant_pinlet","name":"Papa Thai","opening_hours":{"open_now":false},"photos":[{"height":3024,"html_attributions":["<a href=\"https://maps.google.com/maps/contrib/113032429201776350698\">Fei He</a>"],"photo_reference":"AeJbb3cT2m6gNdDhl9dR2Y7f4lN4p0EmSU0GBpVsJEumED1nUlFAvGdSTQH8EmVUIC2sbbtUII35dBZ8cXbmlPPysmUrLhvJDptVtuC0Ye4cpjtkXOog7sn4JX6MWmbnEqgCJCcA86GKlF40UinKKLjNTL4kbFP8QvaVeARXyEqZnoAYeNPn","width":4032}],"place_id":"ChIJP--u8QFRqEcRG4udldag3yM","plus_code":{"compound_code":"G75J+VJ Berlin","global_code":"9F4MG75J+VJ"},"price_level":2,"rating":4.7,"reference":"ChIJP--u8QFRqEcRG4udldag3yM","types":["restaurant","food","point_of_interest","establishment"],"user_ratings_total":307},{"business_status":"OPERATIONAL","formatted_address":"Schönefelder Str. 12, 12355 Berlin","geometry":{"location":{"lat":52.41404319999999,"lng":13.4975288},"viewport":{"northeast":{"lat":52.41539942989272,"lng":13.49894102989272},"southwest":{"lat":52.41269977010728,"lng":13.49624137010728}}},"icon":"https://maps.gstatic.com/mapfiles/place_api/icons/v1/png_71/restaurant-71.png","icon_background_color":"#FF9E67","icon_mask_base_uri":"https://maps.gstatic.com/mapfiles/place_api/icons/v2/restaurant_pinlet","name":"Lapin - Thai Restaurant & Kulturhaus","opening_hours":{"open_now":false},"photos":[{"height":3024,"html_attributions":["<a href=\"https://maps.google.com/maps/contrib/116092248758609633444\">Hans-D. Graetz</a>"],"photo_reference":"AeJbb3fYI_0yp2ZizgzV8DduDBQSqLFG5QEKDMDioEyPewkIlu_Jy-Ab7HP-ac_R13pi2hc0nfVltMxjHlH-FH82ISDkGGEWb60X1Gy7YlClNUuBX-hqm-33WvdroVZu_OIn2RaN8ZBzxjgAaW6lk4ee90Sg68AdUHPGamInPFwcKzodZMhk","width":4032}],"place_id":"ChIJS5SAc29GqEcR8ke94X4Z1IU","plus_code":{"compound_code":"CF7W+JX Berlin","global_code":"9F4MCF7W+JX"},"price_level":1,"rating":4.7,"reference":"ChIJS5SAc29GqEcR8ke94X4Z1IU","types":["restaurant","food","point_of_interest","establishment"],"user_ratings_total":221},{"business_status":"OPERATIONAL","formatted_address":"Richardstraße 4, 12043 Berlin","geometry":{"location":{"lat":52.4784571,"lng":13.4384557},"viewport":{"northeast":{"lat":52.47984962989271,"lng":13.43989567989272},"southwest":{"lat":52.47714997010726,"lng":13.43719602010728}}},"icon":"https://maps.gstatic.com/mapfiles/place_api/icons/v1/png_71/restaurant-71.png","icon_background_color":"#FF9E67","icon_mask_base_uri":"https://maps.gstatic.com/mapfiles/place_api/icons/v2/restaurant_pinlet","name":"Sukanya Thai Imbiss","opening_hours":{"open_now":false},"photos":[{"height":2032,"html_attributions":["<a href=\"https://maps.google.com/maps/contrib/115820520580246179900\">A Google User</a>"],"photo_reference":"AeJbb3cIM6_fo4hnKdtQpISsq-aOkkWOY8OaQQrMg-9f9zq9vXP2Qm1U9yDgj2fYY1r4-VFh42GQFkZKWAlLQSMFlr9Dz1AUTFHXdycOPlC01LQ4NPIND6VGvfWcOZFlHdvs9KDt5CeU2smEUfOsxnhcgodqut13HVO3E_IeTei81EdcKTCN","width":1652}],"place_id":"ChIJ9W0vCUpPqEcROHRnGxrpqas","plus_code":{"compound_code":"FCHQ+99 Berlin","global_code":"9F4MFCHQ+99"},"rating":4.7,"reference":"ChIJ9W0vCUpPqEcROHRnGxrpqas","types":["meal_takeaway","restaurant","food","point_of_interest","establishment"],"user_ratings_total":129},{"business_status":"OPERATIONAL","formatted_address":"Boxhagener Str. 108, 10245 Berlin","geometry":{"location":{"lat":52.5129374,"lng":13.4577071},"viewport":{"northeast":{"lat":52.51432782989272,"lng":13.45913592989272},"southwest":{"lat":52.51162817010727,"lng":13.45643627010728}}},"icon":"https://maps.gstatic.com/mapfiles/place_api/icons/v1/png_71/restaurant-71.png","icon_background_color":"#FF9E67","icon_mask_base_uri":"https://maps.gstatic.com/mapfiles/place_api/icons/v2/restaurant_pinlet","name":"Hangmee Exotiq Finest Asian Food","opening_hours":{"open_now":false},"photos":[{"height":2736,"html_attributions":["<a href=\"https://maps.google.com/maps/contrib/101918537439998662657\">Martin Korn</a>"],"photo_reference":"AeJbb3eUhpYJTxm_-AJbON8VlJovMQh3pMHrxGR3RX5kxlg-P7ikn1cfwY0xnfKqyuJ6A8npwJqK_V4cNhn8OyxOTXOvmJKT26W0QfORHOR_mXe_nK-x7R3NuUsNWxe3rV2TwiUfPezF8Jj4Rb0o8bVmq-w60WnX6GavTuZJOBfxrUL894Ry","width":3648}],"place_id":"ChIJCb2ee15OqEcRa_CQKLFwUg4","plus_code":{"compound_code":"GF75+53 Berlin","global_code":"9F4MGF75+53"},"price_level":2,"rating":4.6,"reference":"ChIJCb2ee15OqEcRa_CQKLFwUg4","types":["restaurant","food","point_of_interest","establishment"],"user_ratings_total":1243},{"business_status":"OPERATIONAL","formatted_address":"Kantstraße 53, 10627 Berlin","geometry":{"location":{"lat":52.5067969,"lng":13.3086631},"viewport":{"northeast":{"lat":52.50806352989272,"lng":13.30999922989272},"southwest":{"lat":52.50536387010728,"lng":13.30729957010728}}},"icon":"https://maps.gstatic.com/mapfiles/place_api/icons/v1/png_71/restaurant-71.png","icon_background_color":"#FF9E67","icon_mask_base_uri":"https://maps.gstatic.com/mapfiles/place_api/icons/v2/restaurant_pinlet","name":"Chon Thong","opening_hours":{"open_now":false},"photos":[{"height":1436,"html_attributions":["<a href=\"https://maps.google.com/maps/contrib/114567528108848966479\">Alice Wunder</a>"],"photo_reference":"AeJbb3cD0uOa8mjt7tIJx6e7fHvSbGOmK-Y3J8nUzK-vfTqX1LQ8CCxYEObOzbgUIANvz2S80PuRgbZXTv1VG1WzZR3gu9OQF4FqZ0ART4vqJkcKtc4JgXdvM4Rg_R8b9vKjXOWNlDLpUk863EloIeuQQZ8ApgMUY8lvkjkku9sUnl1Lt9VW","width":2528}],"place_id":"ChIJq6palOBQqEcRYmbTCbj8wh4","plus_code":{"compound_code":"G845+PF Berlin","global_code":"9F4MG845+PF"},"price_level":1,"rating":4.6,"reference":"ChIJq6palOBQqEcRYmbTCbj8wh4","types":["restaurant","food","point_of_interest","establishment"],"user_ratings_total":727},{"business_status":"OPERATIONAL","formatted_address":"Dunckerstraße 18, 10437 Berlin","geometry":{"location":{"lat":52.5435357,"lng":13.4219225},"viewport":{"northeast":{"lat":52.54491602989272,"lng":13.42317607989272},"southwest":{"lat":52.54221637010728,"lng":13.42047642010728}}},"icon":"https://maps.gstatic.com/mapfiles/place_api/icons/v1/png_71/restaurant-71.png","icon_background_color":"#FF9E67","icon_mask_base_uri":"https://maps.gstatic.com/mapfiles/place_api/icons/v2/restaurant_pinlet","name":"Thai Aroma","opening_hours":{"open_now":false},"photos":[{"height":3120,"html_attributions":["<a href=\"https://maps.google.com/maps/contrib/109463612905322654437\">Philipp Goldmann</a>"],"photo_reference":"AeJbb3euFKZ-MAhj1l8S_gYsTuKiEJrif-5ZO7d5lQXAGbP7BrAwPV3CowriXTKqDZ6t7WF2p2xTtrgikGdCYYGB9PLDvhw5C9GOcMTmM7S0Hz3P1KkF7MJIBkzRbTAkAuDd4S4s82kaJa41oLdHzBx4FMO35EQPjpIxtCSVRQZZebW4jns_","width":4160}],"place_id":"ChIJPdiUVP5NqEcRhfAy1SR7EwU","plus_code":{"compound_code":"GCVC+CQ Berlin","global_code":"9F4MGCVC+CQ"},"price_level":2,"rating":4.6,"reference":"ChIJPdiUVP5NqEcRhfAy1SR7EwU","types":["restaurant","food","point_of_interest","establishment"],"user_ratings_total":721},{"business_status":"OPERATIONAL","formatted_address":"Käthe-Niederkirchner-Straße 14, 10407 Berlin","geometry":{"location":{"lat":52.530488,"lng":13.431504},"viewport":{"northeast":{"lat":52.53189577989272,"lng":13.43292262989272},"southwest":{"lat":52.52919612010728,"lng":13.43022297010728}}},"icon":"https://maps.gstatic.com/mapfiles/place_api/icons/v1/png_71/restaurant-71.png","icon_background_color":"#FF9E67","icon_mask_base_uri":"https://maps.gstatic.com/mapfiles/place_api/icons/v2/restaurant_pinlet","name":"Taleh Thai","opening_hours":{"open_now":false},"photos":[{"height":2862,"html_attributions":["<a href=\"https://maps.google.com/maps/contrib/103550081683935470977\">Taleh Thai</a>"],"photo_reference":"AeJbb3eFtFZyP1fzpEgozVOrifQ7-TgQBfbotUiDKWBGKRpTeAQWw_25-M3otSa3dA9EVd8qhaSZOoijKFL3g1gPe7JtYRdDykR-CQTfrUeKfGLk5ooPqy_CPPkUJWvPsnpGyjVXu6o3s_5cgQqWJtfBrDMtq7UzuOqlIjYeFOz1T54v8XOq","width":3579}],"place_id":"ChIJb-CtNw5OqEcRp3kuYtPtR-I","plus_code":{"compound_code":"GCJJ+5J Berlin","global_code":"9F4MGCJJ+5J"},"price_level":2,"rating":4.6,"reference":"ChIJb-CtNw5OqEcRp3kuYtPtR-I","types":["restaurant","food","point_of_interest","establishment"],"user_ratings_total":538},{"business_status":"OPERATIONAL","formatted_address":"Reinickendorfer Str. 96, 13347 Berlin","geometry":{"location":{"lat":52.5475453,"lng":13.3689427},"viewport":{"northeast":{"lat":52.54890047989272,"lng":13.37040362989272},"southwest":{"lat":52.54620082010728,"lng":13.36770397010728}}},"icon":"https://maps.gstatic.com/mapfiles/place_api/icons/v1/png_71/restaurant-71.png","icon_background_color":"#FF9E67","icon_mask_base_uri":"https://maps.gstatic.com/mapfiles/place_api/icons/v2/restaurant_pinlet","name":"Dan Thai Food","opening_hours":{"open_now":false},"photos":[{"height":3456,"html_attributions":["<a href=\"https://maps.google.com/maps/contrib/109763686770982644711\">S.B.H. W.</a>"],"photo_reference":"AeJbb3f9vdlmNENqpSeiGsT_mrz4EUaMcNemKW54xzUeMqHeAyeUwCqdc3blkfIUmPltk7bBtVScP1qa6aM9XgiIZLnoQsfSPuKcWaQbM4M2MMNh-81Yr8Z4Gy60zaKTH_gB5g-1CGbHhO9hNUpTqiJN9sf97V70HyDrpWjM1tMwpE3AD8rX","width":4608}],"place_id":"ChIJSwGH2SlSqEcR0_gcvvXI3yc","plus_code":{"compound_code":"G9X9+2H Berlin","global_code":"9F4MG9X9+2H"},"price_level":1,"rating":4.6,"reference":"ChIJSwGH2SlSqEcR0_gcvvXI3yc","types":["restaurant","food","point_of_interest","establishment"],"user_ratings_total":499},{"business_status":"OPERATIONAL","formatted_address":"Goerzallee 111, 12207 Berlin","geometry":{"location":{"lat":52.4221991,"lng":13.2994587},"viewport":{"northeast":{"lat":52.42359837989272,"lng":13.30064697989272},"southwest":{"lat":52.42089872010727,"lng":13.29794732010728}}},"icon":"https://maps.gstatic.com/mapfiles/place_api/icons/v1/png_71/restaurant-71.png","icon_background_color":"#FF9E67","icon_mask_base_uri":"https://maps.gstatic.com/mapfiles/place_api/icons/v2/restaurant_pinlet","name":"Thai By Thai","opening_hours":{"open_now":false},"photos":[{"height":1960,"html_attributions":["<a href=\"https://maps.google.com/maps/contrib/107723832206281144501\">Thai By Thai</a>"],"photo_reference":"AeJbb3cngUfndou1_HUQenzs-PJQV8jJvDVzbfdVtUrOdojrUWm16iHp4TR0n2To8iqGcWvvPdGSySi7qmJFfqb5vhueDpyW5sbTByqvWJ5oEe9TpNxnet0QGTC-iPkwL7ldSvaE2BHCrNsvswl9ZTxb8CMwLIasOXeSN3_zVQF8FYvFpojI","width":4032}],"place_id":"ChIJv69L-gBbqEcR33jp2iPdXyU","plus_code":{"compound_code":"C7CX+VQ Berlin","global_code":"9F4MC7CX+VQ"},"price_level":2,"rating":4.6,"reference":"ChIJv69L-gBbqEcR33jp2iPdXyU","types":["restaurant","food","point_of_interest","establishment"],"user_ratings_total":330},{"business_status":"OPERATIONAL","formatted_address":"Kantstraße 57, 10627 Berlin","geometry":{"location":{"lat":52.5069165,"lng":13.3058096},"viewport":{"northeast":{"lat":52.50822557989272,"lng":13.30713352989272},"southwest":{"lat":52.50552592010727,"lng":13.30443387010728}}},"icon":"https://maps.gstatic.com/mapfiles/place_api/icons/v1/png_71/restaurant-71.png","icon_background_color":"#FF9E67","icon_mask_base_uri":"https://maps.gstatic.com/mapfiles/place_api/icons/v2/restaurant_pinlet","name":"Thai-Art","opening_hours":{"open_now":false},"photos":[{"height":450,"html_attributions":["<a href=\"https://maps.google.com/maps/contrib/114593809716112240400\">Mathias Heinrich</a>"],"photo_reference":"AeJbb3c88TlQB1L_S2MNcEemGm-cJz6HYjDyuOatWOYUZ9-sohWD10s1FmspshpUk9WGeccmz86o7gXGrxltY7R3iV5F0sJrHDWFV_6F-9OPCft-O0BP9x7QRIOrg2xKIdG6Fv45bG7-Wz5jK5Amn-Bmghh-fBRE5chJjLFBuZcWiAr1Us4P","width":600}],"place_id":"ChIJx9G1vIxQqEcRZIufrZJGalc","plus_code":{"compound_code":"G844+Q8 Berlin","global_code":"9F4MG844+Q8"},"rating":4.6,"reference":"ChIJx9G1vIxQqEcRZIufrZJGalc","types":["restaurant","food","point_of_interest","establishment"],"user_ratings_total":305},{"business_status":"OPERATIONAL","formatted_address":"Gryphiusstraße 10, 10245 Berlin","geometry":{"location":{"lat":52.5086689,"lng":13.4637439},"viewport":{"northeast":{"lat":52.51002482989272,"lng":13.46506772989272},"southwest":{"lat":52.50732517010728,"lng":13.46236807010727}}},"icon":"https://maps.gstatic.com/mapfiles/place_api/icons/v1/png_71/restaurant-71.png","icon_background_color":"#FF9E67","icon_mask_base_uri":"https://maps.gstatic.com/mapfiles/place_api/icons/v2/restaurant_pinlet","name":"Khao Taan","opening_hours":{"open_now":false},"photos":[{"height":2268,"html_attributions":["<a href=\"https://maps.google.com/maps/contrib/105856431021380610283\">erwan</a>"],"photo_reference":"AeJbb3cumsk4_nE5zqFQJ6-MTRlnQ67nV4-OsGUwr_lsWQUixwvnz1TMxna5TLIVz4QBEGxk9dMxHiJ_TDnX97LjAIw6hCRme2a232kRdnxKi07L4zcIkVhtJdGaTGcJ56CZnYccztb-5v7jCY4bUANDpFvqX8ZLAjjt-p3S6NcTSX-hc6Ey","width":4032}],"place_id":"ChIJ1fx6VmhOqEcRMDHeAA6W_hI","plus_code":{"compound_code":"GF57+FG Berlin","global_code":"9F4MGF57+FG"},"price_level":2,"rating":4.6,"reference":"ChIJ1fx6VmhOqEcRMDHeAA6W_hI","types":["restaurant","food","point_of_interest","establishment"],"user_ratings_total":218},{"business_status":"OPERATIONAL","formatted_address":"Friesenstraße 22, 10965 Berlin","geometry":{"location":{"lat":52.4878537,"lng":13.3946807},"viewport":{"northeast":{"lat":52.48920407989272,"lng":13.39589692989272},"southwest":{"lat":52.48650442010728,"lng":13.39319727010728}}},"icon":"https://maps.gstatic.com/mapfiles/place_api/icons/v1/png_71/restaurant-71.png","icon_background_color":"#FF9E67","icon_mask_base_uri":"https://maps.gstatic.com/mapfiles/place_api/icons/v2/restaurant_pinlet","name":"Sarod's","opening_hours":{"open_now":false},"photos":[{"height":3024,"html_attributions":["<a href=\"https://maps.google.com/maps/contrib/116363277899260070754\">Alexander Palm</a>"],"photo_reference":"AeJbb3c0CIu2myQ6mrlbG6dcced4MuzNhZd6iQKhRvsE34rR3C2IU2Ne_-1MnFQ_g2Kl7R-EXaMtEXnnBsod4TA4qXDuOR5NBoNrSatZbsur3OuniaHbxs1dwG6JCLGZgmS8P_jpoJ7n944cLRU1jcIdgMhXqrVpeFbMkJwp2Js3A1nX-Ab7","width":3639}],"place_id":"ChIJ2UcGstlPqEcRH6UiEVehSKY","plus_code":{"compound_code":"F9QV+4V Berlin","global_code":"9F4MF9QV+4V"},"price_level":2,"rating":4.5,"reference":"ChIJ2UcGstlPqEcRH6UiEVehSKY","types":["bar","restaurant","food","point_of_interest","establishment"],"user_ratings_total":631},{"business_status":"OPERATIONAL","formatted_address":"Brunowstraße 8, 13507 Berlin","geometry":{"location":{"lat":52.5879588,"lng":13.2861704},"viewport":{"northeast":{"lat":52.58927832989271,"lng":13.28752502989272},"southwest":{"lat":52.58657867010727,"lng":13.28482537010728}}},"icon":"https://maps.gstatic.com/mapfiles/place_api/icons/v1/png_71/restaurant-71.png","icon_background_color":"#FF9E67","icon_mask_base_uri":"https://maps.gstatic.com/mapfiles/place_api/icons/v2/restaurant_pinlet","name":"Rüan-Thai","opening_hours":{"open_now":false},"photos":[{"height":2988,"html_attributions":["<a href=\"https://maps.google.com/maps/contrib/117850064349563127644\">Juergen Goldmann</a>"],"photo_reference":"AeJbb3fN70HBd8YlysEqgFPjdb9Ljiv5jTznXju83JY-bnZa7V8dvCGaI3bVyEfUfKiWkuyc3g3PwfWs98Ur6M3bOBFK15rY1aFh8DCkYeaH62nwhjw13rtCgKy8o0AEcy5-cCYo1ljV7zx9UNmiWtKB-ct_ZTRRKtuh_jdvMdB0c4AvSx3z","width":5312}],"place_id":"ChIJI348FmhUqEcRQJKsFtz79CA","plus_code":{"compound_code":"H7QP+6F Berlin","global_code":"9F4MH7QP+6F"},"price_level":2,"rating":4.5,"reference":"ChIJI348FmhUqEcRQJKsFtz79CA","types":["restaurant","food","point_of_interest","establishment"],"user_ratings_total":605},{"business_status":"OPERATIONAL","formatted_address":"Kaiserin-Augusta-Straße 73, 12103 Berlin","geometry":{"location":{"lat":52.4594338,"lng":13.3819884},"viewport":{"northeast":{"lat":52.46078862989272,"lng":13.38316157989272},"southwest":{"lat":52.45808897010728,"lng":13.38046192010728}}},"icon":"https://maps.gstatic.com/mapfiles/place_api/icons/v1/png_71/restaurant-71.png","icon_background_color":"#FF9E67","icon_mask_base_uri":"https://maps.gstatic.com/mapfiles/place_api/icons/v2/restaurant_pinlet","name":"Tonsai","opening_hours":{"open_now":false},"photos":[{"height":3024,"html_attributions":["<a href=\"https://maps.google.com/maps/contrib/111776768969028529606\">Dr. Michael Gellner</a>"],"photo_reference":"AeJbb3enR2Wp5WXM3KwAwRaCH1pGAotIIRA7vcUKtTvwZRNHAXrH8ZU4k8Sv7kOGR0nrIGVxONCYYWCHQlDaUX7fYrEpsiHOnHSsZ9PExW0GxNfynjH9QDDIk4Chr7fl3vADTuQkQaHPBqUTmH5tlwTFBLRmG8fkI4v3l27XgqOcYeZoF_KP","width":4032}],"place_id":"ChIJRcgAZ_9PqEcRY423WAl9tN0","plus_code":{"compound_code":"F95J+QQ Berlin","global_code":"9F4MF95J+QQ"},"price_level":2,"rating":4.5,"reference":"ChIJRcgAZ_9PqEcRY423WAl9tN0","types":["restaurant","food","point_of_interest","establishment"],"user_ratings_total":517},{"business_status":"OPERATIONAL","formatted_address":"Rigaer Str. 26, 10247 Berlin","geometry":{"location":{"lat":52.5168085,"lng":13.4620795},"viewport":{"northeast":{"lat":52.51822122989272,"lng":13.46344512989272},"southwest":{"lat":52.51552157010727,"lng":13.46074547010728}}},"icon":"https://maps.gstatic.com/mapfiles/place_api/icons/v1/png_71/restaurant-71.png","icon_background_color":"#FF9E67","icon_mask_base_uri":"https://maps.gstatic.com/mapfiles/place_api/icons/v2/restaurant_pinlet","name":"Koy | frische und gute thailändische Küche","opening_hours":{"open_now":false},"photos":[{"height":3024,"html_attributions":["<a href=\"https://maps.google.com/maps/contrib/107085084639609629291\">Jamie Matthews</a>"],"photo_reference":"AeJbb3fSVRBwNsbetdLT1pX0qwJiExIWxolcY3OfuQLPYnL3658cjloqBaC3c6Ser6qFvC0mveJCM1-b7MtmTpetjv8lC1IldhrbfQYrH7vCD7licA6piEGsq3FljKpsTE-rE9tFLTQU7PxFk1zSkz0RivGKGdp60uyU8KdQhieyfwrtybxW","width":4032}],"place_id":"ChIJM3SP-mBOqEcRnOnjlJnMbzI","plus_code":{"compound_code":"GF86+PR Berlin","global_code":"9F4MGF86+PR"},"price_level":1,"rating":4.5,"reference":"ChIJM3SP-mBOqEcRnOnjlJnMbzI","types":["restaurant","food","point_of_interest","establishment"],"user_ratings_total":497},{"business_status":"OPERATIONAL","formatted_address":"Luxemburger Str. 4, 13353 Berlin","geometry":{"location":{"lat":52.54583840000001,"lng":13.35789},"viewport":{"northeast":{"lat":52.54715117989272,"lng":13.35930197989272},"southwest":{"lat":52.54445152010728,"lng":13.35660232010728}}},"icon":"https://maps.gstatic.com/mapfiles/place_api/icons/v1/png_71/restaurant-71.png","icon_background_color":"#FF9E67","icon_mask_base_uri":"https://maps.gstatic.com/mapfiles/place_api/icons/v2/restaurant_pinlet","name":"Krua Thai","opening_hours":{"open_now":false},"photos":[{"height":4032,"html_attributions":["<a href=\"https://maps.google.com/maps/contrib/107085084639609629291\">Jamie Matthews</a>"],"photo_reference":"AeJbb3e8slrvkk5WBilna1m3INUXKqKz_uk1UZWLDlj7D03cJeLLYygb6Aqxw4Zwk3P12rJ7JpleLpKOsPBKmv_kbIGdVocZ8WmTQ_LOxOkr_sDoUsNOzOYSLOicd9uTyr23zdKnr7iLdBeR5ZXQ5aVmsqL16FrFpj_50DwNosOp_v3SlbxZ","width":3024}],"place_id":"ChIJyX9lLIBRqEcRepj0seAjvqQ","plus_code":{"compound_code":"G9W5+85 Berlin","global_code":"9F4MG9W5+85"},"price_level":1,"rating":4.5,"reference":"ChIJyX9lLIBRqEcRepj0seAjvqQ","types":["restaurant","food","point_of_interest","establishment"],"user_ratings_total":430},{"business_status":"OPERATIONAL","formatted_address":"Prenzlauer Allee 46, 10405 Berlin","geometry":{"location":{"lat":52.5368226,"lng":13.4232101},"viewport":{"northeast":{"lat":52.53818557989272,"lng":13.42451007989272},"southwest":{"lat":52.53548592010728,"lng":13.42181042010728}}},"icon":"https://maps.gstatic.com/mapfiles/place_api/icons/v1/png_71/restaurant-71.png","icon_background_color":"#FF9E67","icon_mask_base_uri":"https://maps.gstatic.com/mapfiles/place_api/icons/v2/restaurant_pinlet","name":"Bangkok Treffpunkt","opening_hours":{"open_now":false},"photos":[{"height":3654,"html_attributions":["<a href=\"https://maps.google.com/maps/contrib/114362887661244873055\">Treffpunkt Bangkok</a>"],"photo_reference":"AeJbb3e8ieLAQMUJaZmaJQvLRavOViSGG9F11VkBb8JcGEB1wii10DPdwCQuwe6Fxv0rltA--Mel-I6nfcxOnDbCQZZFU5mR1Yd0oSmks6lI1ATeUfZVcufJjxw1ZwHisRQPnVqdDCSWDF8S4hhv3igvhCzrPXcJXkRRQogvJktww_TRXCI-","width":5481}],"place_id":"ChIJAQLPuQZOqEcRHvh4GgXFtl0","plus_code":{"compound_code":"GCPF+P8 Berlin","global_code":"9F4MGCPF+P8"},"price_level":1,"rating":4.5,"reference":"ChIJAQLPuQZOqEcRHvh4GgXFtl0","types":["restaurant","food","point_of_interest","establishment"],"user_ratings_total":406},{"business_status":"OPERATIONAL","formatted_address":"Frankfurter Allee 102, 10247 Berlin","geometry":{"location":{"lat":52.51360560000001,"lng":13.4737239},"viewport":{"northeast":{"lat":52.51495967989271,"lng":13.47488137989272},"southwest":{"lat":52.51226002010727,"lng":13.47218172010728}}},"icon":"https://maps.gstatic.com/mapfiles/place_api/icons/v1/png_71/restaurant-71.png","icon_background_color":"#FF9E67","icon_mask_base_uri":"https://maps.gstatic.com/mapfiles/place_api/icons/v2/restaurant_pinlet","name":"Thai Snack","opening_hours":{"open_now":false},"photos":[{"height":4608,"html_attributions":["<a href=\"https://maps.google.com/maps/contrib/108805991751951131947\">A Google User</a>"],"photo_reference":"AeJbb3eR1cMmS0J_gey7VgmVCRLhpTifdiyUw_fnmJRp4olDsOPa30bjyvuuNlqLrJ6rcr7pO-siYPZPQc6T5IdXUQHcxVjNF8_Es2exUNmrqNSz5nNj4OKXwluBhpwzvwWLunbMpIv8etz1dFD_ycOU2ZmdyZ1KW6EHOVEHyJRN7cCXcoi0","width":3456}],"place_id":"ChIJ09K4rYxOqEcRjzb1IHstNT0","plus_code":{"compound_code":"GF7F+CF Berlin","global_code":"9F4MGF7F+CF"},"price_level":1,"rating":4.5,"reference":"ChIJ09K4rYxOqEcRjzb1IHstNT0","types":["restaurant","food","point_of_interest","establishment"],"user_ratings_total":285},{"business_status":"OPERATIONAL","formatted_address":"Krumme Str. 36, 10627 Berlin","geometry":{"location":{"lat":52.509233,"lng":13.3093504},"viewport":{"northeast":{"lat":52.51056102989273,"lng":13.31074927989272},"southwest":{"lat":52.50786137010728,"lng":13.30804962010728}}},"icon":"https://maps.gstatic.com/mapfiles/place_api/icons/v1/png_71/restaurant-71.png","icon_background_color":"#FF9E67","icon_mask_base_uri":"https://maps.gstatic.com/mapfiles/place_api/icons/v2/restaurant_pinlet","name":"myThais","opening_hours":{"open_now":false},"photos":[{"height":2988,"html_attributions":["<a href=\"https://maps.google.com/maps/contrib/108199341114892997489\">My Thais Korat Küche</a>"],"photo_reference":"AeJbb3eWSddb_nO8lgpFRdbaIbyxechU4lir4-MpJqrP4qTFavP8xtC1wLHCDxv2YVFd6kOI8OTcr-cRGO7cTwH_95X-DMUXr3TZgLeotY1s0BzI6dXexGFuATqTZDl-78Fn5gUhWQ0CqC4QHX8v2lCa6G_s080ORR1C14OXo8a2UBiU8-V4","width":4478}],"place_id":"ChIJzZggbeBQqEcRDEpEhED_NRg","plus_code":{"compound_code":"G855+MP Berlin","global_code":"9F4MG855+MP"},"price_level":1,"rating":4.5,"reference":"ChIJzZggbeBQqEcRDEpEhED_NRg","types":["restaurant","food","point_of_interest","establishment"],"user_ratings_total":277},{"business_status":"OPERATIONAL","formatted_address":"Bötzowstraße 25, 10407 Berlin","geometry":{"location":{"lat":52.5314613,"lng":13.433536},"viewport":{"northeast":{"lat":52.53276102989272,"lng":13.43499062989272},"southwest":{"lat":52.53006137010728,"lng":13.43229097010728}}},"icon":"https://maps.gstatic.com/mapfiles/place_api/icons/v1/png_71/restaurant-71.png","icon_background_color":"#FF9E67","icon_mask_base_uri":"https://maps.gstatic.com/mapfiles/place_api/icons/v2/restaurant_pinlet","name":"Preeda","opening_hours":{"open_now":false},"photos":[{"height":2000,"html_attributions":["<a href=\"https://maps.google.com/maps/contrib/115865994288419077072\">A Google User</a>"],"photo_reference":"AeJbb3dMrmEvh8A8D5FO3GEHeq-2XEuXkg6Xc8QJ1WzHTfT4AjYKPC43yRzgfDkHhDRtJmBa7Dk_wigoIDV6CqXk_Pmjw6vTcR1RzTjwR-6XIMuwtK-66_PHX2u0wuUP15h_uSDRITFUoe6AJFu-P7p0gq0NhZ8gtzro-0q6N2MkjEUuIE49","width":3000}],"place_id":"ChIJewEb9M5PqEcRtTJZOtBlV7g","plus_code":{"compound_code":"GCJM+HC Berlin","global_code":"9F4MGCJM+HC"},"rating":4.5,"reference":"ChIJewEb9M5PqEcRtTJZOtBlV7g","types":["restaurant","food","point_of_interest","establishment"],"user_ratings_total":255},{"business_status":"OPERATIONAL","formatted_address":"Hauptstraße 82, 12159 Berlin","geometry":{"location":{"lat":52.47275140000001,"lng":13.3371013},"viewport":{"northeast":{"lat":52.47414372989272,"lng":13.33835642989272},"southwest":{"lat":52.47144407010727,"lng":13.33565677010728}}},"icon":"https://maps.gstatic.com/mapfiles/place_api/icons/v1/png_71/restaurant-71.png","icon_background_color":"#FF9E67","icon_mask_base_uri":"https://maps.gstatic.com/mapfiles/place_api/icons/v2/restaurant_pinlet","name":"Sweet Cocos","opening_hours":{"open_now":false},"photos":[{"height":1389,"html_attributions":["<a href=\"https://maps.google.com/maps/contrib/111679379473551294280\">Günther Herrmann</a>"],"photo_reference":"AeJbb3fXJpZplK5j9WxUiRvfDQtjaNeJ4tcW-zcbBcHthcPPVWG5MVpY-4iVGga5oJkCO2Cs3ULTdVdSsEnGPRcHMLE0kX0tYuB7Hw-nINf5wVbmHFMjRoeNLNI5xkq0ORhTDXVNLX3z56hRbY_RZh5U2KI2-4HQCyxrssmnZOXL6ZYRrUIY","width":2560}],"place_id":"ChIJtQxIfHBQqEcR7sSyQe0us8U","plus_code":{"compound_code":"F8FP+4R Berlin","global_code":"9F4MF8FP+4R"},"price_level":2,"rating":4.5,"reference":"ChIJtQxIfHBQqEcR7sSyQe0us8U","types":["restaurant","food","point_of_interest","establishment"],"user_ratings_total":253},{"business_status":"OPERATIONAL","formatted_address":"Düppelstraße 41, 12163 Berlin","geometry":{"location":{"lat":52.4570568,"lng":13.3223563},"viewport":{"northeast":{"lat":52.45837227989272,"lng":13.32371767989272},"southwest":{"lat":52.45567262010727,"lng":13.32101802010728}}},"icon":"https://maps.gstatic.com/mapfiles/place_api/icons/v1/png_71/restaurant-71.png","icon_background_color":"#FF9E67","icon_mask_base_uri":"https://maps.gstatic.com/mapfiles/place_api/icons/v2/restaurant_pinlet","name":"Thung Thai Restaurant","opening_hours":{"open_now":false},"photos":[{"height":1000,"html_attributions":["<a href=\"https://maps.google.com/maps/contrib/113698229496194620909\">donpai paidon</a>"],"photo_reference":"AeJbb3eVtfdT0RC5ym9Cbq7KjXshAgQUbC_h5dcoZ-ozytp4BWV3L9LEPDVT6Qr-iRHUxLs5QS_jz5UZter3L92oTWbQc1sJUloG8mdTXav2C5NQXyGnOhIlfm2BluRWhafL62yEin4n258FtPkuQyUGsD5JPeF3lVhGQlcEn3uO0PsS9lM7","width":1500}],"place_id":"ChIJZdTw3rNbqEcR_L_9HLtDlkQ","plus_code":{"compound_code":"F84C+RW Berlin","global_code":"9F4MF84C+RW"},"price_level":2,"rating":4.5,"reference":"ChIJZdTw3rNbqEcR_L_9HLtDlkQ","types":["restaurant","food","point_of_interest","establishment"],"user_ratings_total":236},{"business_status":"OPERATIONAL","formatted_address":"Reichsstraße 3, 14052 Berlin","geometry":{"location":{"lat":52.51073969999999,"lng":13.2706251},"viewport":{"northeast":{"lat":52.51205367989272,"lng":13.27196907989272},"southwest":{"lat":52.50935402010727,"lng":13.26926942010728}}},"icon":"https://maps.gstatic.com/mapfiles/place_api/icons/v1/png_71/restaurant-71.png","icon_background_color":"#FF9E67","icon_mask_base_uri":"https://maps.gstatic.com/mapfiles/place_api/icons/v2/restaurant_pinlet","name":"Mahanakhon Thai Cuisine","opening_hours":{"open_now":false},"photos":[{"height":3024,"html_attributions":["<a href=\"https://maps.google.com/maps/contrib/117826092376544402624\">Jo Billington</a>"],"photo_reference":"AeJbb3dqmAcH6Gi2Cnjxc_E6eW3l6IA6PcOWnlSS2UVLPiVtiJNtKWorSKumY4WkeD-3paSxwx-nI8T1gJkSQUKaVJ5D-FVg-IHO6SUwqObFfSkd7PHXiLelKJ3pGYGMzO_WY1cmfZWuGm8_kfZdSSQ8Xa-H0L3A48GR8U9mzqgJSonIWBWE","width":4032}],"place_id":"ChIJMeLkGdpXqEcR2jDpGlmh394","plus_code":{"compound_code":"G76C+86 Berlin","global_code":"9F4MG76C+86"},"rating":4.5,"reference":"ChIJMeLkGdpXqEcR2jDpGlmh394","types":["restaurant","food","point_of_interest","establishment"],"user_ratings_total":146},{"business_status":"OPERATIONAL","formatted_address":"Kaiser-Friedrich-Straße 89, 10585 Berlin","geometry":{"location":{"lat":52.5145817,"lng":13.30134},"viewport":{"northeast":{"lat":52.51592497989273,"lng":13.30256082989272},"southwest":{"lat":52.51322532010728,"lng":13.29986117010728}}},"icon":"https://maps.gstatic.com/mapfiles/place_api/icons/v1/png_71/restaurant-71.png","icon_background_color":"#FF9E67","icon_mask_base_uri":"https://maps.gstatic.com/mapfiles/place_api/icons/v2/restaurant_pinlet","name":"Kien-Du-Kiang-Thong","opening_hours":{"open_now":false},"photos":[{"height":3024,"html_attributions":["<a href=\"https://maps.google.com/maps/contrib/104056991146844844380\">Mirco Di paola</a>"],"photo_reference":"AeJbb3fNa9bHT-stkuiqmH3MMWw3NwJRQr21ljRK_SJsHACJUum8OfgPz-kX9a8SmoIfHn3WuoW8H4EkL6CgzGfBR1M47rSJ_yhLvX4znzzUdI0_SFS4YXpiub8eXVuY0knCtyY57YH18Zl32px03O5kc9yfSiaHFR2WisXuudUiX6IhcZwJ","width":4032}],"place_id":"ChIJDWxz3CZRqEcRXGDatkETSXw","plus_code":{"compound_code":"G872+RG Berlin","global_code":"9F4MG872+RG"},"price_level":2,"rating":4.5,"reference":"ChIJDWxz3CZRqEcRXGDatkETSXw","types":["restaurant","food","point_of_interest","establishment"],"user_ratings_total":133},{"business_status":"OPERATIONAL","formatted_address":"Hansastraße 69, 13088 Berlin","geometry":{"location":{"lat":52.5497482,"lng":13.4743038},"viewport":{"northeast":{"lat":52.55112882989272,"lng":13.47588442989272},"southwest":{"lat":52.54842917010728,"lng":13.47318477010728}}},"icon":"https://maps.gstatic.com/mapfiles/place_api/icons/v1/png_71/restaurant-71.png","icon_background_color":"#FF9E67","icon_mask_base_uri":"https://maps.gstatic.com/mapfiles/place_api/icons/v2/restaurant_pinlet","name":"Thai Lotus Restaurant","opening_hours":{"open_now":false},"photos":[{"height":3648,"html_attributions":["<a href=\"https://maps.google.com/maps/contrib/111912933499660354132\">A Google User</a>"],"photo_reference":"AeJbb3ctvp1nM2Xy7QZTlV9BgWf7EP1aqfnx14dfzpkINLp57GhLo9aRbG5WsXaDbEMEO7XPG8SRMqGzH0o7EcYl1MezjBQDElZVpHFcDLz3VYc43_sioKwAqL5LAgEGrEMZw0mp9ndwoKLwXvKtptGv4m3YRf80A78WAj3Aiws3hTBQFZWD","width":2736}],"place_id":"ChIJmdXhmc5NqEcRiA8mzfi5pmU","plus_code":{"compound_code":"GFXF+VP Berlin","global_code":"9F4MGFXF+VP"},"price_level":1,"rating":4.5,"reference":"ChIJmdXhmc5NqEcRiA8mzfi5pmU","types":["restaurant","food","point_of_interest","establishment"],"user_ratings_total":88},{"business_status":"OPERATIONAL","formatted_address":"Dircksenstraße 37, 10178 Berlin","geometry":{"location":{"lat":52.523349,"lng":13.408199},"viewport":{"northeast":{"lat":52.52464717989272,"lng":13.40946262989272},"southwest":{"lat":52.52194752010728,"lng":13.40676297010728}}},"icon":"https://maps.gstatic.com/mapfiles/place_api/icons/v1/png_71/restaurant-71.png","icon_background_color":"#FF9E67","icon_mask_base_uri":"https://maps.gstatic.com/mapfiles/place_api/icons/v2/restaurant_pinlet","name":"THAI INSIDE","opening_hours":{"open_now":false},"photos":[{"height":2736,"html_attributions":["<a href=\"https://maps.google.com/maps/contrib/106830905106431254620\">Manuel Manson</a>"],"photo_reference":"AeJbb3e9zkSB85tkosOVwXtRQ9rBz2fH3VQVfUAWgCw9cn_NFT7BtnELY9sEj7Fmhba700kTUTpa169P7IWhWfH9xGR3vpLKjR_r_ay6D_MHOrOlv0RCD41h3PIrtG7TicMDfIowb1z7pzXLPB6lvLowBFtZ2vaMKeBsccOB3dulPpE_G9gV","width":3648}],"place_id":"ChIJsUNm1h9OqEcRgAiOD0ugSdc","plus_code":{"compound_code":"GCF5+87 Berlin","global_code":"9F4MGCF5+87"},"price_level":2,"rating":4.4,"reference":"ChIJsUNm1h9OqEcRgAiOD0ugSdc","types":["restaurant","food","point_of_interest","establishment"],"user_ratings_total":1078},{"business_status":"OPERATIONAL","formatted_address":"Dircksenstraße 47, 10178 Berlin","geometry":{"location":{"lat":52.5235723,"lng":13.4048624},"viewport":{"northeast":{"lat":52.52484867989271,"lng":13.40624567989272},"southwest":{"lat":52.52214902010727,"lng":13.40354602010728}}},"icon":"https://maps.gstatic.com/mapfiles/place_api/icons/v1/png_71/restaurant-71.png","icon_background_color":"#FF9E67","icon_mask_base_uri":"https://maps.gstatic.com/mapfiles/place_api/icons/v2/restaurant_pinlet","name":"Sisaket","opening_hours":{"open_now":false},"photos":[{"height":2448,"html_attributions":["<a href=\"https://maps.google.com/maps/contrib/115337668748731101909\">Michael Weiland</a>"],"photo_reference":"AeJbb3daqHP2BkfvzXIqkCni5HLX2wPBD7Znt3lswojpPv_EuKauW60OAM-obw6iBkmk4GZrJrr7hp1TYS7v01Yg-0TqssvAGvmqjp40oRkzCw_KaUICuTI5DhXJFyMwSplamaAhGOQe6-pQG5H-kMRXO2K_ltGXffwsV1GpVWZMSUaL0JWl","width":2448}],"place_id":"ChIJPVEjtNFRqEcRHU-kiAJW3bk","plus_code":{"compound_code":"GCF3+CW Berlin","global_code":"9F4MGCF3+CW"},"price_level":2,"rating":4.4,"reference":"ChIJPVEjtNFRqEcRHU-kiAJW3bk","types":["restaurant","food","point_of_interest","establishment"],"user_ratings_total":807},{"business_status":"OPERATIONAL","formatted_address":"Sonnenallee 134, 12059 Berlin","geometry":{"location":{"lat":52.4795275,"lng":13.4440589},"viewport":{"northeast":{"lat":52.48090977989271,"lng":13.44545112989272},"southwest":{"lat":52.47821012010727,"lng":13.44275147010728}}},"icon":"https://maps.gstatic.com/mapfiles/place_api/icons/v1/png_71/restaurant-71.png","icon_background_color":"#FF9E67","icon_mask_base_uri":"https://maps.gstatic.com/mapfiles/place_api/icons/v2/restaurant_pinlet","name":"Mae Charoen Thai Imbiss","opening_hours":{"open_now":false},"photos":[{"height":1836,"html_attributions":["<a href=\"https://maps.google.com/maps/contrib/108670420206574481799\">Patrick P</a>"],"photo_reference":"AeJbb3cz5DayyxWSYfeJ4v5XBRtAt1kC37S-MeV3t4jToMSIhtFAzNb9-9tF5edYqghwm-aEPZPyvuFNDiH2cHemZMBpxqrBKveOuFTPRjCBHLJuVBjguDNTbDv-PbCswO07iJr4xyHtwPuDtboM7uvx4KFkA49Ol457Y26B57z6AZvq6wWH","width":3264}],"place_id":"ChIJT3td16ZPqEcRwqrkpicCTMk","plus_code":{"compound_code":"FCHV+RJ Berlin","global_code":"9F4MFCHV+RJ"},"price_level":1,"rating":4.4,"reference":"ChIJT3td16ZPqEcRwqrkpicCTMk","types":["restaurant","food","point_of_interest","establishment"],"user_ratings_total":750},{"business_status":"OPERATIONAL","formatted_address":"Krossener Str. 11, 10245 Berlin","geometry":{"location":{"lat":52.5107063,"lng":13.4580612},"viewport":{"northeast":{"lat":52.51202352989272,"lng":13.45939537989272},"southwest":{"lat":52.50932387010727,"lng":13.45669572010728}}},"icon":"https://maps.gstatic.com/mapfiles/place_api/icons/v1/png_71/restaurant-71.png","icon_background_color":"#FF9E67","icon_mask_base_uri":"https://maps.gstatic.com/mapfiles/place_api/icons/v2/restaurant_pinlet","name":"papaya thai cuisine am boxhagener","opening_hours":{"open_now":false},"photos":[{"height":3120,"html_attributions":["<a href=\"https://maps.google.com/maps/contrib/112506547084030774387\">Sebastian Lück</a>"],"photo_reference":"AeJbb3dpM8KPvyXsOWd8DJNWnPDQ5qJ0oy6UBe2xKXK60zlSXBD1b-6rZE5ze-neUZXh5ij_f1pn0DiVBUgJ2xquSi3MtuX5jd4QEk76NrGLf8z38S9LEjGdpOUOPNHet-Vsf4wTFohzDYBnxCiizcshj1RtPkP8dHFL6T2PY9U9CMgqCMdJ","width":4160}],"place_id":"ChIJOTQkx15OqEcR4xkt2tIj6Xc","plus_code":{"compound_code":"GF65+76 Berlin","global_code":"9F4MGF65+76"},"price_level":2,"rating":4.4,"reference":"ChIJOTQkx15OqEcR4xkt2tIj6Xc","types":["restaurant","food","point_of_interest","establishment"],"user_ratings_total":638},{"business_status":"OPERATIONAL","formatted_address":"Kantstraße 133, 10625 Berlin","geometry":{"location":{"lat":52.5060468,"lng":13.3150963},"viewport":{"northeast":{"lat":52.50745737989272,"lng":13.31644082989272},"southwest":{"lat":52.50475772010728,"lng":13.31374117010728}}},"icon":"https://maps.gstatic.com/mapfiles/place_api/icons/v1/png_71/restaurant-71.png","icon_background_color":"#FF9E67","icon_mask_base_uri":"https://maps.gstatic.com/mapfiles/place_api/icons/v2/restaurant_pinlet","name":"DAO by Meo Thai-Restaurant","opening_hours":{"open_now":false},"photos":[{"height":3333,"html_attributions":["<a href=\"https://maps.google.com/maps/contrib/100513571698109059719\">100513571698109059719</a>"],"photo_reference":"AeJbb3dKnkqs3r0_WQd0RTQSQrSc0lv7AvIm7JVK-cCpGIrvcFjoab0tch3Ub6d1ny9SOuQY4FoCaJbT93-LiKwTn1jYJNvQi4LOIDFNg-fWPbiBVPUx4DiF0Uj36r97pB6_jdITsUvdYJaaLo8OBqxCp11YmnF6eK9E4cK05MLHZ5yV0C93","width":4574}],"place_id":"ChIJldZa3ONQqEcRGw4riZzQq5w","plus_code":{"compound_code":"G848+C2 Berlin","global_code":"9F4MG848+C2"},"price_level":2,"rating":4.4,"reference":"ChIJldZa3ONQqEcRGw4riZzQq5w","types":["restaurant","food","point_of_interest","establishment"],"user_ratings_total":569},{"business_status":"OPERATIONAL","formatted_address":"Wörther Str. 30, 10405 Berlin","geometry":{"location":{"lat":52.5363889,"lng":13.4197222},"viewport":{"northeast":{"lat":52.53766872989272,"lng":13.42101867989272},"southwest":{"lat":52.53496907010727,"lng":13.41831902010728}}},"icon":"https://maps.gstatic.com/mapfiles/place_api/icons/v1/png_71/restaurant-71.png","icon_background_color":"#FF9E67","icon_mask_base_uri":"https://maps.gstatic.com/mapfiles/place_api/icons/v2/restaurant_pinlet","name":"MaoThai Restaurant","opening_hours":{"open_now":false},"photos":[{"height":2988,"html_attributions":["<a href=\"https://maps.google.com/maps/contrib/102677006996874808236\">Thomas Emmdee</a>"],"photo_reference":"AeJbb3d-GyuWjuW2nKpFreLaibcXM3GZNe_kptrpocxElNYSw3813vyqNXQjAVZtdLyv46MnOd9Smikt5CSRZ4diHKlWy9m0jQUiLizEAcqWQSzbmZerhBSGKjOaWoVir8ORkb32DITvWAvBJRWz9duiM7qvJ_KfyyBx2NUD03xHkjCyU_UC","width":5312}],"place_id":"ChIJbWg1bwFOqEcRNbDIVGvgYDI","plus_code":{"compound_code":"GCP9+HV Berlin","global_code":"9F4MGCP9+HV"},"price_level":2,"rating":4.4,"reference":"ChIJbWg1bwFOqEcRNbDIVGvgYDI","types":["restaurant","food","point_of_interest","establishment"],"user_ratings_total":498},{"business_status":"OPERATIONAL","formatted_address":"Bergmannstraße 88, 10961 Berlin","geometry":{"location":{"lat":52.4893283,"lng":13.3934464},"viewport":{"northeast":{"lat":52.49059842989272,"lng":13.39475647989272},"southwest":{"lat":52.48789877010728,"lng":13.39205682010728}}},"icon":"https://maps.gstatic.com/mapfiles/place_api/icons/v1/png_71/restaurant-71.png","icon_background_color":"#FF9E67","icon_mask_base_uri":"https://maps.gstatic.com/mapfiles/place_api/icons/v2/restaurant_pinlet","name":"Pagode Thai Kitchen","opening_hours":{"open_now":false},"photos":[{"height":398,"html_attributions":["<a href=\"https://maps.google.com/maps/contrib/111562544764747122296\">Pagode Thai Kitchen</a>"],"photo_reference":"AeJbb3d2-LxPA4ozRgi9vEHNefXs67hdRdvxFlnSmzgjFgyEK14O7A59IjzhFnE5OB9f_UIXoh_haulN3Q8Qd4dlhvRm7na7dXhDjlSqWozBNumJ1AZOFW7mmzMLoAIMPvSUt7D5W4ylSUtk4hMLAL-rN5kcqT8DHuaWgyjIe6VuV4Hcbf7w","width":674}],"place_id":"ChIJSZUDPdhPqEcRgkY7H8j2lso","plus_code":{"compound_code":"F9QV+P9 Berlin","global_code":"9F4MF9QV+P9"},"price_level":1,"rating":4.4,"reference":"ChIJSZUDPdhPqEcRgkY7H8j2lso","types":["meal_takeaway","restaurant","food","point_of_interest","establishment"],"user_ratings_total":496},{"business_status":"OPERATIONAL","formatted_address":"Schreinerstraße 51, 10247 Berlin","geometry":{"location":{"lat":52.51735739999999,"lng":13.4660288},"viewport":{"northeast":{"lat":52.51864267989273,"lng":13.46737522989272},"southwest":{"lat":52.51594302010729,"lng":13.46467557010728}}},"icon":"https://maps.gstatic.com/mapfiles/place_api/icons/v1/png_71/restaurant-71.png","icon_background_color":"#FF9E67","icon_mask_base_uri":"https://maps.gstatic.com/mapfiles/place_api/icons/v2/restaurant_pinlet","name":"Thai Curry","opening_hours":{"open_now":false},"photos":[{"height":2610,"html_attributions":["<a href=\"https://maps.google.com/maps/contrib/110797656270587558132\">F</a>"],"photo_reference":"AeJbb3epMe-wznfMQi99j4Ab0AZrWcBAC2d61mx3tDxRaZ9wRaAlGhQRJqMbwSeGshHTp_eMQKXCZ4SGHxW7hgT5QmpCTZkmTOnzE3Hk4dMH4NChiZx8yx3YCnZyv36AcAeHbbZXLMRutUMDz_Y6-yyRn6JBR0g9Oyjr_Qay20jUD6rgnA29","width":4640}],"place_id":"ChIJn9ge0mFOqEcRjRkgnEsbOwE","plus_code":{"compound_code":"GF88+WC Berlin","global_code":"9F4MGF88+WC"},"price_level":1,"rating":4.4,"reference":"ChIJn9ge0mFOqEcRjRkgnEsbOwE","types":["restaurant","food","point_of_interest","establishment"],"user_ratings_total":242},{"business_status":"OPERATIONAL","formatted_address":"Teltower Damm 33, 14169 Berlin","geometry":{"location":{"lat":52.4318724,"lng":13.2595835},"viewport":{"northeast":{"lat":52.43317657989272,"lng":13.26089062989272},"southwest":{"lat":52.43047692010727,"lng":13.25819097010728}}},"icon":"https://maps.gstatic.com/mapfiles/place_api/icons/v1/png_71/restaurant-71.png","icon_background_color":"#FF9E67","icon_mask_base_uri":"https://maps.gstatic.com/mapfiles/place_api/icons/v2/restaurant_pinlet","name":"Koh Phai 33 - asiatisches Restaurant","opening_hours":{"open_now":false},"photos":[{"height":2084,"html_attributions":["<a href=\"https://maps.google.com/maps/contrib/102315762249162067957\">Ebert Artur</a>"],"photo_reference":"AeJbb3d58xJ7KQTDSKUBNCAo3mxLmIL0VWj0JZ-GJ9PMZW0j1UTWIKL8He--nnzi4oSz5T6f_Yb5qFVJLEgb8a9zMs-wp8hoNkNwK_H36EZWocSvLw5-dTUboEI8_ojKbblJW2krBBfc-zTjXHNbv3Wz5QhC4Yhu88SM_wQUMTZv7zaW-BHI","width":4624}],"place_id":"ChIJ_21KATNaqEcRyNS35iwlWY0","plus_code":{"compound_code":"C7J5+PR Berlin","global_code":"9F4MC7J5+PR"},"price_level":1,"rating":4.4,"reference":"ChIJ_21KATNaqEcRyNS35iwlWY0","types":["restaurant","food","point_of_interest","establishment"],"user_ratings_total":149},{"business_status":"OPERATIONAL","formatted_address":"Christstraße 32a, 14059 Berlin","geometry":{"location":{"lat":52.5165961,"lng":13.290781},"viewport":{"northeast":{"lat":52.51795302989272,"lng":13.29214367989272},"southwest":{"lat":52.51525337010727,"lng":13.28944402010728}}},"icon":"https://maps.gstatic.com/mapfiles/place_api/icons/v1/png_71/restaurant-71.png","icon_background_color":"#FF9E67","icon_mask_base_uri":"https://maps.gstatic.com/mapfiles/place_api/icons/v2/restaurant_pinlet","name":"New Asia Food","opening_hours":{"open_now":false},"photos":[{"height":4128,"html_attributions":["<a href=\"https://maps.google.com/maps/contrib/110475856073328164701\">Frosch Murmeltier</a>"],"photo_reference":"AeJbb3d7quZ8bOwX7rjdkjbev3u6aOLucMcAIDhzUTXBvLdxq__vAVH3eHlOsvvTl-Rnqh6gB3O6y7BB87Fdu6Fme_O8M7GNbOyT_19O08VXvKuaPCDKI-bnfCqbO2AujhvogYb4THZ1PaNwr28kkXDPT9U1DbIJcLVF6qNjNaCj3KycmKUF","width":3096}],"place_id":"ChIJ-3wgta9RqEcRCLoR5mNXG_0","plus_code":{"compound_code":"G78R+J8 Berlin","global_code":"9F4MG78R+J8"},"rating":4.4,"reference":"ChIJ-3wgta9RqEcRCLoR5mNXG_0","types":["restaurant","food","point_of_interest","establishment"],"user_ratings_total":23},{"business_status":"OPERATIONAL","formatted_address":"Feuerbachstraße 16, 12163 Berlin","geometry":{"location":{"lat":52.4631502,"lng":13.328954},"viewport":{"northeast":{"lat":52.46456917989272,"lng":13.33026707989272},"southwest":{"lat":52.46186952010728,"lng":13.32756742010728}}},"icon":"https://maps.gstatic.com/mapfiles/place_api/icons/v1/png_71/restaurant-71.png","icon_background_color":"#FF9E67","icon_mask_base_uri":"https://maps.gstatic.com/mapfiles/place_api/icons/v2/restaurant_pinlet","name":"Mai Phai","opening_hours":{"open_now":false},"photos":[{"height":2976,"html_attributions":["<a href=\"https://maps.google.com/maps/contrib/104681437323886140003\">Madleen Viol</a>"],"photo_reference":"AeJbb3clWnHUdHbrKPA6AekVdckLP4y8GKOmcBx4ydikoaTtH95b6gg4djO3KYnJsAOKOGg56kwYFnWkMZP1Oa8X0SaB9O7kY-L6XJcLlYpAqdkJar0hw3Hn6ijk8n24hJH70i0VHr1XjtGJhqLI5Rsk4qerhksKMJeglEm1DTaBcYOQ302p","width":3968}],"place_id":"ChIJfbrN84JaqEcR9Cy_BH_Kr_0","plus_code":{"compound_code":"F87H+7H Berlin","global_code":"9F4MF87H+7H"},"price_level":2,"rating":4.3,"reference":"ChIJfbrN84JaqEcR9Cy_BH_Kr_0","types":["restaurant","food","point_of_interest","establishment"],"user_ratings_total":677},{"business_status":"OPERATIONAL","formatted_address":"Winterfeldtstraße 42, 10781 Berlin","geometry":{"location":{"lat":52.4972423,"lng":13.3539745},"viewport":{"northeast":{"lat":52.49867632989272,"lng":13.35556647989272},"southwest":{"lat":52.49597667010728,"lng":13.35286682010728}}},"icon":"https://maps.gstatic.com/mapfiles/place_api/icons/v1/png_71/restaurant-71.png","icon_background_color":"#FF9E67","icon_mask_base_uri":"https://maps.gstatic.com/mapfiles/place_api/icons/v2/restaurant_pinlet","name":"Papaya am Winterfeldtplatz","opening_hours":{"open_now":false},"photos":[{"height":2988,"html_attributions":["<a href=\"https://maps.google.com/maps/contrib/100314518732833115568\">Maike M</a>"],"photo_reference":"AeJbb3cDsLwzyr9Ec1oc3__0BtqQWeiRgV78p-C7XBkoNUDxO4sQMChYgYth5Czyd6fy19UQ7YCpK6POA8wccDO-i4vD7Gbm_DgGZqWEBbTX5RxaMu4oNQQvaK0gNgwqIfRyJ2LDD6fIloJTRCZ1iZMtLg-5Doa1LRB5PcD23FKTU_ZA575P","width":5312}],"place_id":"ChIJdVAoHE9QqEcRT1azafbAFiI","plus_code":{"compound_code":"F9W3+VH Berlin","global_code":"9F4MF9W3+VH"},"price_level":1,"rating":4.3,"reference":"ChIJdVAoHE9QqEcRT1azafbAFiI","types":["restaurant","food","point_of_interest","establishment"],"user_ratings_total":419},{"business_status":"OPERATIONAL","formatted_address":"Südstern 14, 10961 Berlin","geometry":{"location":{"lat":52.4886227,"lng":13.40735},"viewport":{"northeast":{"lat":52.48998442989272,"lng":13.40872922989272},"southwest":{"lat":52.48728477010727,"lng":13.40602957010728}}},"icon":"https://maps.gstatic.com/mapfiles/place_api/icons/v1/png_71/restaurant-71.png","icon_background_color":"#FF9E67","icon_mask_base_uri":"https://maps.gstatic.com/mapfiles/place_api/icons/v2/restaurant_pinlet","name":"Kinnaree Thai","opening_hours":{"open_now":false},"photos":[{"height":2756,"html_attributions":["<a href=\"https://maps.google.com/maps/contrib/101019828633461689839\">Kinnaree Thai</a>"],"photo_reference":"AeJbb3dBJZ9gy4HA1PLyVIG6cahQHq074uAj376ZPNXTeqCUNrd59plPG00LI-JIRVD1XdlXtYZmeJ7CkisLCkLVhE-S6iqi5zmuPKHDgNNcvdWipGO0mDNpJ3XLdLB3QhnHVnk92mZ87PQ7HKLkBSJWw9Iz-YudhLVapss5rdunF07sHT7q","width":4134}],"place_id":"ChIJ8w9e989PqEcRtkv4AyiV0Y4","plus_code":{"compound_code":"FCQ4+CW Berlin","global_code":"9F4MFCQ4+CW"},"price_level":2,"rating":4.3,"reference":"ChIJ8w9e989PqEcRtkv4AyiV0Y4","types":["restaurant","food","point_of_interest","establishment"],"user_ratings_total":392},{"business_status":"OPERATIONAL","formatted_address":"Oranienburger Str. 69, 10117 Berlin","geometry":{"location":{"lat":52.524933,"lng":13.392456},"viewport":{"northeast":{"lat":52.52634122989272,"lng":13.39388682989272},"southwest":{"lat":52.52364157010727,"lng":13.39118717010728}}},"icon":"https://maps.gstatic.com/mapfiles/place_api/icons/v1/png_71/restaurant-71.png","icon_background_color":"#FF9E67","icon_mask_base_uri":"https://maps.gstatic.com/mapfiles/place_api/icons/v2/restaurant_pinlet","name":"Kamala","opening_hours":{"open_now":false},"photos":[{"height":2268,"html_attributions":["<a href=\"https://maps.google.com/maps/contrib/106981894115204690863\">A Google User</a>"],"photo_reference":"AeJbb3d9g_2VYiBPYfMl2bnZ3faZAZxlaEwQl0Mdy9x1-v1E0gOri7TGfuKR5KBHpw051YAE8xf6YLzPK5B_c1UHrACk5Fovs5gw5gkbJKwRWE5d6dTVRs1H3XATKLpbSPy1ZGIrCLpzeLqUtiJWqVjfLfOzeXJwR3a9QQ-2EjrsGWV-eH2a","width":4032}],"place_id":"ChIJm1eQXuhRqEcRVlMxToT7xlk","plus_code":{"compound_code":"G9FR+XX Berlin","global_code":"9F4MG9FR+XX"},"price_level":2,"rating":4.3,"reference":"ChIJm1eQXuhRqEcRVlMxToT7xlk","types":["restaurant","food","point_of_interest","establishment"],"user_ratings_total":353},{"business_status":"OPERATIONAL","formatted_address":"Kantstraße 134, 10625 Berlin","geometry":{"location":{"lat":52.50603,"lng":13.3156308},"viewport":{"northeast":{"lat":52.50742682989272,"lng":13.31706992989272},"southwest":{"lat":52.50472717010727,"lng":13.31437027010728}}},"icon":"https://maps.gstatic.com/mapfiles/place_api/icons/v1/png_71/restaurant-71.png","icon_background_color":"#FF9E67","icon_mask_base_uri":"https://maps.gstatic.com/mapfiles/place_api/icons/v2/restaurant_pinlet","name":"Sawaddie Thai Food","opening_hours":{"open_now":false},"photos":[{"height":4032,"html_attributions":["<a href=\"https://maps.google.com/maps/contrib/102785929839699407629\">Ivan Prgic</a>"],"photo_reference":"AeJbb3fMVyYOhEy819A5kHOP9fCNFqI6KLdxgs3YSEo46DJUtr6RRDZ6uSB1AJTZlOMGM5bZf5ACcDjH1TVMNywae4C8eq1LT74eVlVpKVeu2JB3lGFnWJPqqueIJl9KsrU5Z6_CNPQy56WbIZ1FiE6RrwVHyQfwmCy0JeoQfxivDf_qI19m","width":2268}],"place_id":"ChIJb7u3Fh5OqEcR3zzAOwQO1K4","plus_code":{"compound_code":"G848+C7 Berlin","global_code":"9F4MG848+C7"},"price_level":2,"rating":4.3,"reference":"ChIJb7u3Fh5OqEcR3zzAOwQO1K4","types":["restaurant","food","point_of_interest","establishment"],"user_ratings_total":301},{"business_status":"OPERATIONAL","formatted_address":"Knaackstraße 22, 10405 Berlin","geometry":{"location":{"lat":52.534814,"lng":13.4188597},"viewport":{"northeast":{"lat":52.53612732989273,"lng":13.42020232989272},"southwest":{"lat":52.53342767010729,"lng":13.41750267010728}}},"icon":"https://maps.gstatic.com/mapfiles/place_api/icons/v1/png_71/restaurant-71.png","icon_background_color":"#FF9E67","icon_mask_base_uri":"https://maps.gstatic.com/mapfiles/place_api/icons/v2/restaurant_pinlet","name":"Bangkok Bites","opening_hours":{"open_now":false},"photos":[{"height":4032,"html_attributions":["<a href=\"https://maps.google.com/maps/contrib/110437127660321152342\">Yulia Tolmacheva</a>"],"photo_reference":"AeJbb3eGOTjAnAt57PWGWJS4Yx-sI_pxVP3CjgtrK5zMNYgi_HFKDL-4Ksdu2d3a27kCvDd9DB6ExLXALYdlWMS5Bo5LN-JqD0yEXnJyGFSIDKDHK3GrmjYvgexSGAc8voWsaTD-zgPuxSoffSXgn3GIV-mnRWu444UTkwAoTZ_PS22kFxrT","width":3024}],"place_id":"ChIJL9-SxHlPqEcRZH4TfMH0Tl0","plus_code":{"compound_code":"GCM9+WG Berlin","global_code":"9F4MGCM9+WG"},"rating":4.3,"reference":"ChIJL9-SxHlPqEcRZH4TfMH0Tl0","types":["restaurant","food","point_of_interest","establishment"],"user_ratings_total":285},{"business_status":"OPERATIONAL","formatted_address":"Reichsstraße 92, 14052 Berlin","geometry":{"location":{"lat":52.51354070000001,"lng":13.2649471},"viewport":{"northeast":{"lat":52.51495702989273,"lng":13.26626672989272},"southwest":{"lat":52.51225737010729,"lng":13.26356707010728}}},"icon":"https://maps.gstatic.com/mapfiles/place_api/icons/v1/png_71/restaurant-71.png","icon_background_color":"#FF9E67","icon_mask_base_uri":"https://maps.gstatic.com/mapfiles/place_api/icons/v2/restaurant_pinlet","name":"Thai Food Orchidee","opening_hours":{"open_now":false},"photos":[{"height":2160,"html_attributions":["<a href=\"https://maps.google.com/maps/contrib/110982136917048366381\">A Google User</a>"],"photo_reference":"AeJbb3e0xSgud9wSVyy-gxB_kuU2wNjrmzHL_-rUbMur3VLIT2AWuDDwXAsButyMugKWvyZrQpETaqAJouxzfWUjhpRUlN-zsdXViUczCPhVUiIFWtB_07FTFXiZvn9OnHKmsMFcRa1BsM7smdFYSwkv3D5N-khNEex3USvwI-ACCd2E0Bzi","width":3840}],"place_id":"ChIJX4oVeyhXqEcRY68h8GYg1y4","plus_code":{"compound_code":"G777+CX Berlin","global_code":"9F4MG777+CX"},"price_level":1,"rating":4.3,"reference":"ChIJX4oVeyhXqEcRY68h8GYg1y4","types":["restaurant","food","point_of_interest","establishment"],"user_ratings_total":270},{"business_status":"OPERATIONAL","formatted_address":"Muthesiusstraße 38, 12163 Berlin","geometry":{"location":{"lat":52.46032109999999,"lng":13.3175282},"viewport":{"northeast":{"lat":52.46158842989272,"lng":13.31879942989272},"southwest":{"lat":52.45888877010728,"lng":13.31609977010728}}},"icon":"https://maps.gstatic.com/mapfiles/place_api/icons/v1/png_71/restaurant-71.png","icon_background_color":"#FF9E67","icon_mask_base_uri":"https://maps.gstatic.com/mapfiles/place_api/icons/v2/restaurant_pinlet","name":"Dokmai Thai Restaurant - Bringdienst - Berlin","opening_hours":{"open_now":false},"photos":[{"height":2322,"html_attributions":["<a href=\"https://maps.google.com/maps/contrib/104176766184582996581\">Sven Plura</a>"],"photo_reference":"AeJbb3dPajqpGVkihAvTEatSHqpx6zKMEb1Dja_HXuHrxNyz2wDNaQxIHFdzohg50cxUcea1AEXRslwrwq2IA8QGGtyX09utnz-wh-902_fz3r-OPbV80PK3gTQXzHp2gFyUKM7ztayF0BFmUuJfvj7CiI_tdhzEnO1WzdRzfX5rY29HcjS1","width":4128}],"place_id":"ChIJPZG-NodaqEcRFSyFqMx1L1w","plus_code":{"compound_code":"F869+42 Berlin","global_code":"9F4MF869+42"},"price_level":2,"rating":4.3,"reference":"ChIJPZG-NodaqEcRFSyFqMx1L1w","types":["meal_delivery","meal_takeaway","restaurant","food","point_of_interest","establishment"],"user_ratings_total":254},{"business_status":"OPERATIONAL","formatted_address":"Ansbacher Str. 26, 10789 Berlin","geometry":{"location":{"lat":52.5017669,"lng":13.3410828},"viewport":{"northeast":{"lat":52.50323572989272,"lng":13.34204557989272},"southwest":{"lat":52.50053607010727,"lng":13.33934592010728}}},"icon":"https://maps.gstatic.com/mapfiles/place_api/icons/v1/png_71/restaurant-71.png","icon_background_color":"#FF9E67","icon_mask_base_uri":"https://maps.gstatic.com/mapfiles/place_api/icons/v2/restaurant_pinlet","name":"Papaya Royal Thai Cuisine (KaDeWe)","opening_hours":{"open_now":false},"photos":[{"height":3024,"html_attributions":["<a href=\"https://maps.google.com/maps/contrib/114822255494975986941\">Sammi Chih</a>"],"photo_reference":"AeJbb3f4npbadSl1OFhNpUf5vMBV5YxpP3sAGGr9pG8wit1qfuJUNkdb5CKdAKAVtiBVpVFaRzpq0T5Br_CNR9zpJ6vn7Alxyfmz0M3E2r5COVr5OMrwH5Y8FO7O2L3L7p_RLw07Fb9NjfnR5Kh4vQnpwNzsPbzmta7FLNQT40c146yiQKCR","width":4032}],"place_id":"ChIJuQzNoVZQqEcRz_55HKmMz4U","plus_code":{"compound_code":"G82R+PC Berlin","global_code":"9F4MG82R+PC"},"rating":4.3,"reference":"ChIJuQzNoVZQqEcRz_55HKmMz4U","types":["restaurant","food","point_of_interest","establishment"],"user_ratings_total":55},{"business_status":"OPERATIONAL","formatted_address":"Hausvogteipl. 11, 10117 Berlin","geometry":{"location":{"lat":52.512539,"lng":13.3968225},"viewport":{"northeast":{"lat":52.51405322989272,"lng":13.39810217989272},"southwest":{"lat":52.51135357010728,"lng":13.39540252010728}}},"icon":"https://maps.gstatic.com/mapfiles/place_api/icons/v1/png_71/restaurant-71.png","icon_background_color":"#FF9E67","icon_mask_base_uri":"https://maps.gstatic.com/mapfiles/place_api/icons/v2/restaurant_pinlet","name":"Good Time Restaurant","opening_hours":{"open_now":false},"photos":[{"height":2268,"html_attributions":["<a href=\"https://maps.google.com/maps/contrib/116104589548826032312\">Daniel Markefka</a>"],"photo_reference":"AeJbb3dTfnPUjAx_p8Nw_LN3STYXCSSLk-pUCxGyhBY773DEEKIKmBc-QbjLWUzlcV_0RwOQFyUzZOPWjQv0RKWfK5Y39Olnlhyyw1thlHFhOOiIVUcb7aRgyYBc-G5JEubbco0Q-ekOhzvMZptgz1FvYSFOPd_3urCje4108le-w4zmZeVc","width":4032}],"place_id":"ChIJt7AEwNlRqEcRuxBAg1UoLHQ","plus_code":{"compound_code":"G97W+2P Berlin","global_code":"9F4MG97W+2P"},"price_level":2,"rating":4.2,"reference":"ChIJt7AEwNlRqEcRuxBAg1UoLHQ","types":["restaurant","food","point_of_interest","establishment"],"user_ratings_total":1672},{"business_status":"OPERATIONAL","formatted_address":"Simon-Dach-Straße 2, 10245 Berlin","geometry":{"location":{"lat":52.5125013,"lng":13.4571319},"viewport":{"northeast":{"lat":52.51381392989271,"lng":13.45864857989272},"southwest":{"lat":52.51111427010727,"lng":13.45594892010728}}},"icon":"https://maps.gstatic.com/mapfiles/place_api/icons/v1/png_71/restaurant-71.png","icon_background_color":"#FF9E67","icon_mask_base_uri":"https://maps.gstatic.com/mapfiles/place_api/icons/v2/restaurant_pinlet","name":"Lemongrass","opening_hours":{"open_now":false},"photos":[{"height":2304,"html_attributions":["<a href=\"https://maps.google.com/maps/contrib/105068131614729196436\">Florian Erbach</a>"],"photo_reference":"AeJbb3cRmdp3GIrBl3bEhI-IrSg60jneWMBe78hfdsbNvbi1rWCaHdOrmdHSwFxwcHhqRclGEpdTtLPd1eK-fgFuMi8Q8zUUpddLHbKoe1_frAInXK9b7l05ShsKBWeL5hrFsS4Q8D4xoD_-m02_vmme7nWQPGcjOaCKyJ-Eo2chCf7PXGaY","width":4096}],"place_id":"ChIJ4WacgF5OqEcREmhv4K5Cm9c","plus_code":{"compound_code":"GF64+XV Berlin","global_code":"9F4MGF64+XV"},"price_level":2,"rating":4.2,"reference":"ChIJ4WacgF5OqEcREmhv4K5Cm9c","types":["restaurant","food","point_of_interest","establishment"],"user_ratings_total":1201},{"business_status":"OPERATIONAL","formatted_address":"Ansbacher Str. 4, 10787 Berlin","geometry":{"location":{"lat":52.5043399,"lng":13.3424447},"viewport":{"northeast":{"lat":52.50569632989271,"lng":13.34396002989272},"southwest":{"lat":52.50299667010727,"lng":13.34126037010728}}},"icon":"https://maps.gstatic.com/mapfiles/place_api/icons/v1/png_71/restaurant-71.png","icon_background_color":"#FF9E67","icon_mask_base_uri":"https://maps.gstatic.com/mapfiles/place_api/icons/v2/restaurant_pinlet","name":"Suksan","opening_hours":{"open_now":false},"photos":[{"height":2988,"html_attributions":["<a href=\"https://maps.google.com/maps/contrib/112027240338437081662\">John Alex Hvidlykke</a>"],"photo_reference":"AeJbb3c1-p2WgkbpfGzZsUemDGesl6gCimkdY6_nMT4wgiFByRxSl8o6jU4tyoIjCJvhbuSDplmZeWiXGc9JX0hFJ6qdEfR935NtfCFe5XjcG34L_wGJdlLGFBqK_xBxSszlw-fTIRNObJd5Fp85QkgwfgJaCDnQImBNStMi6JUDPeLdWEb9","width":5312}],"place_id":"ChIJ4z2z9FRQqEcRb6XRKa2v4_w","plus_code":{"compound_code":"G83R+PX Berlin","global_code":"9F4MG83R+PX"},"price_level":2,"rating":4.2,"reference":"ChIJ4z2z9FRQqEcRb6XRKa2v4_w","types":["bar","restaurant","food","point_of_interest","establishment"],"user_ratings_total":886},{"business_status":"OPERATIONAL","formatted_address":"Dircksenstraße 40, 10178 Berlin","geometry":{"location":{"lat":52.5235406,"lng":13.4070642},"viewport":{"northeast":{"lat":52.52488292989272,"lng":13.40851017989272},"southwest":{"lat":52.52218327010727,"lng":13.40581052010728}}},"icon":"https://maps.gstatic.com/mapfiles/place_api/icons/v1/png_71/restaurant-71.png","icon_background_color":"#FF9E67","icon_mask_base_uri":"https://maps.gstatic.com/mapfiles/place_api/icons/v2/restaurant_pinlet","name":"Tuans Hütte Thai u. Sushi","opening_hours":{"open_now":false},"photos":[{"height":3264,"html_attributions":["<a href=\"https://maps.google.com/maps/contrib/113150371426069457546\">Jędrzej Kamiński</a>"],"photo_reference":"AeJbb3cUHS3WUCSLiso_9WAe_SYJe6y8Ri0OU0lNB_DiN0KctzfCg62Jnu-jWkwCMDk3-7Rao_H4Gdan_3I4-UEIoIBYg1LasdSRrmaB5JBksTwXiFPARyneKfdck_aPoJkkNl9bTIpVDY5RnPBHDHdgC_aTuHK2W-7GdrK0zdm-6GcKnP5k","width":4896}],"place_id":"ChIJ1zUeNOBRqEcR3KFIDPHd630","plus_code":{"compound_code":"GCF4+CR Berlin","global_code":"9F4MGCF4+CR"},"price_level":2,"rating":4.2,"reference":"ChIJ1zUeNOBRqEcR3KFIDPHd630","types":["restaurant","food","point_of_interest","establishment"],"user_ratings_total":792},{"business_status":"OPERATIONAL","formatted_address":"Fasanenstraße 15, 10623 Berlin","geometry":{"location":{"lat":52.5044759,"lng":13.3274366},"viewport":{"northeast":{"lat":52.50581902989271,"lng":13.32890077989272},"southwest":{"lat":52.50311937010727,"lng":13.32620112010728}}},"icon":"https://maps.gstatic.com/mapfiles/place_api/icons/v1/png_71/restaurant-71.png","icon_background_color":"#FF9E67","icon_mask_base_uri":"https://maps.gstatic.com/mapfiles/place_api/icons/v2/restaurant_pinlet","name":"Thai Restaurant Elephant","opening_hours":{"open_now":false},"photos":[{"height":2988,"html_attributions":["<a href=\"https://maps.google.com/maps/contrib/115382860268523556780\">Ohne Ende</a>"],"photo_reference":"AeJbb3cmcMsaZQqpJNRr6iT8Jf1dFQAsWOh_LGtNpUw_e16cxJHHglUjFxAIrTZk8G1lWODVTnXIXjwzAHTcqBa09f00OnDWd70oXLAfI04BYcKu4_NvONyCI7ZQ2jt6jvrQwOEfOnp2kp_0Qn9S3OpWfUsnhcNZpWteCYMjqgadqNc2l2Xa","width":5312}],"place_id":"ChIJ6cr-PfxQqEcRzvNqXmHPRjo","plus_code":{"compound_code":"G83G+QX Berlin","global_code":"9F4MG83G+QX"},"price_level":2,"rating":4.2,"reference":"ChIJ6cr-PfxQqEcRzvNqXmHPRjo","types":["restaurant","food","point_of_interest","establishment"],"user_ratings_total":470},{"business_status":"OPERATIONAL","formatted_address":"Ahornstraße 32, 12163 Berlin","geometry":{"location":{"lat":52.4604315,"lng":13.3231189},"viewport":{"northeast":{"lat":52.46189087989272,"lng":13.32439957989272},"southwest":{"lat":52.45919122010728,"lng":13.32169992010728}}},"icon":"https://maps.gstatic.com/mapfiles/place_api/icons/v1/png_71/restaurant-71.png","icon_background_color":"#FF9E67","icon_mask_base_uri":"https://maps.gstatic.com/mapfiles/place_api/icons/v2/restaurant_pinlet","name":"Sida","opening_hours":{"open_now":false},"photos":[{"height":2314,"html_attributions":["<a href=\"https://maps.google.com/maps/contrib/112975615921856871390\">Sebastian Gläsel</a>"],"photo_reference":"AeJbb3ffhkBfBbNsqqvUqnVzemd1GZOSWGMwgWiGA0NyiyoqjFhoA28Upe7DPbjIG-ZHRUIaAJeRYLMi0aCvcZC8c1aWVOSzgh_F2K3j2BkDfyepCE1qFEu3NXuA-XFao3KgPh8KVaOz4ZUgFG_TB-Y586pmjNYvhxfYhfIr50ntINmlOu5_","width":3340}],"place_id":"ChIJw34l-oNaqEcRFO-xPq5L4_k","plus_code":{"compound_code":"F86F+56 Berlin","global_code":"9F4MF86F+56"},"price_level":2,"rating":4.2,"reference":"ChIJw34l-oNaqEcRFO-xPq5L4_k","types":["restaurant","food","point_of_interest","establishment"],"user_ratings_total":273},{"business_status":"OPERATIONAL","formatted_address":"Kaiser-Friedrich-Straße 41, 10627 Berlin","geometry":{"location":{"lat":52.5089748,"lng":13.3016395},"viewport":{"northeast":{"lat":52.51029882989273,"lng":13.30309577989272},"southwest":{"lat":52.50759917010728,"lng":13.30039612010728}}},"icon":"https://maps.gstatic.com/mapfiles/place_api/icons/v1/png_71/restaurant-71.png","icon_background_color":"#FF9E67","icon_mask_base_uri":"https://maps.gstatic.com/mapfiles/place_api/icons/v2/restaurant_pinlet","name":"Samakki Talad Thai","opening_hours":{"open_now":false},"photos":[{"height":1536,"html_attributions":["<a href=\"https://maps.google.com/maps/contrib/116047042376324477519\">Benyapa Kaewmee</a>"],"photo_reference":"AeJbb3cPjO4wAaMNVQm6vgVh4rXKXmJ8u2VXph5qmsh7pX5FRa95wmRPZvtcLYAKW8mQdB2sdktAlLD9qlBq3t9Kn-mHOSnILAnsjLNfn04r5fKZtDW2SS37Plydo5GT_5qqdcM5VyNL6RrbRhnzoZ1fQrSQpjDoA2n9hV103fM2GcaQMCnB","width":2304}],"place_id":"ChIJ346qKd9QqEcR8xxSZGQy6PY","plus_code":{"compound_code":"G852+HM Berlin","global_code":"9F4MG852+HM"},"price_level":1,"rating":4.2,"reference":"ChIJ346qKd9QqEcR8xxSZGQy6PY","types":["restaurant","food","point_of_interest","establishment"],"user_ratings_total":209},{"business_status":"OPERATIONAL","formatted_address":"Hohenzollernpl 7-8, 14129 Berlin","geometry":{"location":{"lat":52.4305338,"lng":13.1935385},"viewport":{"northeast":{"lat":52.43192932989272,"lng":13.19500112989272},"southwest":{"lat":52.42922967010728,"lng":13.19230147010728}}},"icon":"https://maps.gstatic.com/mapfiles/place_api/icons/v1/png_71/restaurant-71.png","icon_background_color":"#FF9E67","icon_mask_base_uri":"https://maps.gstatic.com/mapfiles/place_api/icons/v2/restaurant_pinlet","name":"thai hang","opening_hours":{"open_now":false},"photos":[{"height":4032,"html_attributions":["<a href=\"https://maps.google.com/maps/contrib/118086898362855343595\">Julian Albrecht</a>"],"photo_reference":"AeJbb3cLg4oF9_acnzw35ZsHiuVqnCkAYC8KI0DLWjkQ0V9H8xqX3bVszHgtdKg720fTBp1Kuur3OmEzOnxW8daMX_jNEDYvQrTdhDfqkaWngkaGYCorwF6BUzeYHAztz2FnqlqbHBggHPdoS6lFaDh7q3_ZZNDD1UMwE-Jjdz3s5GG7n5YZ","width":3024}],"place_id":"ChIJ01rdWg9ZqEcR-hweZpJfl1U","plus_code":{"compound_code":"C5JV+6C Berlin","global_code":"9F4MC5JV+6C"},"price_level":1,"rating":4.2,"reference":"ChIJ01rdWg9ZqEcR-hweZpJfl1U","types":["restaurant","food","point_of_interest","establishment"],"user_ratings_total":102},{"business_status":"OPERATIONAL","formatted_address":"Prenzlauer Allee 226, 10405 Berlin","geometry":{"location":{"lat":52.5334138,"lng":13.4204015},"viewport":{"northeast":{"lat":52.53471737989272,"lng":13.42185517989272},"southwest":{"lat":52.53201772010728,"lng":13.41915552010728}}},"icon":"https://maps.gstatic.com/mapfiles/place_api/icons/v1/png_71/restaurant-71.png","icon_background_color":"#FF9E67","icon_mask_base_uri":"https://maps.gstatic.com/mapfiles/place_api/icons/v2/restaurant_pinlet","name":"Linh Thai Snack","opening_hours":{"open_now":false},"photos":[{"height":3000,"html_attributions":["<a href=\"https://maps.google.com/maps/contrib/100920691169342024140\">Fernando Veiga</a>"],"photo_reference":"AeJbb3cd8HtOabL7Jpnvl_3gjWKNqb-eOeAAOrlOSnSXKbil-5ZYBYQoqR4Iqma6DSp2Zt6YchrqrWqmJWWRLqVUvHwgTqvJYOoVyELjud0hPYExq_mSBe8XxcRsZdUlEJ1Kpb5SOGN4zfxSvYKDY2o7hWZ6iToPohoHWkTCaTe08F80PBVB","width":3000}],"place_id":"ChIJzfIkgQNOqEcR2a0zbBGr-to","plus_code":{"compound_code":"GCMC+95 Berlin","global_code":"9F4MGCMC+95"},"price_level":1,"rating":4.2,"reference":"ChIJzfIkgQNOqEcR2a0zbBGr-to","types":["restaurant","food","point_of_interest","establishment"],"user_ratings_total":101},{"business_status":"OPERATIONAL","formatted_address":"Luisenstraße 14, 10117 Berlin","geometry":{"location":{"lat":52.52338839999999,"lng":13.3793534},"viewport":{"northeast":{"lat":52.52473517989272,"lng":13.38076662989272},"southwest":{"lat":52.52203552010728,"lng":13.37806697010728}}},"icon":"https://maps.gstatic.com/mapfiles/place_api/icons/v1/png_71/restaurant-71.png","icon_background_color":"#FF9E67","icon_mask_base_uri":"https://maps.gstatic.com/mapfiles/place_api/icons/v2/restaurant_pinlet","name":"Thai Tasty","opening_hours":{"open_now":false},"photos":[{"height":3024,"html_attributions":["<a href=\"https://maps.google.com/maps/contrib/103100646849164449052\">San</a>"],"photo_reference":"AeJbb3d_5TbZOjIx2ufQJO4KMlDD69mbMycUekio_n6mRnsDoBc5UFVlFTmNRjjtreCBqLxBe4WYq_PsogNTWWhhVtHFMYmMWq24YRK0FwmjrOaWPDL8UBgNXSCfz82IXMqvDT6r_PzpRQ-PynBZ2Z0NgqfPMxLvN2Nfsl5wWz1o40GbaMAj","width":4032}],"place_id":"ChIJz8FnPMBRqEcRdPwZZO4bIR8","plus_code":{"compound_code":"G9FH+9P Berlin","global_code":"9F4MG9FH+9P"},"rating":4.1,"reference":"ChIJz8FnPMBRqEcRdPwZZO4bIR8","types":["restaurant","food","point_of_interest","establishment"],"user_ratings_total":93},{"business_status":"OPERATIONAL","formatted_address":"Hufelandstraße 10, 10407 Berlin","geometry":{"location":{"lat":52.5323173,"lng":13.4306803},"viewport":{"northeast":{"lat":52.53368042989272,"lng":13.43204537989272},"southwest":{"lat":52.53098077010728,"lng":13.42934572010727}}},"icon":"https://maps.gstatic.com/mapfiles/place_api/icons/v1/png_71/restaurant-71.png","icon_background_color":"#FF9E67","icon_mask_base_uri":"https://maps.gstatic.com/mapfiles/place_api/icons/v2/restaurant_pinlet","name":"Thaipagode","opening_hours":{"open_now":false},"photos":[{"height":2610,"html_attributions":["<a href=\"https://maps.google.com/maps/contrib/105594615591055212377\">Hans-Christian Höpcke</a>"],"photo_reference":"AeJbb3cpnziu0pS6TiIE8jGKzsUsNgmHMHmV7jaEgN43zZItfuMX7jZkBPNbgtTeV5eOd_xCFLqHiTA4E-9dDHw2AYS5N_gMZhpUAXwJRJeqP3f0sCsDuNzTQf0XLJmhY_b2LQcGI9yeKM5JgAVhczHONLGkGY2coshEsjT8vVe3re2_ch11","width":4640}],"place_id":"ChIJ1-e9CQ9OqEcRR_ZRcIubdnM","plus_code":{"compound_code":"GCJJ+V6 Berlin","global_code":"9F4MGCJJ+V6"},"price_level":1,"rating":4.1,"reference":"ChIJ1-e9CQ9OqEcRR_ZRcIubdnM","types":["restaurant","food","point_of_interest","establishment"],"user_ratings_total":70},{"business_status":"OPERATIONAL","formatted_address":"Brunnenstraße 4, 10119 Berlin","geometry":{"location":{"lat":52.5305468,"lng":13.4009862},"viewport":{"northeast":{"lat":52.53183887989272,"lng":13.40222857989272},"southwest":{"lat":52.52913922010728,"lng":13.39952892010728}}},"icon":"https://maps.gstatic.com/mapfiles/place_api/icons/v1/png_71/restaurant-71.png","icon_background_color":"#FF9E67","icon_mask_base_uri":"https://maps.gstatic.com/mapfiles/place_api/icons/v2/restaurant_pinlet","name":"Thai Ha","opening_hours":{"open_now":false},"photos":[{"height":2988,"html_attributions":["<a href=\"https://maps.google.com/maps/contrib/101029841636826689539\">A Google User</a>"],"photo_reference":"AeJbb3dGOCaW9JH2XX_0qI3xx038VBF6Yy9GCC41myjVecq87hoy-Y7PUJ7kWPfOkYX2NKYxMvNjpLw1j9_UNILPmP6hcFMcaxzSOpB0cAz9IaUlAr69PZgjOAhuvespW4ALaDDswpb3mAtaFQ4qQMS5EdsYxS0aI8kZ_fAHen2jDc2LoLyK","width":5312}],"place_id":"ChIJGx7T7-RRqEcRSGNhoU7IDg8","plus_code":{"compound_code":"GCJ2+69 Berlin","global_code":"9F4MGCJ2+69"},"price_level":1,"rating":3.8,"reference":"ChIJGx7T7-RRqEcRSGNhoU7IDg8","types":["restaurant","food","point_of_interest","establishment"],"user_ratings_total":179},{"business_status":"OPERATIONAL","formatted_address":"Linienstraße 134, 10115 Berlin","geometry":{"location":{"lat":52.5264518,"lng":13.3877732},"viewport":{"northeast":{"lat":52.52772557989272,"lng":13.38911142989272},"southwest":{"lat":52.52502592010728,"lng":13.38641177010728}}},"icon":"https://maps.gstatic.com/mapfiles/place_api/icons/v1/png_71/restaurant-71.png","icon_background_color":"#FF9E67","icon_mask_base_uri":"https://maps.gstatic.com/mapfiles/place_api/icons/v2/restaurant_pinlet","name":"Thai Cuisine Berlin Mitte","opening_hours":{"open_now":false},"photos":[{"height":4032,"html_attributions":["<a href=\"https://maps.google.com/maps/contrib/100213798728581483562\">Mihkel Saar</a>"],"photo_reference":"AeJbb3d6lmVPVw8hE0u9o9BRA2rT7I9AcJskIW8Sq38Tz_VzJc2RGmJYa9hVYCovuU_zlIlVlqnPRWBTaCDA6V9DT2HKWkRuAWKSicP0lX8fUdopv19eBH15T53oN_icluLCBgRZqinr2BVxlff9n_v5gxm8lkNnbGr48yx11Sxue2QGFNlG","width":3024}],"place_id":"ChIJTQ4pculRqEcRsJI4oSZ8wCs","plus_code":{"compound_code":"G9GQ+H4 Berlin","global_code":"9F4MG9GQ+H4"},"price_level":2,"rating":3.4,"reference":"ChIJTQ4pculRqEcRsJI4oSZ8wCs","types":["restaurant","food","point_of_interest","establishment"],"user_ratings_total":204}]