[{"business_status":"OPERATIONAL","formatted_address":"Torstraße 223, 10115 Berlin, Germany","geometry":{"location":{"lat":52.5276128,"lng":13.3883611},"viewport":{"northeast":{"lat":52.52886712989273,"lng":13.38977917989272},"southwest":{"lat":52.52616747010728,"lng":13.38707952010728}}},"icon":"https://maps.gstatic.com/mapfiles/place_api/icons/v1/png_71/restaurant-71.png","icon_background_color":"#FF9E67","icon_mask_base_uri":"https://maps.gstatic.com/mapfiles/place_api/icons/v2/restaurant_pinlet","name":"Arata Sushi Berlin","opening_hours":{"open_now":true},"photos":[{"height":3264,"html_attributions":["<a href=\"https://maps.google.com/maps/contrib/106460672875224582880\">Marcus Kozok</a>"],"photo_reference":"AeJbb3cubqK22F7RVjicVTZGCSFlPap07-HXbSI6FWsGFuULsKVonnMJtmmNdYroYhu1oEtmrAg8_g9xhln4LCm07fEbInn1zG_pI_xZPyfNiAMWSdJ6-RbWQF16Lo7H8XVkHDdKi9nTkPv1EGrAjSH_fBPEIxqId2rY8M_uVI_-cdmA35iJ","width":4352}],"place_id":"ChIJJd2pRulRqEcRsYnQ0Rcx0LE","plus_code":{"compound_code":"G9HQ+28 Berlin","global_code":"9F4MG9HQ+28"},"rating":4.8,"reference":"ChIJJd2pRulRqEcRsYnQ0Rcx0LE","types":["meal_takeaway","restaurant","food","point_of_interest","establishment"],"user_ratings_total":438},{"business_status":"OPERATIONAL","formatted_address":"Propststraße 1, 10178 Berlin, Germany","geometry":{"location":{"lat":52.5173357,"lng":13.4078687},"viewport":{"northeast":{"lat":52.51891897989272,"lng":13.40888937989272},"southwest":{"lat":52.51621932010728,"lng":13.40618972010727}}},"icon":"https://maps.gstatic.com/mapfiles/place_api/icons/v1/png_71/restaurant-71.png","icon_background_color":"#FF9E67","icon_mask_base_uri":"https://maps.gstatic.com/mapfiles/place_api/icons/v2/restaurant_pinlet","name":"Cyclo","opening_hours":{"open_now":true},"photos":[{"height":3024,"html_attributions":["<a href=\"https://maps.google.com/maps/contrib/102549882106903183823\">A Google User</a>"],"photo_reference":"AeJbb3fYqSrUCxadYLqQ0Hfs99cYsVTt_m8DEU1Edw16w7XUtODGORkiuufsK_zhOcdA7z5FKDEQMqQTJZu62rkIM7gCpzc-7hxf4pVvt2_cuGxTomAbXm7eonVyKSA8QQqwFXYSACpbXdoV_rx-pTCJDnbSToUaxAIXShI7bLl64w6jhImS","width":4032}],"place_id":"ChIJAQDw6yBOqEcR3ni-3Iur8iI","plus_code":{"compound_code":"GC85+W4 Berlin","global_code":"9F4MGC85+W4"},"rating":4.7,"reference":"ChIJAQDw6yBOqEcR3ni-3Iur8iI","types":["restaurant","food","point_of_interest","establishment"],"user_ratings_total":401},{"business_status":"OPERATIONAL","formatted_address":"Brückenstraße 15, 10179 Berlin, Germany","geometry":{"location":{"lat":52.5115507,"lng":13.4166279},"viewport":{"northeast":{"lat":52.51293447989272,"lng":13.41805957989272},"southwest":{"lat":52.51023482010728,"lng":13.41535992010728}}},"icon":"https://maps.gstatic.com/mapfiles/place_api/icons/v1/png_71/restaurant-71.png","icon_background_color":"#FF9E67","icon_mask_base_uri":"https://maps.gstatic.com/mapfiles/place_api/icons/v2/restaurant_pinlet","name":"Don Sushi 15","opening_hours":{"open_now":true},"photos":[{"height":3780,"html_attributions":["<a href=\"https://maps.google.com/maps/contrib/110908176409111894088\">A Google User</a>"],"photo_reference":"AeJbb3ceIz2RT913XJg9yCef1u1Dkz5KpMQ-YZBp_hD1Z7slGEuo7n3rYXJL-0V3kLjWNEOVKQn7wXwp_77EMgbGqNMZhSt0ThvG6wy-d7Dh61wFYgwrrl3HW0_cmzXikJdHXvdbJwladNLEQg9KKhbu7COrdDgfeTsmlvqa-uhlLFr8q5kv","width":3024}],"place_id":"ChIJb_E1LyVOqEcRgPnxVe3ssNM","plus_code":{"compound_code":"GC68+JM Berlin","global_code":"9F4MGC68+JM"},"price_level":1,"rating":4.7,"reference":"ChIJb_E1LyVOqEcRgPnxVe3ssNM","types":["restaurant","food","point_of_interest","establishment"],"user_ratings_total":199},{"business_status":"OPERATIONAL","formatted_address":"Oranienstraße 191, 10999 Berlin, Germany","geometry":{"location":{"lat":52.5002575,"lng":13.4224502},"viewport":{"northeast":{"lat":52.50167412989272,"lng":13.42389317989272},"southwest":{"lat":52.49897447010728,"lng":13.42119352010728}}},"icon":"https://maps.gstatic.com/mapfiles/place_api/icons/v1/png_71/restaurant-71.png","icon_background_color":"#FF9E67","icon_mask_base_uri":"https://maps.gstatic.com/mapfiles/place_api/icons/v2/restaurant_pinlet","name":"Com A Sushi & Asia Grill","opening_hours":{"open_now":true},"photos":[{"height":4000,"html_attributions":["<a href=\"https://maps.google.com/maps/contrib/102464499398935712595\">Cơm Á</a>"],"photo_reference":"AeJbb3d6nnMwbAsiWswAAM12UCSp7_tj323Nl194KVYiPBz7dHVv0Y3HSwHuBPhyeHHZVvMfriHgqhTH7OQDIGCItUw7CBugr7vOHY807w496XtaRykagg6IufK0JjeQyH5vaj6stMMKHwz-0q_iAOF7gvonNOsGlKz3VkllAYiGEY_WjItD","width":6000}],"place_id":"ChIJyV_Q9zROqEcRYzFV92kUqSs","plus_code":{"compound_code":"GC2C+4X Berlin","global_code":"9F4MGC2C+4X"},"price_level":2,"rating":4.6,"reference":"ChIJyV_Q9zROqEcRYzFV92kUqSs","types":["meal_takeaway","meal_delivery","restaurant","food","point_of_interest","establishment"],"user_ratings_total":692},{"business_status":"OPERATIONAL","formatted_address":"Bergmannstraße 89, 10961 Berlin, Germany","geometry":{"location":{"lat":52.48934260000001,"lng":13.3931822},"viewport":{"northeast":{"lat":52.49064082989272,"lng":13.39452972989272},"southwest":{"lat":52.48794117010727,"lng":13.39183007010728}}},"icon":"https://maps.gstatic.com/mapfiles/place_api/icons/v1/png_71/restaurant-71.png","icon_background_color":"#FF9E67","icon_mask_base_uri":"https://maps.gstatic.com/mapfiles/place_api/icons/v2/restaurant_pinlet","name":"Kamiko Sushi","opening_hours":{"open_now":true},"photos":[{"height":1080,"html_attributions":["<a href=\"https://maps.google.com/maps/contrib/101856837476553792266\">A Google User</a>"],"photo_reference":"AeJbb3dN_WFshuR6tj67-k4TaoI57d3BszTb5VdQ7Ft0IlhM6lerPMGzPrBZgpxg2LrvJyZoJ40NFQef-uK1j1YkePHUmGpob1jtm4SE9qqPyht5VgdPtI7VkyadCL8D1O58vPD951qneZunIth-3ATrHklC4VZrR5fDwGUuSsBFoW9Dq7Oo","width":1080}],"place_id":"ChIJISFwGNhPqEcRY9yHJ2avLsU","plus_code":{"compound_code":"F9QV+Q7 Berlin","global_code":"9F4MF9QV+Q7"},"rating":4.6,"reference":"ChIJISFwGNhPqEcRY9yHJ2avLsU","types":["restaurant","food","point_of_interest","establishment"],"user_ratings_total":653},{"business_status":"OPERATIONAL","formatted_address":"Wiener Straße 60, 10999 Berlin, Germany","geometry":{"location":{"lat":52.4982042,"lng":13.4307959},"viewport":{"northeast":{"lat":52.49947182989273,"lng":13.43215227989272},"southwest":{"lat":52.49677217010728,"lng":13.42945262010728}}},"icon":"https://maps.gstatic.com/mapfiles/place_api/icons/v1/png_71/restaurant-71.png","icon_background_color":"#FF9E67","icon_mask_base_uri":"https://maps.gstatic.com/mapfiles/place_api/icons/v2/restaurant_pinlet","name":"Little Long - Japanese Modern & Fusion Cuisine","opening_hours":{"open_now":true},"photos":[{"height":1080,"html_attributions":["<a href=\"https://maps.google.com/maps/contrib/112713863950707416972\">A Google User</a>"],"photo_reference":"AeJbb3eOWrwlzzuOfu0ro84-6_D-9m06LwTAEMFx-7Qmucvb4lg2qU-keoMT4AsJOS2ic39te_ZC3L8ggbijFcJCtgTBRmoVwV9FKdXbFGqLkeYtX2Mw3zknYg3dLI-nmDbJOtjFrxZJfjoREhkwnj32wonfK1tPr8q0et6VJbFHnEoW3E5K","width":1620}],"place_id":"ChIJr6ibAfBPqEcRaT0LXswejRY","plus_code":{"compound_code":"FCXJ+78 Berlin","global_code":"9F4MFCXJ+78"},"price_level":2,"rating":4.6,"reference":"ChIJr6ibAfBPqEcRaT0LXswejRY","types":["restaurant","food","point_of_interest","establishment"],"user_ratings_total":483},{"business_status":"OPERATIONAL","formatted_address":"Petersburger Pl. 2, 10249 Berlin, Germany","geometry":{"location":{"lat":52.5216078,"lng":13.4495406},"viewport":{"northeast":{"lat":52.52298277989272,"lng":13.45100517989272},"southwest":{"lat":52.52028312010727,"lng":13.44830552010728}}},"icon":"https://maps.gstatic.com/mapfiles/place_api/icons/v1/png_71/restaurant-71.png","icon_background_color":"#FF9E67","icon_mask_base_uri":"https://maps.gstatic.com/mapfiles/place_api/icons/v2/restaurant_pinlet","name":"Xigon","opening_hours":{"open_now":true},"photos":[{"height":1125,"html_attributions":["<a href=\"https://maps.google.com/maps/contrib/100154078123304638044\">Xigon</a>"],"photo_reference":"AeJbb3d2DCXdtMM1D9pbQMYlhZRomQvFHt2D90jmYY2zc_Jhco4qGhlS2t8gbcY6C5il_zATcCChtmGmEfHK-kfuN72c-iT0jvlAZSgxxK94_iLFG778_HXx7b0CTN23THsPXFAQlNzQETpnx-9ZkMw-2POt3UrNKfc7Siy0Mj-bBxexW0LP","width":2000}],"place_id":"ChIJiz9NLGlOqEcR1TidE_7U7mY","plus_code":{"compound_code":"GCCX+JR Berlin","global_code":"9F4MGCCX+JR"},"price_level":2,"rating":4.5,"reference":"ChIJiz9NLGlOqEcR1TidE_7U7mY","types":["restaurant","food","point_of_interest","establishment"],"user_ratings_total":1295},{"business_status":"OPERATIONAL","formatted_address":"Stresemannstraße 48, 10963 Berlin, Germany","geometry":{"location":{"lat":52.5017767,"lng":13.3862946},"viewport":{"northeast":{"lat":52.50309767989271,"lng":13.38746522989272},"southwest":{"lat":52.50039802010727,"lng":13.38476557010728}}},"icon":"https://maps.gstatic.com/mapfiles/place_api/icons/v1/png_71/restaurant-71.png","icon_background_color":"#FF9E67","icon_mask_base_uri":"https://maps.gstatic.com/mapfiles/place_api/icons/v2/restaurant_pinlet","name":"Mirami Sushi Restaurant","opening_hours":{"open_now":true},"photos":[{"height":3024,"html_attributions":["<a href=\"https://maps.google.com/maps/contrib/100407620421222877020\">A Google User</a>"],"photo_reference":"AeJbb3fGG9ujy_pvWA44oDZZgka109Kh5TFXe2M9eHQ3LzQF3Y74xr3R1D5E2vqVVWzKmmuiI16FzcK2oiHHbWQNHI8mqkOBaZ-6nOryASrRLGLwErrI0UNg1YkZiolEsqNzG8aIcW637LvvK7wzTsCuK0W83vpZ5x9ZZ5YoyVWt__KIqJH-","width":4032}],"place_id":"ChIJyeXRiCVRqEcRNp3p1Taf_bA","plus_code":{"compound_code":"G92P+PG Berlin","global_code":"9F4MG92P+PG"},"price_level":2,"rating":4.5,"reference":"ChIJyeXRiCVRqEcRNp3p1Taf_bA","types":["restaurant","food","point_of_interest","establishment"],"user_ratings_total":882},{"business_status":"OPERATIONAL","formatted_address":"Skalitzer Str. 73, 10997 Berlin, Germany","geometry":{"location":{"lat":52.5010634,"lng":13.4410611},"viewport":{"northeast":{"lat":52.50237087989272,"lng":13.44252802989272},"southwest":{"lat":52.49967122010728,"lng":13.43982837010728}}},"icon":"https://maps.gstatic.com/mapfiles/place_api/icons/v1/png_71/restaurant-71.png","icon_background_color":"#FF9E67","icon_mask_base_uri":"https://maps.gstatic.com/mapfiles/place_api/icons/v2/restaurant_pinlet","name":"Mikoto Sushi - Kreuzberg","opening_hours":{"open_now":true},"photos":[{"height":2336,"html_attributions":["<a href=\"https://maps.google.com/maps/contrib/108643772911963147931\">Lars Kuester</a>"],"photo_reference":"AeJbb3dMNELt42OEY2fP0g9-z8UBZW3_zmVAyA9GDxbFOufVsmBqN3D3-zMPZbj-NOvx1d299ye0mMm4rjBWuV39tQ6wMmFHa6IhIVJ37J4AMuF1lj4lHJ4wa3rfdktnDP5veICiWwcwqHFPoVtG5EqiLXk_N7wLKw0fTPquW-5_Xt-JuMLS","width":4160}],"place_id":"ChIJfziMc05OqEcR74o_HSkK5fg","plus_code":{"compound_code":"GC2R+CC Berlin","global_code":"9F4MGC2R+CC"},"price_level":2,"rating":4.5,"reference":"ChIJfziMc05OqEcR74o_HSkK5fg","types":["restaurant","food","point_of_interest","establishment"],"user_ratings_total":874},{"business_status":"OPERATIONAL","formatted_address":"Kottbusser Damm 102, 10967 Berlin, Germany","geometry":{"location":{"lat":52.495152,"lng":13.4210108},"viewport":{"northeast":{"lat":52.49648777989272,"lng":13.42231757989272},"southwest":{"lat":52.49378812010728,"lng":13.41961792010728}}},"icon":"https://maps.gstatic.com/mapfiles/place_api/icons/v1/png_71/restaurant-71.png","icon_background_color":"#FF9E67","icon_mask_base_uri":"https://maps.gstatic.com/mapfiles/place_api/icons/v2/restaurant_pinlet","name":"Musashi","opening_hours":{"open_now":true},"photos":[{"height":2988,"html_attributions":["<a href=\"https://maps.google.com/maps/contrib/109430868634095382385\">El Beg</a>"],"photo_reference":"AeJbb3fvWTo3o6ZuNmyPwkfUQgosjX2cY1nL1rBIZoNG42KhWICQ0l6D146v0zyhg2SpyBtRBdDKeoeWecba665pcJEC4UqX2_Uyhrtu1JHdI9B1db_nH5MmQ0BWfav7HGoomnhHFk1MdJfOeJ1hPRPGgZjYkWScGfsT5p0Y8yCp3FCRw030","width":5312}],"place_id":"ChIJ9b0vAMtPqEcRCL5GL83zhbo","plus_code":{"compound_code":"FCWC+3C Berlin","global_code":"9F4MFCWC+3C"},"price_level":1,"rating":4.5,"reference":"ChIJ9b0vAMtPqEcRCL5GL83zhbo","types":["restaurant","food","point_of_interest","establishment"],"user_ratings_total":554},{"business_status":"OPERATIONAL","formatted_address":"Reichenberger Str. 176, 10999 Berlin, Germany","geometry":{"location":{"lat":52.4997045,"lng":13.4170335},"viewport":{"northeast":{"lat":52.50096012989272,"lng":13.41834757989272},"southwest":{"lat":52.49826047010728,"lng":13.41564792010728}}},"icon":"https://maps.gstatic.com/mapfiles/place_api/icons/v1/png_71/restaurant-71.png","icon_background_color":"#FF9E67","icon_mask_base_uri":"https://maps.gstatic.com/mapfiles/place_api/icons/v2/restaurant_pinlet","name":"Sushi Tako","opening_hours":{"open_now":true},"photos":[{"height":1200,"html_attributions":["<a href=\"https://maps.google.com/maps/contrib/113119902447746541093\">A Google User</a>"],"photo_reference":"AeJbb3cslLYbGWRFCsmqQ4Jr1iuqjPno5gHDWXGyw_Z07X_XVWOwJA83IUKGLJI5TMy-69f0XmgwVdcums6t3Hc_GsHPx0nKcZWnsFfRtrxsKgyHm6Jsgc-qHeuHGSztmdVXbEDyPWrxXRLSzYUmgA1s4_LGVdJzoaoPcqzTb7PJ5TiMsqje","width":1920}],"place_id":"ChIJLwvTYBBPqEcRxiBp3iagrpM","plus_code":{"compound_code":"FCX8+VR Berlin","global_code":"9F4MFCX8+VR"},"rating":4.5,"reference":"ChIJLwvTYBBPqEcRxiBp3iagrpM","types":["restaurant","food","point_of_interest","establishment"],"user_ratings_total":2},{"business_status":"OPERATIONAL","formatted_address":"Boeckh-Haus, Mittelstraße 24, 10117 Berlin, Germany","geometry":{"location":{"lat":52.5180359,"lng":13.3867837},"viewport":{"northeast":{"lat":52.51933047989272,"lng":13.38818207989272},"southwest":{"lat":52.51663082010727,"lng":13.38548242010728}}},"icon":"https://maps.gstatic.com/mapfiles/place_api/icons/v1/png_71/restaurant-71.png","icon_background_color":"#FF9E67","icon_mask_base_uri":"https://maps.gstatic.com/mapfiles/place_api/icons/v2/restaurant_pinlet","name":"Ishin Mittelstraße","opening_hours":{"open_now":true},"photos":[{"height":3024,"html_attributions":["<a href=\"https://maps.google.com/maps/contrib/106403747003212612546\">Hansong Kim</a>"],"photo_reference":"AeJbb3fhGCjL8Pc1-FUXhAeNqN_KgmtFVIomHuLYXhS5yL2cLi9n8WxXRbTj5rAwjWS2_vhKbbbD4OP9icYwztm3dIdOXdxbsc5_ZjwYaX6XY7hnJbo8L0kb1vlyQqWolEdx3VU8hYf8K6fWjb8E-vBZ1cU4GgSff2O46cjpWYtIjNeX_ufu","width":4032}],"place_id":"ChIJXZ4AgcRRqEcRzwjWx_mEBAY","plus_code":{"compound_code":"G99P+6P Berlin","global_code":"9F4MG99P+6P"},"price_level":2,"rating":4.4,"reference":"ChIJXZ4AgcRRqEcRzwjWx_mEBAY","types":["restaurant","food","point_of_interest","establishment"],"user_ratings_total":1613},{"business_status":"OPERATIONAL","formatted_address":"Charlottenstraße 63, Kronenstraße 54, 10117 Berlin, Germany","geometry":{"location":{"lat":52.5114352,"lng":13.391266},"viewport":{"northeast":{"lat":52.51275172989272,"lng":13.39262007989272},"southwest":{"lat":52.51005207010727,"lng":13.38992042010728}}},"icon":"https://maps.gstatic.com/mapfiles/place_api/icons/v1/png_71/restaurant-71.png","icon_background_color":"#FF9E67","icon_mask_base_uri":"https://maps.gstatic.com/mapfiles/place_api/icons/v2/restaurant_pinlet","name":"Sapa Restaurant","opening_hours":{"open_now":true},"photos":[{"height":1960,"html_attributions":["<a href=\"https://maps.google.com/maps/contrib/101576192272365788770\">Marc Hofstetter</a>"],"photo_reference":"AeJbb3cLp__NasiRp-qX9U_c3k1NEai23i6nQyUhvgO7NL6zQMvi_nliV7akDT50tCj1BiNCxKaB6VHG00szWafp_m6jKiS0aeOpkYO69QDr0K-3xxdiiQVh-TxsanaHt15uMn22M162rkzvS5QrHm3aLEeBznikRRX0LeUu83RDq69V9umE","width":4032}],"place_id":"ChIJkVoNkNBRqEcRWaRFZfK1ysM","plus_code":{"compound_code":"G96R+JG Berlin","global_code":"9F4MG96R+JG"},"price_level":2,"rating":4.4,"reference":"ChIJkVoNkNBRqEcRWaRFZfK1ysM","types":["restaurant","food","point_of_interest","establishment"],"user_ratings_total":524},{"business_status":"OPERATIONAL","formatted_address":"Graefestraße 83, 10967 Berlin, Germany","geometry":{"location":{"lat":52.4940497,"lng":13.4188168},"viewport":{"northeast":{"lat":52.49542742989272,"lng":13.42004437989272},"southwest":{"lat":52.49272777010728,"lng":13.41734472010728}}},"icon":"https://maps.gstatic.com/mapfiles/place_api/icons/v1/png_71/restaurant-71.png","icon_background_color":"#FF9E67","icon_mask_base_uri":"https://maps.gstatic.com/mapfiles/place_api/icons/v2/restaurant_pinlet","name":"Kissho Sushi","opening_hours":{"open_now":true},"photos":[{"height":2349,"html_attributions":["<a href=\"https://maps.google.com/maps/contrib/106477200049263034394\">Andreas Sohns</a>"],"photo_reference":"AeJbb3dbXhSS2JivrBtF2nhZXCLIuY0njQ7WnBoTmmOGH8Q6ZfK8OP_LjE20HoFqTEe0MGzdG7fgHtc5xJDvzakSlQWx-tefRX94DSuWIZvtLvlY_vL2GAt7XaRESEdGUdXrzKfbMOMzKB70xMB8TUg0v0eGoWiphFdz3NONuWNEaX6t5StF","width":3133}],"place_id":"ChIJ_830v8tPqEcROmpTtE4MCOc","plus_code":{"compound_code":"FCV9+JG Berlin","global_code":"9F4MFCV9+JG"},"price_level":2,"rating":4.4,"reference":"ChIJ_830v8tPqEcROmpTtE4MCOc","types":["restaurant","food","point_of_interest","establishment"],"user_ratings_total":347},{"business_status":"OPERATIONAL","formatted_address":"Torstraße 176, 10115 Berlin, Germany","geometry":{"location":{"lat":52.5285472,"lng":13.3946203},"viewport":{"northeast":{"lat":52.52996887989273,"lng":13.39592607989272},"southwest":{"lat":52.52726922010729,"lng":13.39322642010728}}},"icon":"https://maps.gstatic.com/mapfiles/place_api/icons/v1/png_71/restaurant-71.png","icon_background_color":"#FF9E67","icon_mask_base_uri":"https://maps.gstatic.com/mapfiles/place_api/icons/v2/restaurant_pinlet","name":"Aki Tatsu Sushi & more","opening_hours":{"open_now":true},"photos":[{"height":3024,"html_attributions":["<a href=\"https://maps.google.com/maps/contrib/101057587796809047715\">M4llo3r R31.</a>"],"photo_reference":"AeJbb3fQY6wtlrLFQAOj89Rhsgu1Ghs6jNAk_0EFp8m8KoFSzu4BdJTBJacXzZrNKxcbFZCwcZpwcD7wk8UR7MyyRBBwxSJXHnP363OmnCtrwHzOg9uk2TzZka2hlNKkUhDm0GPOpz0TI_mkcy3Fcb2HlBUgU4-X02hnB0XESX1OsFyfcBwR","width":4032}],"place_id":"ChIJd4o2V-9RqEcRvMNXT6OINxc","plus_code":{"compound_code":"G9HV+CV Berlin","global_code":"9F4MG9HV+CV"},"price_level":2,"rating":4.4,"reference":"ChIJd4o2V-9RqEcRvMNXT6OINxc","types":["restaurant","food","point_of_interest","establishment"],"user_ratings_total":147},{"business_status":"OPERATIONAL","formatted_address":"Oranienburger Str. 52, 10117 Berlin, Germany","geometry":{"location":{"lat":52.5259259,"lng":13.38825},"viewport":{"northeast":{"lat":52.52733377989271,"lng":13.38962962989272},"southwest":{"lat":52.52463412010727,"lng":13.38692997010728}}},"icon":"https://maps.gstatic.com/mapfiles/place_api/icons/v1/png_71/restaurant-71.png","icon_background_color":"#FF9E67","icon_mask_base_uri":"https://maps.gstatic.com/mapfiles/place_api/icons/v2/restaurant_pinlet","name":"Soul Sushi Berlin Mitte","opening_hours":{"open_now":true},"photos":[{"height":1505,"html_attributions":["<a href=\"https://maps.google.com/maps/contrib/101762441645861581499\">A Google User</a>"],"photo_reference":"AeJbb3dtumJZlEenYvJlAh1P7v_HP5Nk7u5J-mLv3f_Md8OiXp0tlAh0yR3_mtmW11iWPkgBVpdTd3XrdIZuyhH-g1KMwyaRCMiyehpzc5uR7qQtltFcOEH-9642si_rFUKQVsz-bvA8I7ETCVagQ2SXxlHRnMUKZYmJCUgGO6pFgoc9FtBU","width":2745}],"place_id":"ChIJM3pMHbFRqEcRfl6I7G2T77o","plus_code":{"compound_code":"G9GQ+97 Berlin","global_code":"9F4MG9GQ+97"},"rating":4.4,"reference":"ChIJM3pMHbFRqEcRfl6I7G2T77o","types":["meal_takeaway","restaurant","food","point_of_interest","establishment"],"user_ratings_total":68},{"business_status":"OPERATIONAL","formatted_address":"Gipsstraße 3, 10119 Berlin, Germany","geometry":{"location":{"lat":52.5272241,"lng":13.3992725},"viewport":{"northeast":{"lat":52.52858292989273,"lng":13.40063947989272},"southwest":{"lat":52.52588327010729,"lng":13.39793982010728}}},"icon":"https://maps.gstatic.com/mapfiles/place_api/icons/v1/png_71/restaurant-71.png","icon_background_color":"#FF9E67","icon_mask_base_uri":"https://maps.gstatic.com/mapfiles/place_api/icons/v2/restaurant_pinlet","name":"KUCHI Mitte","opening_hours":{"open_now":true},"photos":[{"height":1350,"html_attributions":["<a href=\"https://maps.google.com/maps/contrib/116357215548363261520\">KUCHI Mitte</a>"],"photo_reference":"AeJbb3dAQHFYYm2J77uOPiMHuymYPGQaBB4Q1bVhfdML_FR2c5sd0JK3-8wq8VkxoNiLVOD7Nzi5kqCAOuXR3jzrO7FxGsWDR2NYDKJqhgKJOn6lcCbdaNC6HMaqQonQr1FueUQbxemRBya2aszRHCCSCaipPG0_EZSd2Rqiox2J1eMTZh0t","width":1080}],"place_id":"ChIJm-3LnOZRqEcR92nspyUjgro","plus_code":{"compound_code":"G9GX+VM Berlin","global_code":"9F4MG9GX+VM"},"price_level":2,"rating":4.3,"reference":"ChIJm-3LnOZRqEcR92nspyUjgro","types":["meal_takeaway","restaurant","food","point_of_interest","establishment"],"user_ratings_total":1583},{"business_status":"OPERATIONAL","formatted_address":"Zossener Str. 18, 10961 Berlin, Germany","geometry":{"location":{"lat":52.4908247,"lng":13.3940427},"viewport":{"northeast":{"lat":52.49217482989272,"lng":13.39542402989272},"southwest":{"lat":52.48947517010728,"lng":13.39272437010728}}},"icon":"https://maps.gstatic.com/mapfiles/place_api/icons/v1/png_71/restaurant-71.png","icon_background_color":"#FF9E67","icon_mask_base_uri":"https://maps.gstatic.com/mapfiles/place_api/icons/v2/restaurant_pinlet","name":"Sushi Cube","opening_hours":{"open_now":true},"photos":[{"height":2304,"html_attributions":["<a href=\"https://maps.google.com/maps/contrib/103427185938342108504\">Joshua Heid</a>"],"photo_reference":"AeJbb3egeMrr9PQPVhaGfvqGlOQmZh7y1UViypa5qSghvxcd9nqwPRvh1BSJh9sZVJXrW9r5QgLvdBUn1B4w4aKL2VrYWU7uMFBGIEOphZ5rb6rc8zxvryCPxsv1JGlBRU5jPt-aeMuV-cmMWR852FnbTCRoCRX3PmbijS8Z4ZuqJGoQGhC3","width":4096}],"place_id":"ChIJC1II7ddPqEcR6a1jSkfEGrA","plus_code":{"compound_code":"F9RV+8H Berlin","global_code":"9F4MF9RV+8H"},"price_level":1,"rating":4.3,"reference":"ChIJC1II7ddPqEcR6a1jSkfEGrA","types":["restaurant","food","point_of_interest","establishment"],"user_ratings_total":677},{"business_status":"OPERATIONAL","formatted_address":"Reinhardtstraße 6, 10117 Berlin, Germany","geometry":{"location":{"lat":52.5238611,"lng":13.3869471},"viewport":{"northeast":{"lat":52.52518237989272,"lng":13.38830917989272},"southwest":{"lat":52.52248272010728,"lng":13.38560952010728}}},"icon":"https://maps.gstatic.com/mapfiles/place_api/icons/v1/png_71/restaurant-71.png","icon_background_color":"#FF9E67","icon_mask_base_uri":"https://maps.gstatic.com/mapfiles/place_api/icons/v2/restaurant_pinlet","name":"Akito","opening_hours":{"open_now":true},"photos":[{"height":2268,"html_attributions":["<a href=\"https://maps.google.com/maps/contrib/105921376005573432272\">Daniel Weber</a>"],"photo_reference":"AeJbb3dP5uuMoWYEU7XGXfHiRu8XQzTPg-r7C7IO_39Sp_sHWWueH7i8X0rsv_C76lrUwzlVKVZaSUwGFNF1V_zHWxqRCyT30HjAE04PIQQbroCmsyZzVuaxwUkXExk9r7sX06Bcaliyc4OuUHFo6OMYdqFFX_9jQq7ZCQWoWgEhtqKkbne6","width":4032}],"place_id":"ChIJVwuG3elRqEcRLSTCckVtxJU","plus_code":{"compound_code":"G9FP+HQ Berlin","global_code":"9F4MG9FP+HQ"},"price_level":2,"rating":4.3,"reference":"ChIJVwuG3elRqEcRLSTCckVtxJU","types":["restaurant","food","point_of_interest","establishment"],"user_ratings_total":354},{"business_status":"OPERATIONAL","formatted_address":"Tamara-Danz-Straße 11, Hedwig-Wachenheim-Straße 1-9, 10243 Berlin, Germany","geometry":{"location":{"lat":52.5060259,"lng":13.44545},"viewport":{"northeast":{"lat":52.50739672989271,"lng":13.44674057989272},"southwest":{"lat":52.50469707010727,"lng":13.44404092010728}}},"icon":"https://maps.gstatic.com/mapfiles/place_api/icons/v1/png_71/restaurant-71.png","icon_background_color":"#FF9E67","icon_mask_base_uri":"https://maps.gstatic.com/mapfiles/place_api/icons/v2/restaurant_pinlet","name":"ZEN East Side","opening_hours":{"open_now":true},"photos":[{"height":5521,"html_attributions":["<a href=\"https://maps.google.com/maps/contrib/116139373710450443016\">A Google User</a>"],"photo_reference":"AeJbb3csT8zSF2bJNdJvhZo5qG9jDLU0xqRGd7s_iqhIzu6Qg3F6hrIxiVrp95OOCjoy7BLs02_0dAr1oz6UzqgWbu8dCgv4-XLGjwUEjNaDlwBzuw4_dqWvjh-l_b5Y9ie9aoZXuBc5Yq00D9af2_wqBeL1akZl2nWZA-OyeQ7vjMVZjFv2","width":7361}],"place_id":"ChIJx7vfx6tPqEcRirhW81Clv0c","plus_code":{"compound_code":"GC4W+C5 Berlin","global_code":"9F4MGC4W+C5"},"rating":4.3,"reference":"ChIJx7vfx6tPqEcRirhW81Clv0c","types":["restaurant","food","point_of_interest","establishment"],"user_ratings_total":284},{"business_status":"OPERATIONAL","formatted_address":"Rosenthaler Str. 61, 10119 Berlin, Germany","geometry":{"location":{"lat":52.5275703,"lng":13.4034419},"viewport":{"northeast":{"lat":52.52892152989272,"lng":13.40473982989272},"southwest":{"lat":52.52622187010728,"lng":13.40204017010728}}},"icon":"https://maps.gstatic.com/mapfiles/place_api/icons/v1/png_71/restaurant-71.png","icon_background_color":"#FF9E67","icon_mask_base_uri":"https://maps.gstatic.com/mapfiles/place_api/icons/v2/restaurant_pinlet","name":"Fuki Sushi","opening_hours":{"open_now":true},"photos":[{"height":3024,"html_attributions":["<a href=\"https://maps.google.com/maps/contrib/116629450829635436230\">Sandra Hsieh</a>"],"photo_reference":"AeJbb3eNT7s-nXIrEONFxlS5pFy1xHPiy6E3hokASsypZmHkgX6ymFr52KObJZQ68S6oh--2gbvo3ce_L0kVWVuTateaYtoQ7dAnWcYa8Hs0oanlhuxxJLK3gUWMOHQUtxsR664H7nw56pEz1jdJy4tORrOPzo9ooFf2fnELq0XIgcJG5-r3","width":4032}],"place_id":"ChIJXS9A5eNRqEcRHSb8SFAo8Ws","plus_code":{"compound_code":"GCH3+29 Berlin","global_code":"9F4MGCH3+29"},"price_level":1,"rating":4.3,"reference":"ChIJXS9A5eNRqEcRHSb8SFAo8Ws","types":["restaurant","food","point_of_interest","establishment"],"user_ratings_total":233},{"business_status":"OPERATIONAL","formatted_address":"Brückenstraße 3, 10179 Berlin, Germany","geometry":{"location":{"lat":52.5121098,"lng":13.4171535},"viewport":{"northeast":{"lat":52.51344267989271,"lng":13.41847622989272},"southwest":{"lat":52.51074302010727,"lng":13.41577657010728}}},"icon":"https://maps.gstatic.com/mapfiles/place_api/icons/v1/png_71/restaurant-71.png","icon_background_color":"#FF9E67","icon_mask_base_uri":"https://maps.gstatic.com/mapfiles/place_api/icons/v2/restaurant_pinlet","name":"Nem & More","opening_hours":{"open_now":true},"photos":[{"height":960,"html_attributions":["<a href=\"https://maps.google.com/maps/contrib/116518835356149576811\">Anh Pham</a>"],"photo_reference":"AeJbb3dfPolKPN2WLXO22t8_6nPpN5xECZhLYDtHHFThk2wcMkxDVu4Cy8GbPmLAlPG1IKkX7SH4kE0fVaRSE4ek5w4vLoFhIwo5gD05K7iFHIpwqnbI6hZIcDarMbwXI0JrA2Whuc7wSZkzRU5MpcGYL3f7Sw7Bi_i04vJ3xgUDUcqsgZFO","width":1280}],"place_id":"ChIJeRTS1iROqEcR1WlZT-2J6Jo","plus_code":{"compound_code":"GC68+RV Berlin","global_code":"9F4MGC68+RV"},"price_level":1,"rating":4.3,"reference":"ChIJeRTS1iROqEcR1WlZT-2J6Jo","types":["restaurant","food","point_of_interest","establishment"],"user_ratings_total":224},{"business_status":"OPERATIONAL","formatted_address":"Str. der Pariser Kommune 27, 10243 Berlin, Germany","geometry":{"location":{"lat":52.5154,"lng":13.43977},"viewport":{"northeast":{"lat":52.51673087989272,"lng":13.44129312989272},"southwest":{"lat":52.51403122010728,"lng":13.43859347010728}}},"icon":"https://maps.gstatic.com/mapfiles/place_api/icons/v1/png_71/restaurant-71.png","icon_background_color":"#FF9E67","icon_mask_base_uri":"https://maps.gstatic.com/mapfiles/place_api/icons/v2/restaurant_pinlet","name":"Rice Rolls Berlin","opening_hours":{"open_now":true},"photos":[{"height":1200,"html_attributions":["<a href=\"https://maps.google.com/maps/contrib/114912178046171083748\">A Google User</a>"],"photo_reference":"AeJbb3f2kDUeUv6lnQJ3CR7gIKQQMfagdEjBzuSb0XKC4sqixcgGcTOM5JEFBuPjPFyBDr8gL2VGi_0h5p5zJ7LbmRHvWACLAwlmAOZhCEygCuFwye6hVYVEyMAgizsQ1o8rS_sNmjT3ZTA1c8CE9SURFavwlzDOn3hk4svFuTToUSITdhzT","width":1600}],"place_id":"ChIJaeRNwk1PqEcR2_rp-a7TVAw","plus_code":{"compound_code":"GC8Q+5W Berlin","global_code":"9F4MGC8Q+5W"},"rating":4.3,"reference":"ChIJaeRNwk1PqEcR2_rp-a7TVAw","types":["restaurant","food","point_of_interest","establishment"],"user_ratings_total":90},{"business_status":"OPERATIONAL","formatted_address":"Brunnenstraße 193, 10119 Berlin, Germany","geometry":{"location":{"lat":52.53053749999999,"lng":13.4003995},"viewport":{"northeast":{"lat":52.53190502989272,"lng":13.40180357989272},"southwest":{"lat":52.52920537010728,"lng":13.39910392010728}}},"icon":"https://maps.gstatic.com/mapfiles/place_api/icons/v1/png_71/restaurant-71.png","icon_background_color":"#FF9E67","icon_mask_base_uri":"https://maps.gstatic.com/mapfiles/place_api/icons/v2/restaurant_pinlet","name":"Aiko","opening_hours":{"open_now":true},"photos":[{"height":2268,"html_attributions":["<a href=\"https://maps.google.com/maps/contrib/107099242812770205013\">Sylvain Renevey</a>"],"photo_reference":"AeJbb3exKrF4W9VqlTvcqbjPacLNhr8pGLQ0Acq4EwmkXbysPKqtKbnWg2v2_DgJPFlkFT2XNSICjD2kM7gite6msa01bsoF_u4fZQ-vz7fKxVbJEp6RNP7hwbs8Aa-JD_quZ3gnB700T65It-QVRO7az3IFIx5kFEPa6zwUdxoB1a8oXvuK","width":4032}],"place_id":"ChIJH7xk--RRqEcRV80_iDg9rlQ","plus_code":{"compound_code":"GCJ2+65 Berlin","global_code":"9F4MGCJ2+65"},"price_level":2,"rating":4.2,"reference":"ChIJH7xk--RRqEcRV80_iDg9rlQ","types":["restaurant","food","point_of_interest","establishment"],"user_ratings_total":1854},{"business_status":"OPERATIONAL","formatted_address":"Leipziger Str. 30, 10117 Berlin, Germany","geometry":{"location":{"lat":52.5102414,"lng":13.3907171},"viewport":{"northeast":{"lat":52.51167267989272,"lng":13.39249517989272},"southwest":{"lat":52.50897302010728,"lng":13.38979552010728}}},"icon":"https://maps.gstatic.com/mapfiles/place_api/icons/v1/png_71/restaurant-71.png","icon_background_color":"#FF9E67","icon_mask_base_uri":"https://maps.gstatic.com/mapfiles/place_api/icons/v2/restaurant_pinlet","name":"Otito Vietnamese Food","opening_hours":{"open_now":true},"photos":[{"height":3038,"html_attributions":["<a href=\"https://maps.google.com/maps/contrib/117913792465903154813\">A Google User</a>"],"photo_reference":"AeJbb3fzH4_i6QEqGyYQDH1kuVYutr0p27DZ4EdmwVzcWy5szqavDPikeDm03xT3UMVJOipxodDEnuupEkOhPJB2_6Df7-DecdmuMZ-UwleOF7a6PgDO88e9LDg4MZ0sOW2aTtKKxnzKGaxlfmMR9KGe8akv-dLcTHANcwnnBqd_guFpmdEw","width":4558}],"place_id":"ChIJr3FiUNBRqEcRW-2xZuTrL3M","plus_code":{"compound_code":"G96R+37 Berlin","global_code":"9F4MG96R+37"},"price_level":1,"rating":4.2,"reference":"ChIJr3FiUNBRqEcRW-2xZuTrL3M","types":["restaurant","meal_delivery","meal_takeaway","food","point_of_interest","establishment"],"user_ratings_total":1138},{"business_status":"OPERATIONAL","formatted_address":"Kronenstraße 66, 10117 Berlin, Germany","geometry":{"location":{"lat":52.5112976,"lng":13.3886859},"viewport":{"northeast":{"lat":52.51258397989272,"lng":13.39009132989272},"southwest":{"lat":52.50988432010728,"lng":13.38739167010728}}},"icon":"https://maps.gstatic.com/mapfiles/place_api/icons/v1/png_71/restaurant-71.png","icon_background_color":"#FF9E67","icon_mask_base_uri":"https://maps.gstatic.com/mapfiles/place_api/icons/v2/restaurant_pinlet","name":"Izumi Restaurant-Sushi Bar & Lieferservice","opening_hours":{"open_now":true},"photos":[{"height":3171,"html_attributions":["<a href=\"https://maps.google.com/maps/contrib/113665661664034452109\">A Google User</a>"],"photo_reference":"AeJbb3eN1S9l-AhV2wk2ek4logPlCy0DYgjdeYlCRS2irWs0vdbco13unYhO7bRrbtCTm3J0ufoHGK4H_lwOreZ0e1c40Cus6-5AltKULdQ6Vmd9vipgj40X4Zu5mqzPP1-T1IvrKwUntnqcQ-ENOGmXxM7TudhiVHvacRqqjemszapM5T82","width":3024}],"place_id":"ChIJQwHEa9BRqEcRp_3YUzY8dos","plus_code":{"compound_code":"G96Q+GF Berlin","global_code":"9F4MG96Q+GF"},"price_level":2,"rating":4.2,"reference":"ChIJQwHEa9BRqEcRp_3YUzY8dos","types":["meal_takeaway","restaurant","food","point_of_interest","establishment"],"user_ratings_total":870},{"business_status":"OPERATIONAL","formatted_address":"Dircksenstraße 40, 10178 Berlin, Germany","geometry":{"location":{"lat":52.5235406,"lng":13.4070642},"viewport":{"northeast":{"lat":52.52488292989272,"lng":13.40851017989272},"southwest":{"lat":52.52218327010727,"lng":13.40581052010728}}},"icon":"https://maps.gstatic.com/mapfiles/place_api/icons/v1/png_71/restaurant-71.png","icon_background_color":"#FF9E67","icon_mask_base_uri":"https://maps.gstatic.com/mapfiles/place_api/icons/v2/restaurant_pinlet","name":"Tuans Hütte Thai u. Sushi","opening_hours":{"open_now":true},"photos":[{"height":3024,"html_attributions":["<a href=\"https://maps.google.com/maps/contrib/111493244809799691884\">Jens Löwenstein</a>"],"photo_reference":"AeJbb3fVwaHlknT4WBSAWrMno57Wz9rTCe464NqiHYgbUCg79F1A8Y3dvOKjDB4kJYHy0Sqy3Irumb2l1dc93GA35UlulxTW-UvPm_51tNS5UU3yZGZu_m2L7RPhIZ3iAyj_HJOc-qL8v5tceriU3mE31Rt8NCyXc6cymbEJKH3_rM-5FFor","width":4032}],"place_id":"ChIJ1zUeNOBRqEcR3KFIDPHd630","plus_code":{"compound_code":"GCF4+CR Berlin","global_code":"9F4MGCF4+CR"},"price_level":2,"rating":4.2,"reference":"ChIJ1zUeNOBRqEcR3KFIDPHd630","types":["restaurant","food","point_of_interest","establishment"],"user_ratings_total":791},{"business_status":"OPERATIONAL","formatted_address":"Weinbergsweg 4, 10119 Berlin, Germany","geometry":{"location":{"lat":52.5306576,"lng":13.4022845},"viewport":{"northeast":{"lat":52.53203842989272,"lng":13.40353227989272},"southwest":{"lat":52.52933877010727,"lng":13.40083262010728}}},"icon":"https://maps.gstatic.com/mapfiles/place_api/icons/v1/png_71/restaurant-71.png","icon_background_color":"#FF9E67","icon_mask_base_uri":"https://maps.gstatic.com/mapfiles/place_api/icons/v2/restaurant_pinlet","name":"Nihombashi","opening_hours":{"open_now":true},"photos":[{"height":1062,"html_attributions":["<a href=\"https://maps.google.com/maps/contrib/112469293560052947906\">Nadira Tania</a>"],"photo_reference":"AeJbb3fIkBuYWvYMUKk0vJQJCZsKJ0D7OE18bFAgbsL5aj17zd7yiC7IEDBWVGVVHXQnFP7dB5RO5l0Z_-eXhhXDbWZSMVonUTjeU0QM6QmV1XA3OjFSuspUiUEhGa28j-SArMsNh8yhCPreWbweuF8xMDTaxXBcog43nXAs86DI_Ze01hTZ","width":1596}],"place_id":"ChIJBQDwkuRRqEcRsIViqqNPZvQ","plus_code":{"compound_code":"GCJ2+7W Berlin","global_code":"9F4MGCJ2+7W"},"price_level":2,"rating":4.2,"reference":"ChIJBQDwkuRRqEcRsIViqqNPZvQ","types":["restaurant","food","point_of_interest","establishment"],"user_ratings_total":506},{"business_status":"OPERATIONAL","formatted_address":"Oranienstraße 10, 10997 Berlin, Germany","geometry":{"location":{"lat":52.5001134,"lng":13.4240687},"viewport":{"northeast":{"lat":52.50140962989272,"lng":13.42537847989272},"southwest":{"lat":52.49870997010728,"lng":13.42267882010728}}},"icon":"https://maps.gstatic.com/mapfiles/place_api/icons/v1/png_71/restaurant-71.png","icon_background_color":"#FF9E67","icon_mask_base_uri":"https://maps.gstatic.com/mapfiles/place_api/icons/v2/restaurant_pinlet","name":"iiu Sushi Asia Food","opening_hours":{"open_now":true},"photos":[{"height":3024,"html_attributions":["<a href=\"https://maps.google.com/maps/contrib/116216202357062578677\">Kevin Bettin</a>"],"photo_reference":"AeJbb3cx1Z1LGT4qR9WsEDWdSd4kFFAuWddBA4dW4-rnqq0x3p0mUWGt9wkKs4hRak7wnAEwVdCbp54Dwh6YQ3HrlBU94c1dqkBMGMaAy4GY0oQdVw7z9Kuxuaw-1labEUOi7re4jfM3aNjhOszRHzgzjmM_pwBliuZO1p-OVZn_bAuk2R62","width":4032}],"place_id":"ChIJN73HqTVOqEcRTDSWfBfWfV8","plus_code":{"compound_code":"GC2F+2J Berlin","global_code":"9F4MGC2F+2J"},"price_level":2,"rating":4.2,"reference":"ChIJN73HqTVOqEcRTDSWfBfWfV8","types":["restaurant","food","point_of_interest","establishment"],"user_ratings_total":292},{"business_status":"OPERATIONAL","formatted_address":"Mehringdamm 44 - 46, 10961 Berlin, Germany","geometry":{"location":{"lat":52.49238279999999,"lng":13.3869344},"viewport":{"northeast":{"lat":52.49370877989272,"lng":13.38843937989272},"southwest":{"lat":52.49100912010728,"lng":13.38573972010728}}},"icon":"https://maps.gstatic.com/mapfiles/place_api/icons/v1/png_71/restaurant-71.png","icon_background_color":"#FF9E67","icon_mask_base_uri":"https://maps.gstatic.com/mapfiles/place_api/icons/v2/restaurant_pinlet","name":"Phantasia","opening_hours":{"open_now":true},"photos":[{"height":4032,"html_attributions":["<a href=\"https://maps.google.com/maps/contrib/117382534523108908860\">die newcomer</a>"],"photo_reference":"AeJbb3fXI44tRfTrvEV7Bz_Xymn3Q-nlRzRaTu3y3tyg2vgVg83v4t_y_KpnuzDpOMC6CayUqa5AR1wpPT6vslMPmdqJkhRPkldjQvDtdSskd7599eex1ZQS8-jjMPZxM22aMzHBACaUgR0R5K9DeuRNlf5d0pPTOPya1HrrTXchLCPXEeD8","width":3024}],"place_id":"ChIJVVVl6ihQqEcR3hhyeVgwJBg","plus_code":{"compound_code":"F9RP+XQ Berlin","global_code":"9F4MF9RP+XQ"},"rating":4.2,"reference":"ChIJVVVl6ihQqEcR3hhyeVgwJBg","types":["restaurant","food","point_of_interest","establishment"],"user_ratings_total":272},{"business_status":"OPERATIONAL","formatted_address":"Litfaß-Platz 1, 10178 Berlin, Germany","geometry":{"location":{"lat":52.5218072,"lng":13.4036155},"viewport":{"northeast":{"lat":52.52309612989272,"lng":13.40517172989272},"southwest":{"lat":52.52039647010728,"lng":13.40247207010728}}},"icon":"https://maps.gstatic.com/mapfiles/place_api/icons/v1/png_71/restaurant-71.png","icon_background_color":"#FF9E67","icon_mask_base_uri":"https://maps.gstatic.com/mapfiles/place_api/icons/v2/restaurant_pinlet","name":"Kiraku","opening_hours":{"open_now":true},"photos":[{"height":4000,"html_attributions":["<a href=\"https://maps.google.com/maps/contrib/116035575700555691255\">Emdad Flamed</a>"],"photo_reference":"AeJbb3f3FafP7ygVbMXyJSxNgfmfVDCiYCVWTF11tZt4USK4aAPUpMuG_t6oFG8A56yYhlQ9EBjU399RErsq2H5I8oJtcNWn_bV0FDedGBfERbRzGXP8zZA_HJJ_-IqqRPzw2TD0TbKBPjKAJwcZEqq-rxYr9pKWlcZ-UeFbwpbir9HG5gEZ","width":6000}],"place_id":"ChIJ2X3M7KlRqEcR12EsafJGxiM","plus_code":{"compound_code":"GCC3+PC Berlin","global_code":"9F4MGCC3+PC"},"rating":4.2,"reference":"ChIJ2X3M7KlRqEcR12EsafJGxiM","types":["restaurant","food","point_of_interest","establishment"],"user_ratings_total":170},{"business_status":"OPERATIONAL","formatted_address":"Georgenkirchstraße 3, 10249 Berlin, Germany","geometry":{"location":{"lat":52.526454,"lng":13.4236237},"viewport":{"northeast":{"lat":52.52777592989272,"lng":13.42501382989272},"southwest":{"lat":52.52507627010728,"lng":13.42231417010728}}},"icon":"https://maps.gstatic.com/mapfiles/place_api/icons/v1/png_71/restaurant-71.png","icon_background_color":"#FF9E67","icon_mask_base_uri":"https://maps.gstatic.com/mapfiles/place_api/icons/v2/restaurant_pinlet","name":"Bamboo’s Hut Asiatische Küche & Sushi Bar","opening_hours":{"open_now":true},"photos":[{"height":2340,"html_attributions":["<a href=\"https://maps.google.com/maps/contrib/109437700014676664228\">Paul Blickle</a>"],"photo_reference":"AeJbb3cBhK1khWy4NA6wUOJm8VYqCISfevQL80PadBKtgNhMQ1IVk71iOQiCtPDyye3wYNaxbdFL4WzOW6HXD1lf7w1S0xY5Va3sbHmiEUvFtfZIR6R5kR0CUFy3eX08uxJYiSIZ419ANsOD7Z5MM1HiuwLYHg2EHuShGO9f-dpXAou_45r_","width":4160}],"place_id":"ChIJo4olbxpOqEcRGvs83yCpmMw","plus_code":{"compound_code":"GCGF+HC Berlin","global_code":"9F4MGCGF+HC"},"price_level":1,"rating":4.2,"reference":"ChIJo4olbxpOqEcRGvs83yCpmMw","types":["restaurant","food","point_of_interest","establishment"],"user_ratings_total":140},{"business_status":"OPERATIONAL","formatted_address":"Manteuffelstraße 99, 10997 Berlin, Germany","geometry":{"location":{"lat":52.5009343,"lng":13.4281498},"viewport":{"northeast":{"lat":52.50232712989273,"lng":13.42936397989272},"southwest":{"lat":52.49962747010728,"lng":13.42666432010728}}},"icon":"https://maps.gstatic.com/mapfiles/place_api/icons/v1/png_71/restaurant-71.png","icon_background_color":"#FF9E67","icon_mask_base_uri":"https://maps.gstatic.com/mapfiles/place_api/icons/v2/restaurant_pinlet","name":"Masuta Sushi","opening_hours":{"open_now":true},"photos":[{"height":1920,"html_attributions":["<a href=\"https://maps.google.com/maps/contrib/117758408752853832384\">chf con</a>"],"photo_reference":"AeJbb3e3YKyRhV08yDUQDOMeLjv83MBOnFFH71HtdM3m8XpVdQrCXzzcxPcgtqHGFC1daRWsdscJId_n0Lnxb08fwmPzrIyl9Om-s9gY5q0niYlruhYyw0C6cBEWtFBYMR5fm7JlbcorJt0QykaGbbztRzSerK-WBwyCkJB6kZcbZ3QqRGdH","width":1080}],"place_id":"ChIJc7KEDrRPqEcRK0HHizOVo0k","plus_code":{"compound_code":"GC2H+97 Berlin","global_code":"9F4MGC2H+97"},"rating":4.2,"reference":"ChIJc7KEDrRPqEcRK0HHizOVo0k","types":["meal_takeaway","restaurant","food","point_of_interest","establishment"],"user_ratings_total":25},{"business_status":"OPERATIONAL","formatted_address":"Wilhelmstraße 87, 10117 Berlin, Germany","geometry":{"location":{"lat":52.5131242,"lng":13.3820405},"viewport":{"northeast":{"lat":52.51468487989273,"lng":13.38353857989272},"southwest":{"lat":52.51198522010728,"lng":13.38083892010728}}},"icon":"https://maps.gstatic.com/mapfiles/place_api/icons/v1/png_71/restaurant-71.png","icon_background_color":"#FF9E67","icon_mask_base_uri":"https://maps.gstatic.com/mapfiles/place_api/icons/v2/restaurant_pinlet","name":"YAKOOLZA","opening_hours":{"open_now":true},"photos":[{"height":2816,"html_attributions":["<a href=\"https://maps.google.com/maps/contrib/105718463605905716804\">A Google User</a>"],"photo_reference":"AeJbb3dp6obn-idKrSun4BJklKBWKuN6PGseQOMj07xOGi4MOzmfFW4hoTeYJVcbF24L6Isulx6wwY2t6H7qcYNYMyE_XJP1o0LUPMMetELDVv_el2UbZBlsg-sw1VJedvTvkH8ZETqkNdp7_gTO0SeIE7SiPm9UmHOKVXFet_dvINULYIVQ","width":3918}],"place_id":"ChIJbV8NisVRqEcRcwXmDhxWu_0","plus_code":{"compound_code":"G97J+6R Berlin","global_code":"9F4MG97J+6R"},"price_level":2,"rating":4.1,"reference":"ChIJbV8NisVRqEcRcwXmDhxWu_0","types":["restaurant","food","point_of_interest","establishment"],"user_ratings_total":795},{"business_status":"OPERATIONAL","formatted_address":"Karl-Liebknecht-Straße 5 DomAquarée, 10178 Berlin, Germany","geometry":{"location":{"lat":52.5196494,"lng":13.4032724},"viewport":{"northeast":{"lat":52.52106137989272,"lng":13.40463677989272},"southwest":{"lat":52.51836172010728,"lng":13.40193712010728}}},"icon":"https://maps.gstatic.com/mapfiles/place_api/icons/v1/png_71/restaurant-71.png","icon_background_color":"#FF9E67","icon_mask_base_uri":"https://maps.gstatic.com/mapfiles/place_api/icons/v2/restaurant_pinlet","name":"Shi-Mai - Vietnam & Sushi Restaurant","opening_hours":{"open_now":true},"photos":[{"height":2736,"html_attributions":["<a href=\"https://maps.google.com/maps/contrib/115914762176174582235\">ANgiLovesRick</a>"],"photo_reference":"AeJbb3doERzX1SCnOVpfH5S8_PQfdCLB0VOtWMATt5SNylCTKEWTsQfKTc5B8wfDDWg98FzsMMrAt6WSJX-UbhLKgrrxDq0ystAE375uIl5uf6ByC5vw372o0bR8sLT9AviG4GhlH8TRBtTJ858N2GlhcCcERJHuCPhcShtlaLCSGZ_xYvEV","width":3648}],"place_id":"ChIJLTX2ud9RqEcRSRGoGNV6Sx8","plus_code":{"compound_code":"GC93+V8 Berlin","global_code":"9F4MGC93+V8"},"price_level":2,"rating":4.1,"reference":"ChIJLTX2ud9RqEcRSRGoGNV6Sx8","types":["restaurant","food","point_of_interest","establishment"],"user_ratings_total":698},{"business_status":"OPERATIONAL","formatted_address":"Unter den Linden 12, 10117 Berlin, Germany","geometry":{"location":{"lat":52.51745589999999,"lng":13.3901561},"viewport":{"northeast":{"lat":52.51869832989271,"lng":13.39154187989272},"southwest":{"lat":52.51599867010727,"lng":13.38884222010727}}},"icon":"https://maps.gstatic.com/mapfiles/place_api/icons/v1/png_71/restaurant-71.png","icon_background_color":"#FF9E67","icon_mask_base_uri":"https://maps.gstatic.com/mapfiles/place_api/icons/v2/restaurant_pinlet","name":"BLOSSOM | VIETNAM RESTAURANT & SUSHI BAR","opening_hours":{"open_now":true},"photos":[{"height":3024,"html_attributions":["<a href=\"https://maps.google.com/maps/contrib/115243936537871764746\">A Google User</a>"],"photo_reference":"AeJbb3ccSfaiKS_r9i5FkUoYCAHwxBpO33qaxznuMPV4f3IANeSEd7dNa7GRyXpLIBU2vxzvqUO_OiKejLcw1LrzzeSlwOr3KKyDeQk7hdMro55kEjbPfpUW7pNPAgp4evFSWhWCR_JnSQTMdbwNmDnHdFTHHhcByaynoJJfMIzXbfy9yjUJ","width":4032}],"place_id":"ChIJAd6ZC0pRqEcRdMJT_F9Nz-4","plus_code":{"compound_code":"G98R+X3 Berlin","global_code":"9F4MG98R+X3"},"rating":4.1,"reference":"ChIJAd6ZC0pRqEcRdMJT_F9Nz-4","types":["restaurant","food","point_of_interest","establishment"],"user_ratings_total":502},{"business_status":"OPERATIONAL","formatted_address":"Torstraße 210, 10115 Berlin, Germany","geometry":{"location":{"lat":52.5276924,"lng":13.3907925},"viewport":{"northeast":{"lat":52.52914232989272,"lng":13.39213097989272},"southwest":{"lat":52.52644267010728,"lng":13.38943132010728}}},"icon":"https://maps.gstatic.com/mapfiles/place_api/icons/v1/png_71/restaurant-71.png","icon_background_color":"#FF9E67","icon_mask_base_uri":"https://maps.gstatic.com/mapfiles/place_api/icons/v2/restaurant_pinlet","name":"Nhat Long Restaurant","opening_hours":{"open_now":true},"photos":[{"height":4000,"html_attributions":["<a href=\"https://maps.google.com/maps/contrib/109248393845913964923\">A Google User</a>"],"photo_reference":"AeJbb3dEA_UWTQPTqc6CYD9-zV_L9BYlrARw0sFGLKH5rBIBDEn5arJZ8aZ0Eioteirdr5qW4HmlxbI9BWw8liOeBgM4G113kzE_sUjdlr4DCXUBvxRZXSfQYHRE7HiD_TUNPHgRGzVjcZ-Exikj9q6KqoDguA6Xa6ZGffDuzsF2-ybylhLK","width":5838}],"place_id":"ChIJt7KO1-hRqEcRLT4aTcLRDvs","plus_code":{"compound_code":"G9HR+38 Berlin","global_code":"9F4MG9HR+38"},"price_level":2,"rating":4.1,"reference":"ChIJt7KO1-hRqEcRLT4aTcLRDvs","types":["restaurant","food","point_of_interest","establishment"],"user_ratings_total":418},{"business_status":"OPERATIONAL","formatted_address":"Dircksenstraße 93 gegenüber von Hintereingang-ALEXA, 10178 Berlin, Germany","geometry":{"location":{"lat":52.5180491,"lng":13.4154174},"viewport":{"northeast":{"lat":52.51940792989272,"lng":13.41683882989272},"southwest":{"lat":52.51670827010728,"lng":13.41413917010728}}},"icon":"https://maps.gstatic.com/mapfiles/place_api/icons/v1/png_71/restaurant-71.png","icon_background_color":"#FF9E67","icon_mask_base_uri":"https://maps.gstatic.com/mapfiles/place_api/icons/v2/restaurant_pinlet","name":"Viet Street","opening_hours":{"open_now":true},"photos":[{"height":5120,"html_attributions":["<a href=\"https://maps.google.com/maps/contrib/114696049054661531587\">Linda.Cederberg690</a>"],"photo_reference":"AeJbb3cuTwZS47gOd8nALXGzAoSu735Uky3g1aL1LK3Jkg-1vttDvDgkUw9mpaKibooodE7E4E_D--SfigPli5DBd_ktD8LAgjHlzO3agxe8AjUoF5K1iT0qXQhLzf4TH0L3a7mLzEVfA16e3nBjWHGULvSJvdJSyVp29ZbuWza93A0H-QO7","width":3840}],"place_id":"ChIJvYLxbH5PqEcRuvAHxpIYq2U","plus_code":{"compound_code":"GC98+65 Berlin","global_code":"9F4MGC98+65"},"price_level":2,"rating":4.1,"reference":"ChIJvYLxbH5PqEcRuvAHxpIYq2U","types":["restaurant","food","point_of_interest","establishment"],"user_ratings_total":215},{"business_status":"OPERATIONAL","formatted_address":"Brückenstraße 5A, 10179 Berlin, Germany","geometry":{"location":{"lat":52.5131624,"lng":13.4177388},"viewport":{"northeast":{"lat":52.51450592989271,"lng":13.41898552989272},"southwest":{"lat":52.51180627010727,"lng":13.41628587010728}}},"icon":"https://maps.gstatic.com/mapfiles/place_api/icons/v1/png_71/restaurant-71.png","icon_background_color":"#FF9E67","icon_mask_base_uri":"https://maps.gstatic.com/mapfiles/place_api/icons/v2/restaurant_pinlet","name":"UMAMI Sushi","opening_hours":{"open_now":true},"photos":[{"height":3264,"html_attributions":["<a href=\"https://maps.google.com/maps/contrib/104369682258290581035\">A Google User</a>"],"photo_reference":"AeJbb3cfkKR7gj_uqAIPzeAJ4nWkIPsoXMyTV6mR_l7nOPZWhboKyvvv23ux2-gEwvHw904APcBQ9aWIkFV89DZWG_p1cUsRUUcgu-VeKFeDvFm3Mt9Eq6WuYYT55MoEe2oZ2UJd0KkN0OWForYtQ3z6A5bVUZ2B3bjBwqjOOYOUS3KRlrk7","width":2448}],"place_id":"ChIJZwYNyiROqEcRrrcgwuu6q8E","plus_code":{"compound_code":"GC79+73 Berlin","global_code":"9F4MGC79+73"},"price_level":2,"rating":4.1,"reference":"ChIJZwYNyiROqEcRrrcgwuu6q8E","types":["restaurant","food","point_of_interest","establishment"],"user_ratings_total":157},{"business_status":"OPERATIONAL","formatted_address":"Friedrichstraße 217, 10969 Berlin, Germany","geometry":{"location":{"lat":52.5055022,"lng":13.3904414},"viewport":{"northeast":{"lat":52.50687977989271,"lng":13.39191702989272},"southwest":{"lat":52.50418012010727,"lng":13.38921737010728}}},"icon":"https://maps.gstatic.com/mapfiles/place_api/icons/v1/png_71/restaurant-71.png","icon_background_color":"#FF9E67","icon_mask_base_uri":"https://maps.gstatic.com/mapfiles/place_api/icons/v2/restaurant_pinlet","name":"BABO Sushi","opening_hours":{"open_now":true},"photos":[{"height":1800,"html_attributions":["<a href=\"https://maps.google.com/maps/contrib/105615407206146519366\">Stephan Klein</a>"],"photo_reference":"AeJbb3ePCGDrSE5cXkHweX9-o-D85w9XCzaCAptmYRu-7n2nnB-ffJsnA6p99vfIayRWSQNg3jLu3Lkii5FjxnYMt2EFeghAy83CeQ-CUQfG-Zf_m-Ji7dLqLU7vb_f9vRAkBd0TV0fjHQvORHBNrHcFRyHfj_NHgXJMXdCCvU-1EAtAiQCu","width":4000}],"place_id":"ChIJp0cykGdRqEcRScfhv-txqsE","plus_code":{"compound_code":"G94R+65 Berlin","global_code":"9F4MG94R+65"},"rating":4.1,"reference":"ChIJp0cykGdRqEcRScfhv-txqsE","types":["restaurant","food","point_of_interest","establishment"],"user_ratings_total":26},{"business_status":"OPERATIONAL","formatted_address":"Rosenthaler Str. 2, 10119 Berlin, Germany","geometry":{"location":{"lat":52.5290775,"lng":13.4014888},"viewport":{"northeast":{"lat":52.53036132989271,"lng":13.40291992989272},"southwest":{"lat":52.52766167010727,"lng":13.40022027010728}}},"icon":"https://maps.gstatic.com/mapfiles/place_api/icons/v1/png_71/restaurant-71.png","icon_background_color":"#FF9E67","icon_mask_base_uri":"https://maps.gstatic.com/mapfiles/place_api/icons/v2/restaurant_pinlet","name":"Sushi Circle","opening_hours":{"open_now":true},"photos":[{"height":3024,"html_attributions":["<a href=\"https://maps.google.com/maps/contrib/114261129794691916288\">MisterNike Gaming</a>"],"photo_reference":"AeJbb3c8s0aaysrApAXcvzyshdFYilaM7TX3pzKX2bQBZj0d0VUQz4YWCskwU4bnZfHQdgoWdMLbzVBQLqcVjNP3QyveFsON3Aaq8Y8rBexWo2u2mqL0JoeYxw9Pa0UwslZMRKljbVg1HiJY3_px2iZjrqIfvke-OruCDwFW3vTbaAtFhdkD","width":4032}],"place_id":"ChIJsS60aORRqEcR3AlReVMGTRU","plus_code":{"compound_code":"GCH2+JH Berlin","global_code":"9F4MGCH2+JH"},"price_level":2,"rating":4,"reference":"ChIJsS60aORRqEcR3AlReVMGTRU","types":["meal_takeaway","restaurant","food","point_of_interest","establishment"],"user_ratings_total":859},{"business_status":"OPERATIONAL","formatted_address":"Georgenstraße 195, 10117 Berlin, Germany","geometry":{"location":{"lat":52.5200778,"lng":13.3906327},"viewport":{"northeast":{"lat":52.52138102989272,"lng":13.39195617989272},"southwest":{"lat":52.51868137010728,"lng":13.38925652010728}}},"icon":"https://maps.gstatic.com/mapfiles/place_api/icons/v1/png_71/restaurant-71.png","icon_background_color":"#FF9E67","icon_mask_base_uri":"https://maps.gstatic.com/mapfiles/place_api/icons/v2/restaurant_pinlet","name":"Sushi Miyabi - Mitte","opening_hours":{"open_now":true},"photos":[{"height":12096,"html_attributions":["<a href=\"https://maps.google.com/maps/contrib/116495725455630500516\">Madalina Hurmuz</a>"],"photo_reference":"AeJbb3fZaUzVxcQ6JIKCDOICtX2nHTRAc5Os3TRtTIsI0Xge75TqYwenmEU_LXqLWKnT48LV96srwDZk8g8FRycWCwK2No0RTC6AM81O_nDB2jKM_FI_QtcGZ9Xg3dnUGtBoU__QP6Qx9_-6GlTS-U4mBTc6MX0jTw1QfJb4kmb-WG2eeEjQ","width":9072}],"place_id":"ChIJxSAoCcNRqEcRRepDYJwr9Hc","plus_code":{"compound_code":"G9CR+27 Berlin","global_code":"9F4MG9CR+27"},"price_level":2,"rating":4,"reference":"ChIJxSAoCcNRqEcRRepDYJwr9Hc","types":["restaurant","food","point_of_interest","establishment"],"user_ratings_total":801},{"business_status":"OPERATIONAL","formatted_address":"Charlottenstraße 16, 10117 Berlin, Germany","geometry":{"location":{"lat":52.50791719999999,"lng":13.3926324},"viewport":{"northeast":{"lat":52.50919012989272,"lng":13.39382112989272},"southwest":{"lat":52.50649047010728,"lng":13.39112147010728}}},"icon":"https://maps.gstatic.com/mapfiles/place_api/icons/v1/png_71/restaurant-71.png","icon_background_color":"#FF9E67","icon_mask_base_uri":"https://maps.gstatic.com/mapfiles/place_api/icons/v2/restaurant_pinlet","name":"Ishin","opening_hours":{"open_now":true},"photos":[{"height":3263,"html_attributions":["<a href=\"https://maps.google.com/maps/contrib/103957765064171275424\">Mathias Ruthenberg</a>"],"photo_reference":"AeJbb3ccmTPzqWyrjxvdiXzjC8cSVkcn1ZZoT-pUPvM23hrKZJOVvxFJwsje4MJ6T9IlA29D9x8lkUKH_GyoaLWWGROOOw2ehOk6-CjYdOgpUPGJjmq9rZ42CvVVlX0CAp8d9lSW5kyrm4NwVAXOASbPXLs_hMvkLYK4wOAN5ymEw4KchaZr","width":4902}],"place_id":"ChIJicgDNdFRqEcRuXTVBOV8DkA","plus_code":{"compound_code":"G95V+53 Berlin","global_code":"9F4MG95V+53"},"price_level":2,"rating":4,"reference":"ChIJicgDNdFRqEcRuXTVBOV8DkA","types":["restaurant","food","point_of_interest","establishment"],"user_ratings_total":779},{"business_status":"OPERATIONAL","formatted_address":"Adalbertstraße 90, 10997 Berlin, Germany","geometry":{"location":{"lat":52.501496,"lng":13.4192424},"viewport":{"northeast":{"lat":52.50276902989272,"lng":13.42063417989272},"southwest":{"lat":52.50006937010727,"lng":13.41793452010728}}},"icon":"https://maps.gstatic.com/mapfiles/place_api/icons/v1/png_71/restaurant-71.png","icon_background_color":"#FF9E67","icon_mask_base_uri":"https://maps.gstatic.com/mapfiles/place_api/icons/v2/restaurant_pinlet","name":"Aki Tatsu Sushi","opening_hours":{"open_now":true},"photos":[{"height":3456,"html_attributions":["<a href=\"https://maps.google.com/maps/contrib/100556941964907479904\">Nicolas Balcazar</a>"],"photo_reference":"AeJbb3doza1FRS6_4oVcV8_oU4_mdrc7bsnut5qDbjMa6uDXTcR6A0EoU0ERUKb0HLhHHB4rtx_DpJAXLRf724srcXzHOtjteXJfiou78acUZuRHtKEYK1_YjgSs6m5K2VKgKKcjiCQLaUslPW6TUM8qUOnYfNEUulRXuB0DcoJwAozSk1z9","width":4608}],"place_id":"ChIJoyVPvaIjZUERXmK2M4wERCU","plus_code":{"compound_code":"GC29+HM Berlin","global_code":"9F4MGC29+HM"},"price_level":1,"rating":4,"reference":"ChIJoyVPvaIjZUERXmK2M4wERCU","types":["restaurant","food","point_of_interest","establishment"],"user_ratings_total":285},{"business_status":"OPERATIONAL","formatted_address":"Bertolt-Brecht-Platz 2, 10117 Berlin, Germany","geometry":{"location":{"lat":52.5224795,"lng":13.3862439},"viewport":{"northeast":{"lat":52.52382647989273,"lng":13.38783442989272},"southwest":{"lat":52.52112682010728,"lng":13.38513477010728}}},"icon":"https://maps.gstatic.com/mapfiles/place_api/icons/v1/png_71/restaurant-71.png","icon_background_color":"#FF9E67","icon_mask_base_uri":"https://maps.gstatic.com/mapfiles/place_api/icons/v2/restaurant_pinlet","name":"Jinbu Sushi","opening_hours":{"open_now":true},"photos":[{"height":4032,"html_attributions":["<a href=\"https://maps.google.com/maps/contrib/110089976801052128391\">A Google User</a>"],"photo_reference":"AeJbb3fhSmBaEEN9_zT_2N36lPOYoXb_OzzoKo8w5EiHOUrYy39OMUz_INpUii4M8zR1O43EwDJ2YMGWMBySztRXmddFJKIo15CyHAZlmlrEit1KLLiTeasDJTQMYq9Efu7T9wiyoL_NUbrZt_kDMriGcKgedj8yihKvbH3i8CHd6GRYI9Fs","width":3024}],"place_id":"ChIJgbEpNAtRqEcR04vXu0_A9_0","plus_code":{"compound_code":"G9CP+XF Berlin","global_code":"9F4MG9CP+XF"},"rating":4,"reference":"ChIJgbEpNAtRqEcR04vXu0_A9_0","types":["restaurant","food","point_of_interest","establishment"],"user_ratings_total":56},{"business_status":"OPERATIONAL","formatted_address":"Friedrichstraße 67, 10117 Berlin, Germany","geometry":{"location":{"lat":52.51261539999999,"lng":13.3905721},"viewport":{"northeast":{"lat":52.51400027989272,"lng":13.39236642989272},"southwest":{"lat":52.51130062010728,"lng":13.38966677010728}}},"icon":"https://maps.gstatic.com/mapfiles/place_api/icons/v1/png_71/restaurant-71.png","icon_background_color":"#FF9E67","icon_mask_base_uri":"https://maps.gstatic.com/mapfiles/place_api/icons/v2/restaurant_pinlet","name":"Sushi Daily","opening_hours":{"open_now":true},"photos":[{"height":1080,"html_attributions":["<a href=\"https://maps.google.com/maps/contrib/110347851079640619196\">A Google User</a>"],"photo_reference":"AeJbb3f0gUKEAQ78tMCFWVqAkNE42C16WKJZKIRmVn3MM1FZlsLx9yZFAU89Pe0UlmKcNnkSOzUlIFMsarR-H0pQTrM5UusolFLuDst72XHlcNbE5i-w-MbsEJ8KrAFeHPOTlpFuQe07nov_QPQRI7KeqdSxKQ7QOnfFsU-Pc80U3zMrytC-","width":1080}],"place_id":"ChIJyRSeoWZRqEcR15x1bAajeBk","plus_code":{"compound_code":"G97R+26 Berlin","global_code":"9F4MG97R+26"},"rating":4,"reference":"ChIJyRSeoWZRqEcR15x1bAajeBk","types":["meal_takeaway","restaurant","food","point_of_interest","establishment"],"user_ratings_total":2},{"business_status":"OPERATIONAL","formatted_address":"Litfaß-Platz 4 REWE Markt, 10178 Berlin, Germany","geometry":{"location":{"lat":52.5221378,"lng":13.4034721},"viewport":{"northeast":{"lat":52.52323522989272,"lng":13.40489667989272},"southwest":{"lat":52.52053557010728,"lng":13.40219702010728}}},"icon":"https://maps.gstatic.com/mapfiles/place_api/icons/v1/png_71/restaurant-71.png","icon_background_color":"#FF9E67","icon_mask_base_uri":"https://maps.gstatic.com/mapfiles/place_api/icons/v2/restaurant_pinlet","name":"Eat Happy","opening_hours":{"open_now":true},"photos":[{"height":658,"html_attributions":["<a href=\"https://maps.google.com/maps/contrib/114885249433242690221\">A Google User</a>"],"photo_reference":"AeJbb3dCuRZWWTGm0zOiH1lH3SLOV8t3s4w6iN6Egq7Suv49CVIW8znsrwhk9kJVenZcV8ntI1nuCvAk5FGost7GMkLpnKZAWlCTLh5Om8Xjk3sBT2xmYoulxvpLknI30y1sgst8Lz7cRJ_F4t1N_tZ5Ws4qTji98XjIFwxXe-OT27japR44","width":1172}],"place_id":"ChIJ_1kBwPRRqEcRaR6c3E33cPw","plus_code":{"compound_code":"GCC3+V9 Berlin","global_code":"9F4MGCC3+V9"},"rating":4,"reference":"ChIJ_1kBwPRRqEcRaR6c3E33cPw","types":["meal_takeaway","restaurant","food","point_of_interest","establishment"],"user_ratings_total":1},{"business_status":"OPERATIONAL","formatted_address":"Wilhelmstraße 87, 10117 Berlin, Germany","geometry":{"location":{"lat":52.5131616,"lng":13.3819691},"viewport":{"northeast":{"lat":52.51456022989272,"lng":13.38357532989272},"southwest":{"lat":52.51186057010727,"lng":13.38087567010728}}},"icon":"https://maps.gstatic.com/mapfiles/place_api/icons/v1/png_71/restaurant-71.png","icon_background_color":"#FF9E67","icon_mask_base_uri":"https://maps.gstatic.com/mapfiles/place_api/icons/v2/restaurant_pinlet","name":"Sushi Club","opening_hours":{"open_now":true},"photos":[{"height":1659,"html_attributions":["<a href=\"https://maps.google.com/maps/contrib/102497830641070094425\">Tuan Le Anh</a>"],"photo_reference":"AeJbb3dozEdCKuTDgrHuVN-tJoGYOtTZNkIWA8A9Bg1CFXI7k5ROrQCVDu0nCUXH_t3Ebj_q8CF5E28r3WLd7u43xvt86doxRN1Uyzuit1ZKlnZPfazNwCYif2akx85_PlCjY_S7R80ZU54KosFsy_BbUHMJlmrmikdeFCnFzZnBD4Dxxy_n","width":3248}],"place_id":"ChIJS_DJisVRqEcRqeKn882ToAM","plus_code":{"compound_code":"G97J+7Q Berlin","global_code":"9F4MG97J+7Q"},"price_level":2,"rating":3.9,"reference":"ChIJS_DJisVRqEcRqeKn882ToAM","types":["restaurant","food","point_of_interest","establishment"],"user_ratings_total":882},{"business_status":"OPERATIONAL","formatted_address":"Oranienburger Str. 17, 10178 Berlin, Germany","geometry":{"location":{"lat":52.5239795,"lng":13.397488},"viewport":{"northeast":{"lat":52.52525152989271,"lng":13.39878432989272},"southwest":{"lat":52.52255187010727,"lng":13.39608467010728}}},"icon":"https://maps.gstatic.com/mapfiles/place_api/icons/v1/png_71/restaurant-71.png","icon_background_color":"#FF9E67","icon_mask_base_uri":"https://maps.gstatic.com/mapfiles/place_api/icons/v2/restaurant_pinlet","name":"NAMU sushi lounge","opening_hours":{"open_now":true},"photos":[{"height":945,"html_attributions":["<a href=\"https://maps.google.com/maps/contrib/106686242680269640651\">Surf &amp; Sushi</a>"],"photo_reference":"AeJbb3c0h9rFIBerFWYirG5-LzvOi-mSCWCp-3IpHqfRsBAMS6Bi8ASUqL54lB3BrDum2LaWtvDhDXbpxh52rCK59yXuwoY7-m88raZxNBI2kSJ2Pw11Cn8ImB1tI_2MQIq1_mTct5oOneCmGp4M5AmGwrsCLLvmqueXKOFkG9HvjhZVAkK1","width":1417}],"place_id":"ChIJB25zDudRqEcRDaGE72qJccE","plus_code":{"compound_code":"G9FW+HX Berlin","global_code":"9F4MG9FW+HX"},"price_level":2,"rating":3.9,"reference":"ChIJB25zDudRqEcRDaGE72qJccE","types":["restaurant","food","point_of_interest","establishment"],"user_ratings_total":661},{"business_status":"OPERATIONAL","formatted_address":"Heinrich-Heine-Platz 12, 10179 Berlin, Germany","geometry":{"location":{"lat":52.5064883,"lng":13.4166401},"viewport":{"northeast":{"lat":52.50790292989272,"lng":13.41801052989272},"southwest":{"lat":52.50520327010728,"lng":13.41531087010728}}},"icon":"https://maps.gstatic.com/mapfiles/place_api/icons/v1/png_71/restaurant-71.png","icon_background_color":"#FF9E67","icon_mask_base_uri":"https://maps.gstatic.com/mapfiles/place_api/icons/v2/restaurant_pinlet","name":"Thai Huong Snack","opening_hours":{"open_now":true},"photos":[{"height":3464,"html_attributions":["<a href=\"https://maps.google.com/maps/contrib/110550601367143895120\">A Google User</a>"],"photo_reference":"AeJbb3dkHsHCJQwoI0THyV2Rrwg3eGbnoIvSVT83f3cc0btY_Ab5a2fztBXJZ-drp5jgOhaO7sp9__KtZwzOrzgktVOGmxlOoyJjfL7TqbXKESNktK4hyEHzhJ78MftdkowUCAfdUO8Ym9QYPvx2jzDgjvNyvlmitJ3PgfqTymiJJGvplQj7","width":4618}],"place_id":"ChIJNS-aNDBOqEcRggwRTPYdu30","plus_code":{"compound_code":"GC48+HM Berlin","global_code":"9F4MGC48+HM"},"price_level":1,"rating":3.8,"reference":"ChIJNS-aNDBOqEcRggwRTPYdu30","types":["restaurant","meal_takeaway","meal_delivery","food","point_of_interest","establishment"],"user_ratings_total":445},{"business_status":"OPERATIONAL","formatted_address":"Wilhelmstraße 24, 10963 Berlin, Germany","geometry":{"location":{"lat":52.5041494,"lng":13.387773},"viewport":{"northeast":{"lat":52.50557997989272,"lng":13.38907137989272},"southwest":{"lat":52.50288032010727,"lng":13.38637172010728}}},"icon":"https://maps.gstatic.com/mapfiles/place_api/icons/v1/png_71/restaurant-71.png","icon_background_color":"#FF9E67","icon_mask_base_uri":"https://maps.gstatic.com/mapfiles/place_api/icons/v2/restaurant_pinlet","name":"Yoko Sushi Lieferservice Berlin Mitte","opening_hours":{"open_now":true},"photos":[{"height":527,"html_attributions":["<a href=\"https://maps.google.com/maps/contrib/100215277952226188131\">Yoko Sushi Berlin Mitte</a>"],"photo_reference":"AeJbb3dc-3MP7vIPLWW5bo9r81Ydg79qhq_Uv9BwjxeaSRA-HQSH6hD91oytrxm11xUWQRJ36pwFpzvq_W70y84yoYuBoEid2v7nXSJFXm4svTZUv6JfkkADQVjE6o6FC31mlILBI3Y6xOyC4nCiuorbgr2RSwgsDxqlKISfNJRwI1i7L42i","width":1139}],"place_id":"ChIJC9teCNNRqEcR9Ut1OZGLhqw","plus_code":{"compound_code":"G93Q+M4 Berlin","global_code":"9F4MG93Q+M4"},"price_level":2,"rating":3.8,"reference":"ChIJC9teCNNRqEcR9Ut1OZGLhqw","types":["meal_takeaway","restaurant","food","point_of_interest","establishment"],"user_ratings_total":180},{"business_status":"OPERATIONAL","formatted_address":"Heinrich-Heine-Straße 29, 10179 Berlin, Germany","geometry":{"location":{"lat":52.50699669999999,"lng":13.4135651},"viewport":{"northeast":{"lat":52.50837037989272,"lng":13.41483422989272},"southwest":{"lat":52.50567072010728,"lng":13.41213457010728}}},"icon":"https://maps.gstatic.com/mapfiles/place_api/icons/v1/png_71/restaurant-71.png","icon_background_color":"#FF9E67","icon_mask_base_uri":"https://maps.gstatic.com/mapfiles/place_api/icons/v2/restaurant_pinlet","name":"Sushi For You Mitte","opening_hours":{"open_now":true},"photos":[{"height":699,"html_attributions":["<a href=\"https://maps.google.com/maps/contrib/110024493996969478819\">Mig Issery</a>"],"photo_reference":"AeJbb3e7V4blg9-rnEPMEKM2oP9_dyoJq4rUhuEmm7H6qG-XOVnN35bB0tpaVWJnydW2bNunHlvCCf4NhfW3b3TQuTy0UPLK2BYv1t1aqSy3v9DGpzwILaNCPzYV4lQJBfvSZS-aWFEb1M5yxResj1Edn3R7OqFXbnEJFCHP0LsY9RtH7iyS","width":1080}],"place_id":"ChIJW_gUyi9OqEcRDq8NWrTcZmw","plus_code":{"compound_code":"GC47+QC Berlin","global_code":"9F4MGC47+QC"},"price_level":2,"rating":3.8,"reference":"ChIJW_gUyi9OqEcRDq8NWrTcZmw","types":["restaurant","food","point_of_interest","establishment"],"user_ratings_total":154},{"business_status":"OPERATIONAL","formatted_address":"Wiener Straße 14B, 10999 Berlin, Germany","geometry":{"location":{"lat":52.4981588,"lng":13.4291923},"viewport":{"northeast":{"lat":52.49945257989273,"lng":13.43069542989272},"southwest":{"lat":52.49675292010728,"lng":13.42799577010728}}},"icon":"https://maps.gstatic.com/mapfiles/place_api/icons/v1/png_71/restaurant-71.png","icon_background_color":"#FF9E67","icon_mask_base_uri":"https://maps.gstatic.com/mapfiles/place_api/icons/v2/restaurant_pinlet","name":"Miu Sushi Kreuzberg","opening_hours":{"open_now":true},"photos":[{"height":3092,"html_attributions":["<a href=\"https://maps.google.com/maps/contrib/109161208850534832351\">A Google User</a>"],"photo_reference":"AeJbb3fNoKJVajNID7jVwr4ja88VuKE1eC2F8jPbjUKIixZkCmx2RKEjk1NP5X7LUnf2jZc4Fn-z2SCobCIzwywL4F_AqcAXmFEkfdP1apwfWGG6pLyFYfv84tOBQEIA5emnBNhALEoqJ_uHZOVfVoTMcOXoWXeVVZdbgBNAHahYfa3gUEKt","width":3641}],"place_id":"ChIJmaaRDj1PqEcRcrZVlSAjF3w","plus_code":{"compound_code":"FCXH+7M Berlin","global_code":"9F4MFCXH+7M"},"rating":3.6,"reference":"ChIJmaaRDj1PqEcRcrZVlSAjF3w","types":["restaurant","food","point_of_interest","establishment"],"user_ratings_total":14},{"business_status":"OPERATIONAL","formatted_address":"Ohlauer Str. 27, 10999 Berlin, Germany","geometry":{"location":{"lat":52.4952783,"lng":13.4302759},"viewport":{"northeast":{"lat":52.49665702989272,"lng":13.43151802989272},"southwest":{"lat":52.49395737010727,"lng":13.42881837010728}}},"icon":"https://maps.gstatic.com/mapfiles/place_api/icons/v1/png_71/restaurant-71.png","icon_background_color":"#FF9E67","icon_mask_base_uri":"https://maps.gstatic.com/mapfiles/place_api/icons/v2/restaurant_pinlet","name":"Sushimoto","opening_hours":{"open_now":true},"photos":[{"height":7296,"html_attributions":["<a href=\"https://maps.google.com/maps/contrib/117568712042155593546\">secretly 99</a>"],"photo_reference":"AeJbb3dw9WvHIAcei3xy0_AFcDzt3irG-dlo6_-Ny1dOAH-jBUHSz7SoCf4q-BW-2Xm61MjR5l1uwYYqCeIcMcb-OdqrU5_t4OgGXDnZNXGMivThZWzp7DBCO99PGp74TpscXd7EDNkQVgyDV_8U0KY9HXCEZhaL22-AFJKQDIEgUIj3Eu2G","width":5472}],"place_id":"ChIJx88FqAxPqEcROz5i1GqIIAs","plus_code":{"compound_code":"FCWJ+43 Berlin","global_code":"9F4MFCWJ+43"},"rating":3.3,"reference":"ChIJx88FqAxPqEcROz5i1GqIIAs","types":["restaurant","food","point_of_interest","establishment"],"user_ratings_total":99},{"business_status":"OPERATIONAL","formatted_address":"Mehringdamm, 10961 Berlin, Germany","geometry":{"location":{"lat":52.4939176,"lng":13.3879305},"viewport":{"northeast":{"lat":52.49521262989272,"lng":13.38941652989272},"southwest":{"lat":52.49251297010728,"lng":13.38671687010728}}},"icon":"https://maps.gstatic.com/mapfiles/place_api/icons/v1/png_71/restaurant-71.png","icon_background_color":"#FF9E67","icon_mask_base_uri":"https://maps.gstatic.com/mapfiles/place_api/icons/v2/restaurant_pinlet","name":"Mr. QTA ASIA FOOD & SUSHI BAR","opening_hours":{"open_now":true},"photos":[{"height":3480,"html_attributions":["<a href=\"https://maps.google.com/maps/contrib/100764744319441993209\">Michele Palmia</a>"],"photo_reference":"AeJbb3edSab0LXEqUs13cIhsuwUya9_682iE_gGU5RMANFP4h7PS5cxQyoCMQCVEHTi1bFdU3lIe45fqmusOHsWgTei53gIL9h_OyjCY2KGU9tnAw8av91jNgm7p72848HS-vZDvyLGJfFLn1NaKdj7lZiuKOm76m1_UTKlDtaJ0NK5mm533","width":4640}],"place_id":"ChIJs0-jGilQqEcRcvyDoo_j8_0","plus_code":{"compound_code":"F9VQ+H5 Berlin","global_code":"9F4MF9VQ+H5"},"rating":3.2,"reference":"ChIJs0-jGilQqEcRcvyDoo_j8_0","types":["restaurant","food","point_of_interest","establishment"],"user_ratings_total":67},{"business_status":"OPERATIONAL","formatted_address":"Alexa, Grunerstraße 20, 10179 Berlin, Germany","geometry":{"location":{"lat":52.5193555,"lng":13.4166001},"viewport":{"northeast":{"lat":52.52067817989273,"lng":13.41797957989272},"southwest":{"lat":52.51797852010728,"lng":13.41527992010728}}},"icon":"https://maps.gstatic.com/mapfiles/place_api/icons/v1/png_71/restaurant-71.png","icon_background_color":"#FF9E67","icon_mask_base_uri":"https://maps.gstatic.com/mapfiles/place_api/icons/v2/restaurant_pinlet","name":"Sushi point","opening_hours":{"open_now":true},"photos":[{"height":3024,"html_attributions":["<a href=\"https://maps.google.com/maps/contrib/101290026018995901563\">Stefan Gehring</a>"],"photo_reference":"AeJbb3cCWqfZ-v5-217_A68CheW4dG54eRqeZHnAErR4WPOMU_VBdNmmbaD0gecrJ7nDYom7IUmNX4NSihLoXecNdtjfH6PpVgXsmHdRBbnE7HmR9hCp8cYjpcIcKdBbha0hGuSNS-lGDthB1SEIPUxfDCnMOcis904TaQgvBT7I2SOiY9yE","width":4032}],"place_id":"ChIJP67eXj9PqEcRzE3wu6MQZAk","plus_code":{"compound_code":"GC98+PJ Berlin","global_code":"9F4MGC98+PJ"},"rating":3,"reference":"ChIJP67eXj9PqEcRzE3wu6MQZAk","types":["meal_takeaway","restaurant","food","point_of_interest","establishment"],"user_ratings_total":23},{"business_status":"OPERATIONAL","formatted_address":"REWE Markt, Am Ostbahnhof 9, 10243 Berlin, Germany","geometry":{"location":{"lat":52.5094356,"lng":13.4351163},"viewport":{"northeast":{"lat":52.51080167989272,"lng":13.43619777989272},"southwest":{"lat":52.50810202010727,"lng":13.43349812010728}}},"icon":"https://maps.gstatic.com/mapfiles/place_api/icons/v1/png_71/restaurant-71.png","icon_background_color":"#FF9E67","icon_mask_base_uri":"https://maps.gstatic.com/mapfiles/place_api/icons/v2/restaurant_pinlet","name":"Eat Happy","opening_hours":{"open_now":true},"photos":[{"height":658,"html_attributions":["<a href=\"https://maps.google.com/maps/contrib/104628293029031709049\">A Google User</a>"],"photo_reference":"AeJbb3ef3OxPIXN_P5UMfXxuqfF7L3vkxG_pd575-d4qNdD6erS4XdECyVXTaoUEl-NBMHJJClydvrzESM12q7q_Mi-SBU4XN8Kytk98L4r3sQWXAAalNLvLlW1Cp1yUdw_Cms_dHaCDa7kDe_08K4HyW4sPMbJM7aNKMBXB-eUXdvDbr9WP","width":1172}],"place_id":"ChIJZ5HIWrRPqEcRoN_ZxuJRHrY","plus_code":{"compound_code":"GC5P+Q2 Berlin","global_code":"9F4MGC5P+Q2"},"rating":0,"reference":"ChIJZ5HIWrRPqEcRoN_ZxuJRHrY","types":["meal_takeaway","restaurant","food","point_of_interest","establishment"],"user_ratings_total":0},{"business_status":"OPERATIONAL","formatted_address":"REWE Markt, Friedrichstraße 60, 10117 Berlin, Germany","geometry":{"location":{"lat":52.5105978,"lng":13.3901443},"viewport":{"northeast":{"lat":52.51184382989272,"lng":13.39140932989272},"southwest":{"lat":52.50914417010728,"lng":13.38870967010728}}},"icon":"https://maps.gstatic.com/mapfiles/place_api/icons/v1/png_71/restaurant-71.png","icon_background_color":"#FF9E67","icon_mask_base_uri":"https://maps.gstatic.com/mapfiles/place_api/icons/v2/restaurant_pinlet","name":"Eat Happy","opening_hours":{"open_now":true},"photos":[{"height":658,"html_attributions":["<a href=\"https://maps.google.com/maps/contrib/106596431153813151227\">A Google User</a>"],"photo_reference":"AeJbb3d3ISaajOo3_QV3DnofmnSIB7gV_2ENaz9tqbq7N6gWLwcdFI4jaC8r_Esr0xiz7JzEFu5ryceSaVkXA0HV7PYrHkDuhvRHoph7643H6-jmgwqTxuIlOlpfanQtQFumXGhFYcGG1gX6AbC01u4XoCmrnr41l1549oMnaKvo3OSMjBgG","width":1172}],"place_id":"ChIJF6cmkdlRqEcRE41ErJQTTSE","plus_code":{"compound_code":"G96R+63 Berlin","global_code":"9F4MG96R+63"},"rating":0,"reference":"ChIJF6cmkdlRqEcRE41ErJQTTSE","types":["meal_takeaway","restaurant","food","point_of_interest","establishment"],"user_ratings_total":0},{"business_status":"OPERATIONAL","formatted_address":"Karl-Liebknecht-Str. 7-13, 10178 Berlin, Germany","geometry":{"location":{"lat":52.52068870000001,"lng":13.4052341},"viewport":{"northeast":{"lat":52.52198387989272,"lng":13.40673762989272},"southwest":{"lat":52.51928422010728,"lng":13.40403797010728}}},"icon":"https://maps.gstatic.com/mapfiles/place_api/icons/v1/png_71/restaurant-71.png","icon_background_color":"#FF9E67","icon_mask_base_uri":"https://maps.gstatic.com/mapfiles/place_api/icons/v2/restaurant_pinlet","name":"Sushi Circle","opening_hours":{"open_now":true},"photos":[{"height":1320,"html_attributions":["<a href=\"https://maps.google.com/maps/contrib/100407190526752198384\">A Google User</a>"],"photo_reference":"AeJbb3cYvOq2z9zINV5fPDX6V_bq72wWRyizIdPRiIK1XVZVX7pEXWCLfcDvbG90BUXoONR85TvR-gNZKpoT2-wsft8kpjsJAaoD8WGfD1vKmspwJnvjaWVbmNc2c1UgH_TP7NFB2YImYbeW6NmxCd_iwhEibXIFYepEZ9vfdiwqjYteF-yR","width":1980}],"place_id":"ChIJN2nm89RRqEcRLPwIQqBa69s","plus_code":{"compound_code":"GCC4+73 Berlin","global_code":"9F4MGCC4+73"},"price_level":2,"rating":0,"reference":"ChIJN2nm89RRqEcRLPwIQqBa69s","types":["meal_takeaway","restaurant","food","point_of_interest","establishment"],"user_ratings_total":0},{"business_status":"OPERATIONAL","formatted_address":"REWE Markt, Friedrichstraße 100, 10117 Berlin, Germany","geometry":{"location":{"lat":52.5204487,"lng":13.3884374},"viewport":{"northeast":{"lat":52.52179362989272,"lng":13.38978787989272},"southwest":{"lat":52.51909397010728,"lng":13.38708822010728}}},"icon":"https://maps.gstatic.com/mapfiles/place_api/icons/v1/png_71/restaurant-71.png","icon_background_color":"#FF9E67","icon_mask_base_uri":"https://maps.gstatic.com/mapfiles/place_api/icons/v2/restaurant_pinlet","name":"Eat Happy","opening_hours":{"open_now":true},"photos":[{"height":658,"html_attributions":["<a href=\"https://maps.google.com/maps/contrib/108191068306535972529\">A Google User</a>"],"photo_reference":"AeJbb3emltMZlPYOx1orDpsij8qaIihHRHFcSaebk3HWQm6q-4_qpPIiNchWthUh4g2Eta3GW44DonUxlUt4cyvQg0-PWz6vRnDN_saBpTn-GXwUPzyYkTopZ8SCRG4BbiaXIYq0BnTAgVl23XHkDUBz5_aUtnlubWQchL_uJKIeipUsfP5T","width":1172}],"place_id":"ChIJrR9CpsZRqEcR3Rfv50Wy3AQ","plus_code":{"compound_code":"G9CQ+5C Berlin","global_code":"9F4MG9CQ+5C"},"rating":0,"reference":"ChIJrR9CpsZRqEcR3Rfv50Wy3AQ","types":["meal_takeaway","restaurant","food","point_of_interest","establishment"],"user_ratings_total":0}]