[{"business_status":"OPERATIONAL","formatted_address":"38 Rue de Bourgogne, 69009 Lyon","geometry":{"location":{"lat":45.7778667,"lng":4.8032474},"viewport":{"northeast":{"lat":45.77919717989272,"lng":4.804552529892721},"southwest":{"lat":45.77649752010728,"lng":4.801852870107277}}},"icon":"https://maps.gstatic.com/mapfiles/place_api/icons/v1/png_71/restaurant-71.png","icon_background_color":"#FF9E67","icon_mask_base_uri":"https://maps.gstatic.com/mapfiles/place_api/icons/v2/restaurant_pinlet","name":"Snack Brasil","opening_hours":{"open_now":false},"photos":[{"height":809,"html_attributions":["<a href=\"https://maps.google.com/maps/contrib/101945686402086187102\">A Google User</a>"],"photo_reference":"AeJbb3fNoQ5KJVPVqZtj4uotxiAFBknN2-E__wH6I0xNNbLlKmLVl0gToZD3G3toYpYkeUcOEVOV71HumuvdDMV4Adt8GudfCcq6XpvISpGLSeK0-AUmNP9i_mi1OF-LRpv0-PbThtnD1q2RNaAeFSWNtQ5THXuBYLy_cM34sSdoKU7nleVQ","width":1440}],"place_id":"ChIJcTNO35nr9EcRLDLj5Lfq434","plus_code":{"compound_code":"QRH3+48 Lyon","global_code":"8FQ6QRH3+48"},"price_level":1,"rating":4.9,"reference":"ChIJcTNO35nr9EcRLDLj5Lfq434","types":["restaurant","food","point_of_interest","establishment"],"user_ratings_total":195},{"business_status":"OPERATIONAL","formatted_address":"42 Rue Pierre Corneille, 69006 Lyon","geometry":{"location":{"lat":45.7651233,"lng":4.8434305},"viewport":{"northeast":{"lat":45.76647737989273,"lng":4.844834429892723},"southwest":{"lat":45.76377772010729,"lng":4.842134770107279}}},"icon":"https://maps.gstatic.com/mapfiles/place_api/icons/v1/png_71/restaurant-71.png","icon_background_color":"#FF9E67","icon_mask_base_uri":"https://maps.gstatic.com/mapfiles/place_api/icons/v2/restaurant_pinlet","name":"BAOBAB - Odysséee des Saveurs","opening_hours":{"open_now":false},"photos":[{"height":4032,"html_attributions":["<a href=\"https://maps.google.com/maps/contrib/116027318697883589090\">kotanou Roland Akpaki</a>"],"photo_reference":"AeJbb3eIxgxk5Gh6MU-C4OJ00-kdu12aCP6-gx3FqGzWJ3ZjzIUvoFgQOUD2Vn-mGpbTTNeeRa5NUNVK9ZKgq2hqqMxlEHhCKOeOU9EnSzFn2RJ5SvKd5LTLnUeda_WzJls94F7mqniUAUfIJpj-WXFTp0H3Znmx-QIeWVDGQAR2Jxpkg31e","width":3024}],"place_id":"ChIJt0prX_Dr9EcRCR8syVbPPOc","plus_code":{"compound_code":"QR8V+29 Lyon","global_code":"8FQ6QR8V+29"},"rating":4.9,"reference":"ChIJt0prX_Dr9EcRCR8syVbPPOc","types":["restaurant","food","point_of_interest","establishment"],"user_ratings_total":49},{"business_status":"OPERATIONAL","formatted_address":"bis, 22 Rue d'Enghien, 69002 Lyon","geometry":{"location":{"lat":45.7514113,"lng":4.8258093},"viewport":{"northeast":{"lat":45.75274927989272,"lng":4.827195779892721},"southwest":{"lat":45.75004962010728,"lng":4.824496120107277}}},"icon":"https://maps.gstatic.com/mapfiles/place_api/icons/v1/png_71/restaurant-71.png","icon_background_color":"#FF9E67","icon_mask_base_uri":"https://maps.gstatic.com/mapfiles/place_api/icons/v2/restaurant_pinlet","name":"Sampa Cuisine & Culture","opening_hours":{"open_now":false},"photos":[{"height":2268,"html_attributions":["<a href=\"https://maps.google.com/maps/contrib/109595605591207923267\">Christelle Gardaire</a>"],"photo_reference":"AeJbb3f4wKeboVlfHHGMCPhxOkB9dK_Ap792N_gO2qf553Bqq6vDxf3MvMT1sjldUq-SJmkwzui2HaBGyfePfOED-CZUSLrsch-msskQcI0kvX-28FKR_DvTYmOc8UgWlquOxivA660ZRNeJhCIO6P39xfca1fvSQpoXwChvy0AUm3c1Uy-f","width":4032}],"place_id":"ChIJ8WhqFLPr9EcR1OFZfZhLNiA","plus_code":{"compound_code":"QR2G+H8 Lyon","global_code":"8FQ6QR2G+H8"},"rating":4.7,"reference":"ChIJ8WhqFLPr9EcR1OFZfZhLNiA","types":["bar","restaurant","food","point_of_interest","establishment"],"user_ratings_total":216},{"business_status":"OPERATIONAL","formatted_address":"99 Mnt de la Grande-Côte, 69001 Lyon","geometry":{"location":{"lat":45.7691716,"lng":4.832147},"viewport":{"northeast":{"lat":45.77051227989271,"lng":4.833468429892722},"southwest":{"lat":45.76781262010727,"lng":4.830768770107278}}},"icon":"https://maps.gstatic.com/mapfiles/place_api/icons/v1/png_71/restaurant-71.png","icon_background_color":"#FF9E67","icon_mask_base_uri":"https://maps.gstatic.com/mapfiles/place_api/icons/v2/restaurant_pinlet","name":"El Chivito Lyon Cuisine d’Amérique Latine","opening_hours":{"open_now":false},"photos":[{"height":2730,"html_attributions":["<a href=\"https://maps.google.com/maps/contrib/108667549408514652264\">A Google User</a>"],"photo_reference":"AeJbb3cgmu4vbpHjjr5gtuv0fK8HvYR3X3GPHWzIBX_Bdz6B7A6WRAeJV-j5gwrKpAc8T4u_cw2WBgQO9Jnp-va9oMf0a_qaSmCYdtH8JVzHYX54Ws_XIWMkkNGs0h3JdBZbOgGVi_HwHo0P-VSL3AGNR2VSjYRd4w0X2O7x_Oo0ulJVRS3o","width":4096}],"place_id":"ChIJs8_K0hPr9EcRPaECnZ8f-O4","plus_code":{"compound_code":"QR9J+MV Lyon","global_code":"8FQ6QR9J+MV"},"rating":4.6,"reference":"ChIJs8_K0hPr9EcRPaECnZ8f-O4","types":["restaurant","food","point_of_interest","establishment"],"user_ratings_total":532},{"business_status":"OPERATIONAL","formatted_address":"36 Rue du Mail, 69004 Lyon","geometry":{"location":{"lat":45.779167,"lng":4.8333034},"viewport":{"northeast":{"lat":45.78052612989271,"lng":4.834636579892721},"southwest":{"lat":45.77782647010727,"lng":4.831936920107277}}},"icon":"https://maps.gstatic.com/mapfiles/place_api/icons/v1/png_71/restaurant-71.png","icon_background_color":"#FF9E67","icon_mask_base_uri":"https://maps.gstatic.com/mapfiles/place_api/icons/v2/restaurant_pinlet","name":"36 Le Cosy","opening_hours":{"open_now":false},"photos":[{"height":4027,"html_attributions":["<a href=\"https://maps.google.com/maps/contrib/102639713065222664663\">Rafaella Arcuschin Machado</a>"],"photo_reference":"AeJbb3cp7fT9H4P5ScfCPCvaMC9spRWGKria4MIohEbRqdAANOerBDGA3CKGcia8ud1yPBtJIf_jXiHKE_KVnPb6m0aEU5d9hliIsa61ugnfgOuRfopKPDcBQe8wyxtSWx_k6YwS9ViW4wP2LjHbKrS9mmOlc4Wk0YO61eES5TUhA8Ukp4Ht","width":2675}],"place_id":"ChIJccf_6uHq9EcR5b8suKeGu74","plus_code":{"compound_code":"QRHM+M8 Lyon","global_code":"8FQ6QRHM+M8"},"price_level":2,"rating":4.5,"reference":"ChIJccf_6uHq9EcR5b8suKeGu74","types":["restaurant","food","point_of_interest","establishment"],"user_ratings_total":289},{"business_status":"OPERATIONAL","formatted_address":"32 Bd de la Croix-Rousse, 69001 Lyon","geometry":{"location":{"lat":45.772949,"lng":4.821778699999999},"viewport":{"northeast":{"lat":45.77439167989272,"lng":4.823079679892722},"southwest":{"lat":45.77169202010727,"lng":4.820380020107278}}},"icon":"https://maps.gstatic.com/mapfiles/place_api/icons/v1/png_71/restaurant-71.png","icon_background_color":"#FF9E67","icon_mask_base_uri":"https://maps.gstatic.com/mapfiles/place_api/icons/v2/restaurant_pinlet","name":"Café Clos Jouve","opening_hours":{"open_now":true},"photos":[{"height":3000,"html_attributions":["<a href=\"https://maps.google.com/maps/contrib/100908718584409069765\">Benoit de la Marandais</a>"],"photo_reference":"AeJbb3eZQEhxYdD6NnzN_oa7sEUVpPUdp51qBLHM7A7qNG4xyOuPLoG3fVLtkBAGvfLaapYncLRdWbc_oZJxDKda2HxnO7_zSQvf9YjXwNVMOuSWqJ4AgRQesQ9VnmjlE6CT3AkQHGJgW1DcXjtYmsbiQ54_7U3GRXitgDnLLRhUQM_VHbDm","width":4000}],"place_id":"ChIJBYy9QVvr9EcRJOyYgvJ0_rA","plus_code":{"compound_code":"QRFC+5P Lyon","global_code":"8FQ6QRFC+5P"},"rating":4.5,"reference":"ChIJBYy9QVvr9EcRJOyYgvJ0_rA","types":["restaurant","food","point_of_interest","establishment"],"user_ratings_total":276},{"business_status":"OPERATIONAL","formatted_address":"3 Rue Pré-Gaudry, 69007 Lyon","geometry":{"location":{"lat":45.7421888,"lng":4.8338987},"viewport":{"northeast":{"lat":45.74351932989272,"lng":4.835189729892721},"southwest":{"lat":45.74081967010727,"lng":4.832490070107277}}},"icon":"https://maps.gstatic.com/mapfiles/place_api/icons/v1/png_71/restaurant-71.png","icon_background_color":"#FF9E67","icon_mask_base_uri":"https://maps.gstatic.com/mapfiles/place_api/icons/v2/restaurant_pinlet","name":"A casa dos amigos- La Commune","opening_hours":{"open_now":false},"photos":[{"height":3000,"html_attributions":["<a href=\"https://maps.google.com/maps/contrib/102091982156025944737\">dietler</a>"],"photo_reference":"AeJbb3eTvdlHDqYCLx03rQIvT8w79-YeDPOUiFhN0WWbAixUOEFaEyWrnG3A_QzxwGl24Hpb4rJ_lTMZMFERnUXGmwmrqRWmOUqkKYnk_BwSMHYsdSuinG2E9vfJiTm3XK8W-669t3yF5U21DFJc9t3F0k9jAu7Zu4Ncieq0p8hddrwJ1P98","width":4000}],"place_id":"ChIJLYkMnI_r9EcRm58ZIsPBiVY","plus_code":{"compound_code":"PRRM+VH Lyon","global_code":"8FQ6PRRM+VH"},"rating":4.4,"reference":"ChIJLYkMnI_r9EcRm58ZIsPBiVY","types":["restaurant","food","point_of_interest","establishment"],"user_ratings_total":18},{"business_status":"OPERATIONAL","formatted_address":"372 Rue Garibaldi, 69007 Lyon","geometry":{"location":{"lat":45.74499770000001,"lng":4.8484399},"viewport":{"northeast":{"lat":45.74635367989273,"lng":4.849872529892723},"southwest":{"lat":45.74365402010729,"lng":4.847172870107279}}},"icon":"https://maps.gstatic.com/mapfiles/place_api/icons/v1/png_71/restaurant-71.png","icon_background_color":"#FF9E67","icon_mask_base_uri":"https://maps.gstatic.com/mapfiles/place_api/icons/v2/restaurant_pinlet","name":"Obrigado Rodizio Lyon","opening_hours":{"open_now":false},"photos":[{"height":3000,"html_attributions":["<a href=\"https://maps.google.com/maps/contrib/102036698989060199799\">JOACHIM</a>"],"photo_reference":"AeJbb3ffIS_bjTFj5_JH8Sp8CvsIFa-NymZrwXH0Ohh4XXynSgDjZ4Fysfq4STzNoWVpSxgNoZR-hoxUVzZJjKsecVpiYU2V_7TmTQj2dXvQWChRshitZzCqrQqflimrGTa5QiNWeoSZjK2D4SQLUGmu5y90NwHcCJIyOBW-JeZL25SG4Hev","width":4000}],"place_id":"ChIJ8Ygs2H_r9EcRf_YyxAjlP7c","plus_code":{"compound_code":"PRVX+X9 Lyon","global_code":"8FQ6PRVX+X9"},"rating":4.3,"reference":"ChIJ8Ygs2H_r9EcRf_YyxAjlP7c","types":["restaurant","food","point_of_interest","establishment"],"user_ratings_total":2964},{"business_status":"OPERATIONAL","formatted_address":"82 Rue Masséna, 69006 Lyon","geometry":{"location":{"lat":45.7667315,"lng":4.8544985},"viewport":{"northeast":{"lat":45.76811002989272,"lng":4.855945129892722},"southwest":{"lat":45.76541037010727,"lng":4.853245470107278}}},"icon":"https://maps.gstatic.com/mapfiles/place_api/icons/v1/png_71/restaurant-71.png","icon_background_color":"#FF9E67","icon_mask_base_uri":"https://maps.gstatic.com/mapfiles/place_api/icons/v2/restaurant_pinlet","name":"Le Pain de Sucre","opening_hours":{"open_now":false},"photos":[{"height":3168,"html_attributions":["<a href=\"https://maps.google.com/maps/contrib/105861524036579431941\">Dynamic Solutions</a>"],"photo_reference":"AeJbb3fd74Yg6c-b9KyzRC1wBcfWd55BmkYB2-HeWND8EWwrjTvXSC2Lne_BRXBXpbvhcMeiJUaIOZ996KMvOL4873BA8xc5eXJ-fLdWrWoFJQXD732V4CL-Iw7a3F0oAZ9qFUSjNddQxvJP3WT1j13IQ-ETg7N9iwnesT8ZZJqeGjFyz5o6","width":4752}],"place_id":"ChIJK3wAmYvq9EcReV7Q-XjiBNE","plus_code":{"compound_code":"QV83+MQ Lyon","global_code":"8FQ6QV83+MQ"},"price_level":2,"rating":4.3,"reference":"ChIJK3wAmYvq9EcReV7Q-XjiBNE","types":["meal_takeaway","bar","restaurant","food","point_of_interest","establishment"],"user_ratings_total":547},{"business_status":"OPERATIONAL","formatted_address":"167 Rue Duguesclin, 69006 Lyon","geometry":{"location":{"lat":45.7639323,"lng":4.848363099999999},"viewport":{"northeast":{"lat":45.76527767989272,"lng":4.849694979892722},"southwest":{"lat":45.76257802010728,"lng":4.846995320107278}}},"icon":"https://maps.gstatic.com/mapfiles/place_api/icons/v1/png_71/restaurant-71.png","icon_background_color":"#FF9E67","icon_mask_base_uri":"https://maps.gstatic.com/mapfiles/place_api/icons/v2/restaurant_pinlet","name":"Rio dizio","opening_hours":{"open_now":false},"photos":[{"height":4032,"html_attributions":["<a href=\"https://maps.google.com/maps/contrib/117389562431072315504\">A Google User</a>"],"photo_reference":"AeJbb3eMb-lNWs8YM_0qTp9DABHFTY6KymdfgMLzCIFNFJzjaihyblTs0IXHeI1d3sasH2FjNum_KUqavvLgDAYkDkgb2A17TgtOW4oWhNWXNsuioWYSUGDGlXVc8KC1ziUhDiSA10TZyUl5ESIfsmQajfTP_eD_JHcyLXSmtbKiN-FOfCGY","width":3024}],"place_id":"ChIJ0SV-eArr9EcRIPprc09hxfc","plus_code":{"compound_code":"QR7X+H9 Lyon","global_code":"8FQ6QR7X+H9"},"rating":4.2,"reference":"ChIJ0SV-eArr9EcRIPprc09hxfc","types":["restaurant","food","point_of_interest","establishment"],"user_ratings_total":232},{"business_status":"OPERATIONAL","formatted_address":"8 Rue du Viel Renversé, 69005 Lyon","geometry":{"location":{"lat":45.7588253,"lng":4.8261155},"viewport":{"northeast":{"lat":45.76017707989272,"lng":4.827414229892722},"southwest":{"lat":45.75747742010728,"lng":4.824714570107278}}},"icon":"https://maps.gstatic.com/mapfiles/place_api/icons/v1/png_71/restaurant-71.png","icon_background_color":"#FF9E67","icon_mask_base_uri":"https://maps.gstatic.com/mapfiles/place_api/icons/v2/restaurant_pinlet","name":"Sambahia","opening_hours":{"open_now":false},"photos":[{"height":4032,"html_attributions":["<a href=\"https://maps.google.com/maps/contrib/107274909523964094558\">Anastasia Kryukova</a>"],"photo_reference":"AeJbb3eyi7jdcsnvGFYcma30y3q8lngGxYrUFIMzF60rXHPI5tikzjQVTi4n_NMyhhxF1eil6mP33Pt_62BvxXxiBSLOraFqtuggHG2CDZNFzeOHsUlSvPlDiAotfdZXgt23o0IMl7u-H9qpNZ7EtzYx954K4263sbp1gxttbhp1NVRQ-mOB","width":3024}],"place_id":"ChIJ9xSvh6zr9EcRu1aURNyy2h4","plus_code":{"compound_code":"QR5G+GC Lyon","global_code":"8FQ6QR5G+GC"},"price_level":2,"rating":4.1,"reference":"ChIJ9xSvh6zr9EcRu1aURNyy2h4","types":["restaurant","food","point_of_interest","establishment"],"user_ratings_total":391},{"business_status":"OPERATIONAL","formatted_address":"40 A Rue Antoine Lumière, 69008 Lyon","geometry":{"location":{"lat":45.7402599,"lng":4.8673822},"viewport":{"northeast":{"lat":45.74157382989272,"lng":4.868827729892722},"southwest":{"lat":45.73887417010727,"lng":4.866128070107278}}},"icon":"https://maps.gstatic.com/mapfiles/place_api/icons/v1/png_71/restaurant-71.png","icon_background_color":"#FF9E67","icon_mask_base_uri":"https://maps.gstatic.com/mapfiles/place_api/icons/v2/restaurant_pinlet","name":"Mystic Pizza Lyon","opening_hours":{"open_now":false},"photos":[{"height":3024,"html_attributions":["<a href=\"https://maps.google.com/maps/contrib/110312142938085093159\">A Google User</a>"],"photo_reference":"AeJbb3dsQy9B4QH2i5thHuvEDbNm3OgBdkXN9Spaf7_kCWSWcknwfAN-f4lZfngWKn_FcUMrLExffO4hIyRIM8zNwERSdKcml64J-p2MgDLDBDdkKGyevNu3Yk-86dmze7iUzSa5QM5Yohda3XAuayWnFH3L_T0Fdm43P9RGX30gDViu7PIm","width":3024}],"place_id":"ChIJmYobbArq9EcRks6DIU4EmIA","plus_code":{"compound_code":"PVR8+4X Lyon","global_code":"8FQ6PVR8+4X"},"price_level":1,"rating":4.1,"reference":"ChIJmYobbArq9EcRks6DIU4EmIA","types":["meal_delivery","meal_takeaway","restaurant","food","point_of_interest","establishment"],"user_ratings_total":221},{"business_status":"OPERATIONAL","formatted_address":"10 Pl. des Célestins, 69002 Lyon","geometry":{"location":{"lat":45.75962020000001,"lng":4.8314157},"viewport":{"northeast":{"lat":45.76099527989273,"lng":4.832749829892722},"southwest":{"lat":45.75829562010728,"lng":4.830050170107278}}},"icon":"https://maps.gstatic.com/mapfiles/place_api/icons/v1/png_71/restaurant-71.png","icon_background_color":"#FF9E67","icon_mask_base_uri":"https://maps.gstatic.com/mapfiles/place_api/icons/v2/restaurant_pinlet","name":"Brasserie des célestins","opening_hours":{"open_now":true},"photos":[{"height":1202,"html_attributions":["<a href=\"https://maps.google.com/maps/contrib/115253072535680386849\">Brasserie des célestins</a>"],"photo_reference":"AeJbb3c8PAgJFNPgGu9oeZgk9avO1LNzogAz0k8TDk2EvF_lT2juSHjDYBGkb8zYdHgOqyCrxC95jhviFswG_dYwTBll1yI1wG46apbLCaXnvJ7o6RTEATEDx7fE-cePOtGGH48PJL1m1RAxFs494zEINZkyAIPbc4OM8FmCzCPS8jzXf-uS","width":1800}],"place_id":"ChIJr5tOh1Tq9EcRq7LvrzEH8k0","plus_code":{"compound_code":"QR5J+VH Lyon","global_code":"8FQ6QR5J+VH"},"rating":3.8,"reference":"ChIJr5tOh1Tq9EcRq7LvrzEH8k0","types":["restaurant","food","point_of_interest","establishment"],"user_ratings_total":97},{"business_status":"OPERATIONAL","formatted_address":"45 Av. Albert Einstein, 69100 Villeurbanne","geometry":{"location":{"lat":45.7843112,"lng":4.8873785},"viewport":{"northeast":{"lat":45.78568432989272,"lng":4.888740329892722},"southwest":{"lat":45.78298467010728,"lng":4.886040670107278}}},"icon":"https://maps.gstatic.com/mapfiles/place_api/icons/v1/png_71/restaurant-71.png","icon_background_color":"#FF9E67","icon_mask_base_uri":"https://maps.gstatic.com/mapfiles/place_api/icons/v2/restaurant_pinlet","name":"45th Avenue - Terrasse - Restaurant - Club","opening_hours":{"open_now":false},"photos":[{"height":4032,"html_attributions":["<a href=\"https://maps.google.com/maps/contrib/100669208015969020997\">A Google User</a>"],"photo_reference":"AeJbb3e3ywrLbMINy6jtW67w0SVGGbkmOIGWGGS3m4oeqgKgFZB9IWDBT7AthTjbxUEqjXsqg0aGl2bilF6RFkRfvG2kNXXDSwhlncZscCSqsmotqobi3UW1Ktsm40yDS1_3VFEBe47Zwp6ojmz-rcxs2r-2jwQTPE4vfqWf0wagmKzG-ajA","width":3024}],"place_id":"ChIJk5LbQhfA9EcR9KYE258iDkY","plus_code":{"compound_code":"QVMP+PX Villeurbanne","global_code":"8FQ6QVMP+PX"},"price_level":2,"rating":3.4,"reference":"ChIJk5LbQhfA9EcR9KYE258iDkY","types":["restaurant","bar","food","point_of_interest","establishment"],"user_ratings_total":772},{"business_status":"OPERATIONAL","formatted_address":"Centre Comerciale, 17 Rue Dr Bouchut, 69003 Lyon","geometry":{"location":{"lat":45.7609619,"lng":4.8555329},"viewport":{"northeast":{"lat":45.76226882989271,"lng":4.856744329892722},"southwest":{"lat":45.75956917010727,"lng":4.854044670107278}}},"icon":"https://maps.gstatic.com/mapfiles/place_api/icons/v1/png_71/restaurant-71.png","icon_background_color":"#FF9E67","icon_mask_base_uri":"https://maps.gstatic.com/mapfiles/place_api/icons/v2/restaurant_pinlet","name":"Temakinho Lyon","opening_hours":{"open_now":true},"photos":[{"height":1816,"html_attributions":["<a href=\"https://maps.google.com/maps/contrib/103943219674868246700\">Guy-Marc MOUYAL</a>"],"photo_reference":"AeJbb3fNNnCYDyNd0-2MV4bsJbPeabIB5GYMR9GrJTOeNPFTSaBrFXqTAh3iTCyY2ET1xZR-DRoKCc1V80LWPPtov7Nz0V3lV7dC43nAm5zVsaNNiu3vYlYvvEsr69rZaIf2a51jJphJOSXdaDAUR92cnJ8AK1REYhG7-kXlFtSb8srfEQg6","width":3201}],"place_id":"ChIJgbrHGrnr9EcRrer-KuVQj8g","plus_code":{"compound_code":"QV64+96 Lyon","global_code":"8FQ6QV64+96"},"rating":3.3,"reference":"ChIJgbrHGrnr9EcRrer-KuVQj8g","types":["restaurant","food","point_of_interest","establishment"],"user_ratings_total":362}]