[{"business_status":"OPERATIONAL","formatted_address":"2 Av. Salvador Allende, 69100 Villeurbanne","geometry":{"location":{"lat":45.7761771,"lng":4.8624772},"viewport":{"northeast":{"lat":45.77755087989272,"lng":4.863956079892722},"southwest":{"lat":45.77485122010728,"lng":4.861256420107278}}},"icon":"https://maps.gstatic.com/mapfiles/place_api/icons/v1/png_71/restaurant-71.png","icon_background_color":"#FF9E67","icon_mask_base_uri":"https://maps.gstatic.com/mapfiles/place_api/icons/v2/restaurant_pinlet","name":"MOON RESTAURANT","opening_hours":{"open_now":false},"photos":[{"height":612,"html_attributions":["<a href=\"https://maps.google.com/maps/contrib/101368928704603751299\">A Google User</a>"],"photo_reference":"AeJbb3d4zBkVsuqz6GzTgGfmL_4_BDNDkAGotrt3-t1p_HEvTfxuPlKPWgTVyoqNaKLJQYEymGKvSfXX-G0_RiKUqTv71Y4Us4HDUjnqNBLDSEVqkYSIN92zvzy7caXgqIigaZyQGxxYIQ-5XyhJtR9Dz_nkyV_aoLH5_2olUI-oqAijWCnI","width":408}],"place_id":"ChIJy286SBXr9EcRnKkHqOQQNQc","plus_code":{"compound_code":"QVG6+FX Villeurbanne","global_code":"8FQ6QVG6+FX"},"rating":5,"reference":"ChIJy286SBXr9EcRnKkHqOQQNQc","types":["cafe","restaurant","food","point_of_interest","establishment"],"user_ratings_total":3},{"business_status":"OPERATIONAL","formatted_address":"23 Rue de Condé, 69002 Lyon","geometry":{"location":{"lat":45.7513281,"lng":4.8297064},"viewport":{"northeast":{"lat":45.75264247989271,"lng":4.831036929892722},"southwest":{"lat":45.74994282010727,"lng":4.828337270107278}}},"icon":"https://maps.gstatic.com/mapfiles/place_api/icons/v1/png_71/restaurant-71.png","icon_background_color":"#FF9E67","icon_mask_base_uri":"https://maps.gstatic.com/mapfiles/place_api/icons/v2/restaurant_pinlet","name":"FRAZARIN Bistrot franco italien","opening_hours":{"open_now":false},"photos":[{"height":2667,"html_attributions":["<a href=\"https://maps.google.com/maps/contrib/111143941699629046758\">A Google User</a>"],"photo_reference":"AeJbb3cYqRgZk_1GCoKsUMuL8tJMOEifMZu7Tj0tUpemfQpm-QIu8_X6f8UWAxX_yYBPxah-2j6gfbeObD0zHhEPUPy9BQI6C9DhDFdaOc7xce-hIZvJoyEvlBmzVsq9hUMFbmv_CaT-ydWZxKhGG8h7uEhgwmaptoF5A17zVFiuUbDHVZYM","width":4000}],"place_id":"ChIJw0wD8x3r9EcRO1AYfWK03-E","plus_code":{"compound_code":"QR2H+GV Lyon","global_code":"8FQ6QR2H+GV"},"rating":4.9,"reference":"ChIJw0wD8x3r9EcRO1AYfWK03-E","types":["restaurant","food","point_of_interest","establishment"],"user_ratings_total":233},{"business_status":"OPERATIONAL","formatted_address":"1 Rue Justin Godart, 69004 Lyon","geometry":{"location":{"lat":45.7759854,"lng":4.834999499999999},"viewport":{"northeast":{"lat":45.77727777989272,"lng":4.836349679892721},"southwest":{"lat":45.77457812010727,"lng":4.833650020107277}}},"icon":"https://maps.gstatic.com/mapfiles/place_api/icons/v1/png_71/restaurant-71.png","icon_background_color":"#FF9E67","icon_mask_base_uri":"https://maps.gstatic.com/mapfiles/place_api/icons/v2/restaurant_pinlet","name":"Alebrije Cuisine du Mexique","opening_hours":{"open_now":false},"photos":[{"height":4032,"html_attributions":["<a href=\"https://maps.google.com/maps/contrib/100120384967891507264\">Fernanda Rodriguez</a>"],"photo_reference":"AeJbb3f5lD92qacmOp8e55lELKpviTcKczDhZo3EQ1CplE_MkyychcBNB46Vlm3KgupZwj6Vkd5imz34-XTM5GO9cCkPhu3jWU3PSAaMAAFMlif9RKqXOnzuUt-24bmFbwqPV5RA-8hU34ZCKflfBQN962J2UMCk3YKGSIi-nB2KyxBpC_J9","width":3024}],"place_id":"ChIJl5mp62nr9EcRWCHz5LJ-oiQ","plus_code":{"compound_code":"QRGM+9X Lyon","global_code":"8FQ6QRGM+9X"},"rating":4.9,"reference":"ChIJl5mp62nr9EcRWCHz5LJ-oiQ","types":["restaurant","food","point_of_interest","establishment"],"user_ratings_total":123},{"business_status":"OPERATIONAL","formatted_address":"6 Rue Mourguet, 69005 Lyon","geometry":{"location":{"lat":45.7598694,"lng":4.8259674},"viewport":{"northeast":{"lat":45.76113257989273,"lng":4.827329629892723},"southwest":{"lat":45.75843292010729,"lng":4.824629970107279}}},"icon":"https://maps.gstatic.com/mapfiles/place_api/icons/v1/png_71/restaurant-71.png","icon_background_color":"#FF9E67","icon_mask_base_uri":"https://maps.gstatic.com/mapfiles/place_api/icons/v2/restaurant_pinlet","name":"La Sommeliere","opening_hours":{"open_now":false},"photos":[{"height":3024,"html_attributions":["<a href=\"https://maps.google.com/maps/contrib/107131023955447532087\">Armin Kausler</a>"],"photo_reference":"AeJbb3co7VZ7CwgvWd-6i0S6f4IMPMOwz-DPeDRHSSWhAmk1oZKUpm8MYuz3l4XYxDiSZN-JOUaBGitGCdWLGevAC3da9xoFogMHLVwx3AaQio_25lL6LuqvR6A5O_P-KWFgACOl69AthBAeyaSiB_H5jlO1rjzvAta-bU6LOJ9GoAi07O1i","width":4032}],"place_id":"ChIJAw6Dgavr9EcRy1L71KJrxss","plus_code":{"compound_code":"QR5G+W9 Lyon","global_code":"8FQ6QR5G+W9"},"rating":4.9,"reference":"ChIJAw6Dgavr9EcRy1L71KJrxss","types":["restaurant","food","point_of_interest","establishment"],"user_ratings_total":123},{"business_status":"OPERATIONAL","formatted_address":"84 Rue de la Charité, 69002 Lyon","geometry":{"location":{"lat":45.749439,"lng":4.8296734},"viewport":{"northeast":{"lat":45.75077947989272,"lng":4.831077979892722},"southwest":{"lat":45.74807982010727,"lng":4.828378320107278}}},"icon":"https://maps.gstatic.com/mapfiles/place_api/icons/v1/png_71/restaurant-71.png","icon_background_color":"#FF9E67","icon_mask_base_uri":"https://maps.gstatic.com/mapfiles/place_api/icons/v2/restaurant_pinlet","name":"Flair Restaurant","opening_hours":{"open_now":false},"photos":[{"height":3120,"html_attributions":["<a href=\"https://maps.google.com/maps/contrib/113056777821617780489\">DOMIFABRE63</a>"],"photo_reference":"AeJbb3fhEfb2EKpD9IiTqGhZFOSjVHffkgIbFYpqr3aaJNcJKQTMsnV8p_N9OQHpSP0DmqDJbzLRKC1TjyIEu-NmvvTVDjqcyxEWOtkYSSdmLnjBGiB52_HoATjxflUSdBhfSrTvL_BGcnyIvZpF0wS4KHUPjqDLv6nK2cwLxUJdpjy2GaY_","width":4160}],"place_id":"ChIJJ3WGeEvq9EcRHkj_qxkRCZQ","plus_code":{"compound_code":"PRXH+QV Lyon","global_code":"8FQ6PRXH+QV"},"price_level":2,"rating":4.8,"reference":"ChIJJ3WGeEvq9EcRHkj_qxkRCZQ","types":["restaurant","food","point_of_interest","establishment"],"user_ratings_total":734},{"business_status":"OPERATIONAL","formatted_address":"33 Rue Malesherbes, 69006 Lyon","geometry":{"location":{"lat":45.77047210000001,"lng":4.8426806},"viewport":{"northeast":{"lat":45.77175607989273,"lng":4.843960179892722},"southwest":{"lat":45.76905642010728,"lng":4.841260520107278}}},"icon":"https://maps.gstatic.com/mapfiles/place_api/icons/v1/png_71/restaurant-71.png","icon_background_color":"#FF9E67","icon_mask_base_uri":"https://maps.gstatic.com/mapfiles/place_api/icons/v2/restaurant_pinlet","name":"RESTAURANT Takao Takano","opening_hours":{"open_now":false},"photos":[{"height":3100,"html_attributions":["<a href=\"https://maps.google.com/maps/contrib/108134560267460402952\">Quintin Coppola</a>"],"photo_reference":"AeJbb3csZlqoVXTKzgvNc40I5r_ZaW4716QI_zCAmwTguXl4jMpCVhv6pB59IQTjwhMNftrgCKARlMAX_7dKox-tKe3R5hOIlV5bH8dr0t1mPcK7CLaCE1QAFFwYH8Wy0IQV00S5nT7LoMmUlwKg3IMWgte2j6gBZABlF3QO2jDNFMdHTqrO","width":5854}],"place_id":"ChIJEcqr9PDq9EcRvr6CTKNFWfY","plus_code":{"compound_code":"QRCV+53 Lyon","global_code":"8FQ6QRCV+53"},"price_level":3,"rating":4.8,"reference":"ChIJEcqr9PDq9EcRvr6CTKNFWfY","types":["restaurant","food","point_of_interest","establishment"],"user_ratings_total":505},{"business_status":"OPERATIONAL","formatted_address":"11 Rue des Augustins, 69001 Lyon","geometry":{"location":{"lat":45.7677358,"lng":4.8308307},"viewport":{"northeast":{"lat":45.76910312989271,"lng":4.832234379892721},"southwest":{"lat":45.76640347010727,"lng":4.829534720107278}}},"icon":"https://maps.gstatic.com/mapfiles/place_api/icons/v1/png_71/restaurant-71.png","icon_background_color":"#FF9E67","icon_mask_base_uri":"https://maps.gstatic.com/mapfiles/place_api/icons/v2/restaurant_pinlet","name":"L'Atelier des Augustins","opening_hours":{"open_now":false},"photos":[{"height":864,"html_attributions":["<a href=\"https://maps.google.com/maps/contrib/116057116450251814484\">L&#39;Atelier des Augustins</a>"],"photo_reference":"AeJbb3dWy2tfkcVHilHlJ10YMD0wg2hB53QBSU6M4eMhcDFMaavymAooRnW6ANwjQji7Rd81knCWXzkjA_MGOYndaPt3SsGSoBJZZ3BrPbwdFdd8veKmREuK4RtlLoRQuUqudumlWoe4aT-YNe5NpFtnQsebvEwHIScr7jrO8JVCZ6h1EIoh","width":1296}],"place_id":"ChIJ1Z21F_7q9EcReZ2iUWAaxCM","plus_code":{"compound_code":"QR9J+49 Lyon","global_code":"8FQ6QR9J+49"},"price_level":2,"rating":4.8,"reference":"ChIJ1Z21F_7q9EcReZ2iUWAaxCM","types":["restaurant","food","point_of_interest","establishment"],"user_ratings_total":497},{"business_status":"OPERATIONAL","formatted_address":"8 Pl. des Célestins, 69002 Lyon","geometry":{"location":{"lat":45.7595294,"lng":4.8316954},"viewport":{"northeast":{"lat":45.76087377989272,"lng":4.833040579892722},"southwest":{"lat":45.75817412010728,"lng":4.830340920107278}}},"icon":"https://maps.gstatic.com/mapfiles/place_api/icons/v1/png_71/restaurant-71.png","icon_background_color":"#FF9E67","icon_mask_base_uri":"https://maps.gstatic.com/mapfiles/place_api/icons/v2/restaurant_pinlet","name":"Monsieur P","opening_hours":{"open_now":false},"photos":[{"height":3024,"html_attributions":["<a href=\"https://maps.google.com/maps/contrib/100598768030920999951\">A Google User</a>"],"photo_reference":"AeJbb3cfbhNFrcUvD7C7phtbi6MN1qTc5vXOjKlcR1dV8_blAXW02qUrtKeiLeO3RxAYUj0PwXhcWXEByQnC4LoBDjKCLwaiS3XWvqQcdEty2PLj0NfsVuA9gx6NQ8jRJ9eK-BbLuF-OYlDxWp0ouA2-K7ADttECoMPpeRfSiR0KzYMOXSaI","width":4032}],"place_id":"ChIJq6oadPvq9EcRU4EEtEsBI3k","plus_code":{"compound_code":"QR5J+RM Lyon","global_code":"8FQ6QR5J+RM"},"rating":4.8,"reference":"ChIJq6oadPvq9EcRU4EEtEsBI3k","types":["restaurant","food","point_of_interest","establishment"],"user_ratings_total":468},{"business_status":"OPERATIONAL","formatted_address":"24 Quai Saint-Antoine, 69002 Lyon","geometry":{"location":{"lat":45.7627393,"lng":4.8322234},"viewport":{"northeast":{"lat":45.76409227989272,"lng":4.833452479892723},"southwest":{"lat":45.76139262010728,"lng":4.830752820107279}}},"icon":"https://maps.gstatic.com/mapfiles/place_api/icons/v1/png_71/restaurant-71.png","icon_background_color":"#FF9E67","icon_mask_base_uri":"https://maps.gstatic.com/mapfiles/place_api/icons/v2/restaurant_pinlet","name":"Burgundy by Matthieu","opening_hours":{"open_now":false},"photos":[{"height":3552,"html_attributions":["<a href=\"https://maps.google.com/maps/contrib/107512316154414017079\">Saga Gemini</a>"],"photo_reference":"AeJbb3cKWhRblx-QsPvPzagssjrK967pUuV9Z4Q5NFjrzcZNE9Gk7SBdUY046rKc_wdkgKaxyyEQ0jSsMj7ebCGZB62cHsz_7uxQYAK6jX_0-edo6rmDbcA08Q3VAe8104Qh1J_wHuJaI-APEvf-_0vXtYgwwqruJRT-u3QFIygggaQocK4s","width":6192}],"place_id":"ChIJd-wmoFXq9EcRUdhxLd2Bf98","plus_code":{"compound_code":"QR7J+3V Lyon","global_code":"8FQ6QR7J+3V"},"price_level":3,"rating":4.8,"reference":"ChIJd-wmoFXq9EcRUdhxLd2Bf98","types":["restaurant","food","point_of_interest","establishment"],"user_ratings_total":392},{"business_status":"OPERATIONAL","formatted_address":"83 Rue Moncey, 69003 Lyon","geometry":{"location":{"lat":45.7609201,"lng":4.8492587},"viewport":{"northeast":{"lat":45.76228302989272,"lng":4.850642579892721},"southwest":{"lat":45.75958337010728,"lng":4.847942920107277}}},"icon":"https://maps.gstatic.com/mapfiles/place_api/icons/v1/png_71/restaurant-71.png","icon_background_color":"#FF9E67","icon_mask_base_uri":"https://maps.gstatic.com/mapfiles/place_api/icons/v2/restaurant_pinlet","name":"L'Alexandrin","opening_hours":{"open_now":false},"photos":[{"height":3024,"html_attributions":["<a href=\"https://maps.google.com/maps/contrib/116156814081877497560\">sebatien ferra</a>"],"photo_reference":"AeJbb3ee2EWDpZTVsIEyQLaBsSOPRSlmkRJAYijAe-EhFkNFpWojsrp3cmPSr9UZ2GhE9ztxgsNpnQ5ZmGeTCfQ02DsOPCp37t4LOZ5m2I7vm6baY0Y2cqg4mjkhEOcoUKyv2Od7YPXb1NoxLlIj0LU7ui0b_WrejXMv0XQJcKX2NIOiIIaF","width":4032}],"place_id":"ChIJz0jRNF7q9EcRx7wrR8KgfkQ","plus_code":{"compound_code":"QR6X+9M Lyon","global_code":"8FQ6QR6X+9M"},"price_level":3,"rating":4.8,"reference":"ChIJz0jRNF7q9EcRx7wrR8KgfkQ","types":["restaurant","food","point_of_interest","establishment"],"user_ratings_total":355},{"business_status":"OPERATIONAL","formatted_address":"29 Rue du Bœuf, 69005 Lyon","geometry":{"location":{"lat":45.7621475,"lng":4.8264201},"viewport":{"northeast":{"lat":45.76352832989273,"lng":4.827804729892723},"southwest":{"lat":45.76082867010728,"lng":4.825105070107279}}},"icon":"https://maps.gstatic.com/mapfiles/place_api/icons/v1/png_71/restaurant-71.png","icon_background_color":"#FF9E67","icon_mask_base_uri":"https://maps.gstatic.com/mapfiles/place_api/icons/v2/restaurant_pinlet","name":"Le Bœuf d'Argent","opening_hours":{"open_now":false},"photos":[{"height":3000,"html_attributions":["<a href=\"https://maps.google.com/maps/contrib/117304512204006968207\">A Google User</a>"],"photo_reference":"AeJbb3cFCucEGwx5EHkMLvLbts4Hq1SBidAsLz5HEfiUON_BRpqyHhe5EBe13VB1MKRB2KHuN7vrOcizGKmz5BU6kb2FkCPZZnT-jGwaMRqP2GvdsVIAj4ErDkeTYW2essmpAjWAygekTbuozi3ULj049eojX-cJeCvhVUGql81b5s8oUBnB","width":5333}],"place_id":"ChIJGUV9Vqrr9EcRW3BfTw4aC1o","plus_code":{"compound_code":"QR6G+VH Lyon","global_code":"8FQ6QR6G+VH"},"price_level":3,"rating":4.8,"reference":"ChIJGUV9Vqrr9EcRW3BfTw4aC1o","types":["restaurant","food","point_of_interest","establishment"],"user_ratings_total":351},{"business_status":"OPERATIONAL","formatted_address":"1A Chem. de Calabert, 69130 Écully","geometry":{"location":{"lat":45.77694880000001,"lng":4.767208399999999},"viewport":{"northeast":{"lat":45.77832697989272,"lng":4.768660179892722},"southwest":{"lat":45.77562732010728,"lng":4.765960520107278}}},"icon":"https://maps.gstatic.com/mapfiles/place_api/icons/v1/png_71/restaurant-71.png","icon_background_color":"#FF9E67","icon_mask_base_uri":"https://maps.gstatic.com/mapfiles/place_api/icons/v2/restaurant_pinlet","name":"Restaurant Saisons","opening_hours":{"open_now":false},"photos":[{"height":3096,"html_attributions":["<a href=\"https://maps.google.com/maps/contrib/111014392838737441767\">A Google User</a>"],"photo_reference":"AeJbb3dD8UmpZtUVpcqkFMYGVwt0OjzeR4irXJiZnNb6a55uG_T6Cmd-gJO1tKMrLOUXN2RiqRxeQ_ketcJbxhDh0QfAlZg2PL3xol6OdQN3wyitxJGch5XLWcnHQdsFpXSqA5_eO4bbUxFISQ0axwol2IwZ8dqV494QTdRefdhgCo94lgdq","width":4128}],"place_id":"ChIJ1-VP6JHs9EcRtnAyWKc0ngQ","plus_code":{"compound_code":"QQG8+QV Écully","global_code":"8FQ6QQG8+QV"},"rating":4.8,"reference":"ChIJ1-VP6JHs9EcRtnAyWKc0ngQ","types":["restaurant","food","point_of_interest","establishment"],"user_ratings_total":313},{"business_status":"OPERATIONAL","formatted_address":"36 Rue du Bœuf, 69005 Lyon","geometry":{"location":{"lat":45.7622436,"lng":4.8263994},"viewport":{"northeast":{"lat":45.76359322989272,"lng":4.827749679892722},"southwest":{"lat":45.76089357010727,"lng":4.825050020107278}}},"icon":"https://maps.gstatic.com/mapfiles/place_api/icons/v1/png_71/restaurant-71.png","icon_background_color":"#FF9E67","icon_mask_base_uri":"https://maps.gstatic.com/mapfiles/place_api/icons/v2/restaurant_pinlet","name":"Au 14 Février","opening_hours":{"open_now":false},"photos":[{"height":3264,"html_attributions":["<a href=\"https://maps.google.com/maps/contrib/118039266508900974326\">A Google User</a>"],"photo_reference":"AeJbb3c2fGt7B2n0tCnRZGJP4suLHRYOcIBuC2LfWF-uYJCODkOI2UujpIsBr8jZmRreAG_5tPg-IdYMtUbLHHYTEpl-4TezwlVIxNMS1PTUlBBa-YH1beO-4Yl2IaLIwMIJJu27VTGbhEFskrN3vxbI5xl9l7SSQJ81S4J6QbJAN-XxVQHP","width":4928}],"place_id":"ChIJo5P-gavr9EcRCo1zWC9T0wU","plus_code":{"compound_code":"QR6G+VH Lyon","global_code":"8FQ6QR6G+VH"},"rating":4.8,"reference":"ChIJo5P-gavr9EcRCo1zWC9T0wU","types":["restaurant","food","point_of_interest","establishment"],"user_ratings_total":292},{"business_status":"OPERATIONAL","formatted_address":"123 Rue Bugeaud, 69006 Lyon","geometry":{"location":{"lat":45.767015,"lng":4.8544336},"viewport":{"northeast":{"lat":45.76836307989272,"lng":4.855836479892722},"southwest":{"lat":45.76566342010728,"lng":4.853136820107278}}},"icon":"https://maps.gstatic.com/mapfiles/place_api/icons/v1/png_71/restaurant-71.png","icon_background_color":"#FF9E67","icon_mask_base_uri":"https://maps.gstatic.com/mapfiles/place_api/icons/v2/restaurant_pinlet","name":"La Mutinerie","opening_hours":{"open_now":false},"photos":[{"height":3024,"html_attributions":["<a href=\"https://maps.google.com/maps/contrib/100931058837521292474\">Radio La Boucle</a>"],"photo_reference":"AeJbb3f2XXPXPjrjdLEPiFlNC-0ZZdtBc7E2CXV2DKtFXnP37Dr5I4_K3vA3G0wle846CJtvpua9F0vEINRB3onTaEC8zPxPcQItbACXXWUxCnJM09WRmOQXU781vs0Pu6It4xPf4SjK8SXDMKWUXzBmMzmeiNB0GGyEWHBMy0cSeL8uUFqL","width":4032}],"place_id":"ChIJDay8I2Dr9EcRmoZhZk5eMsY","plus_code":{"compound_code":"QV83+RQ Lyon","global_code":"8FQ6QV83+RQ"},"rating":4.8,"reference":"ChIJDay8I2Dr9EcRmoZhZk5eMsY","types":["restaurant","food","point_of_interest","establishment"],"user_ratings_total":245},{"business_status":"OPERATIONAL","formatted_address":"SAS LYON CITY RESTAURATION, 159 Rte de Brignais, 69230 Saint-Genis-Laval","geometry":{"location":{"lat":45.7072385,"lng":4.768826199999999},"viewport":{"northeast":{"lat":45.70862412989273,"lng":4.770071679892721},"southwest":{"lat":45.70592447010728,"lng":4.767372020107277}}},"icon":"https://maps.gstatic.com/mapfiles/place_api/icons/v1/png_71/restaurant-71.png","icon_background_color":"#FF9E67","icon_mask_base_uri":"https://maps.gstatic.com/mapfiles/place_api/icons/v2/restaurant_pinlet","name":"Le WagonBar - Bus restaurant à Lyon","opening_hours":{"open_now":false},"photos":[{"height":3120,"html_attributions":["<a href=\"https://maps.google.com/maps/contrib/117807279510626069414\">Laurent B.</a>"],"photo_reference":"AeJbb3e7YQSFBdTU6hdcWXQgNI5G9NmegKBv97107Z9kkLBN1VwHgC9JnYBJTn2vjNHU3KTtGNSJUWXdvR9b-rnSvXVkMrV_PPulxNzgHXWBSohIMay-bcU5gCq_VA4ZHI4vn7CAwt_aE8ZHAwc8y5tGHT-D5wz_YPUwNo2EmLe1qcCBGmcq","width":4160}],"place_id":"ChIJh7ah-Mju9EcR3vyMlFaw45o","plus_code":{"compound_code":"PQ49+VG St-Genis-Laval","global_code":"8FQ6PQ49+VG"},"rating":4.8,"reference":"ChIJh7ah-Mju9EcR3vyMlFaw45o","types":["restaurant","food","point_of_interest","establishment"],"user_ratings_total":118},{"business_status":"OPERATIONAL","formatted_address":"20 Pl. Bellecour, 69002 Lyon","geometry":{"location":{"lat":45.756365,"lng":4.8330315},"viewport":{"northeast":{"lat":45.75767062989271,"lng":4.834545229892722},"southwest":{"lat":45.75497097010727,"lng":4.831845570107278}}},"icon":"https://maps.gstatic.com/mapfiles/place_api/icons/v1/png_71/restaurant-71.png","icon_background_color":"#FF9E67","icon_mask_base_uri":"https://maps.gstatic.com/mapfiles/place_api/icons/v2/restaurant_pinlet","name":"L'Institut Restaurant","opening_hours":{"open_now":false},"photos":[{"height":3456,"html_attributions":["<a href=\"https://maps.google.com/maps/contrib/102172217052954724586\">Mariano Larranaga</a>"],"photo_reference":"AeJbb3chorCiq7eNs1GJIjH3siClmBae0wPKpVohWj4V9kv51-5tCIybRuc4qmRAALlYtFaGxX-R5YKs-dwufLwcVlNNEE4jWSf2M8rO2eEtiUnXvgc4PmZObqYKxDIqbUj7DgwFszovH7r1Lck2MKU3Cgrft2-QhuNZm-zh6l7fY92gkWHJ","width":4608}],"place_id":"ChIJscHYLlLq9EcRO3bKMF_5P6c","plus_code":{"compound_code":"QR4M+G6 Lyon","global_code":"8FQ6QR4M+G6"},"price_level":3,"rating":4.7,"reference":"ChIJscHYLlLq9EcRO3bKMF_5P6c","types":["restaurant","food","point_of_interest","establishment"],"user_ratings_total":864},{"business_status":"OPERATIONAL","formatted_address":"12 Rue Royale, 69001 Lyon","geometry":{"location":{"lat":45.7714428,"lng":4.8372185},"viewport":{"northeast":{"lat":45.77276757989272,"lng":4.838589979892721},"southwest":{"lat":45.77006792010727,"lng":4.835890320107278}}},"icon":"https://maps.gstatic.com/mapfiles/place_api/icons/v1/png_71/restaurant-71.png","icon_background_color":"#FF9E67","icon_mask_base_uri":"https://maps.gstatic.com/mapfiles/place_api/icons/v2/restaurant_pinlet","name":"La Mère Brazier","opening_hours":{"open_now":false},"photos":[{"height":7360,"html_attributions":["<a href=\"https://maps.google.com/maps/contrib/106300564021628599912\">La Mère Brazier</a>"],"photo_reference":"AeJbb3cn3O2C0ZJAAxgO-4Sir6r0xfxJCe9ZIrGdPgqzfo9-w_npRsGfErE3GW_pbbf_EvN0dKJdpQD-XqSjKsss457MaeSJw2zYJJ_wMEdtEjy77R5Tp4qlgSzxNXx5l5g0j3PiX2QO9zvGu_qTQ0J1xYI9NpJiE0l29T-9ktPdemruukTP","width":4912}],"place_id":"ChIJczdxcvvq9EcRF6hF_LmY8-U","plus_code":{"compound_code":"QRCP+HV Lyon","global_code":"8FQ6QRCP+HV"},"price_level":4,"rating":4.7,"reference":"ChIJczdxcvvq9EcRF6hF_LmY8-U","types":["restaurant","food","point_of_interest","establishment"],"user_ratings_total":849},{"business_status":"OPERATIONAL","formatted_address":"1 Rue de Belle-Sise, 69380 Chasselay","geometry":{"location":{"lat":45.8727035,"lng":4.7705268},"viewport":{"northeast":{"lat":45.87405977989273,"lng":4.771914629892723},"southwest":{"lat":45.87136012010728,"lng":4.769214970107279}}},"icon":"https://maps.gstatic.com/mapfiles/place_api/icons/v1/png_71/restaurant-71.png","icon_background_color":"#FF9E67","icon_mask_base_uri":"https://maps.gstatic.com/mapfiles/place_api/icons/v2/restaurant_pinlet","name":"Restaurant Guy Lassausaie","opening_hours":{"open_now":false},"photos":[{"height":4096,"html_attributions":["<a href=\"https://maps.google.com/maps/contrib/102234556413519753696\">Eleonore Poyeton</a>"],"photo_reference":"AeJbb3cNIZ95zpko5z96lzvb_IVtKDTBTc6n9mTMQTRljT6LwHQTQotEn9deWhvI-vWEMci7tMJidMN4-DFm-ChlRkHLcHCeSpYpPWk86gCCwgoDLWKRBiyg2yMRaDoM0X1a1o5m6SohbSfq2BYAMIumWWqXaCan_8jRy-edyIt3hGpJora1","width":3072}],"place_id":"ChIJWxP_WdCT9EcRJ4GEO_OVhx4","plus_code":{"compound_code":"VQFC+36 Chasselay","global_code":"8FQ6VQFC+36"},"price_level":3,"rating":4.7,"reference":"ChIJWxP_WdCT9EcRJ4GEO_OVhx4","types":["restaurant","food","point_of_interest","establishment"],"user_ratings_total":821},{"business_status":"OPERATIONAL","formatted_address":"8 Rue Danton, 69003 Lyon","geometry":{"location":{"lat":45.7560103,"lng":4.8572476},"viewport":{"northeast":{"lat":45.75735372989272,"lng":4.858677979892722},"southwest":{"lat":45.75465407010728,"lng":4.855978320107278}}},"icon":"https://maps.gstatic.com/mapfiles/place_api/icons/v1/png_71/restaurant-71.png","icon_background_color":"#FF9E67","icon_mask_base_uri":"https://maps.gstatic.com/mapfiles/place_api/icons/v2/restaurant_pinlet","name":"Danton... Restaurant","opening_hours":{"open_now":false},"photos":[{"height":4160,"html_attributions":["<a href=\"https://maps.google.com/maps/contrib/111637524317362356525\">Nico Lormannem</a>"],"photo_reference":"AeJbb3c5_W_9QSyagljSPvu9JDPObRlTUuv9vdnzDIirSHxMM_Of1yQb0yo6w3jb8PITMNKbx8CTcuLXNT0rK7zB9FhNoE_iCGoyt0jwFhKhmQJcWUm7fgfu0HDY2OtPmI3ww8O5oUtMV8G3vLrfnPJDP7l1ObnMS70h1kmj8CnMiq75Bl4M","width":3120}],"place_id":"ChIJWSH8ZXHr9EcRrDu0qTb9jRM","plus_code":{"compound_code":"QV44+CV Lyon","global_code":"8FQ6QV44+CV"},"rating":4.7,"reference":"ChIJWSH8ZXHr9EcRrDu0qTb9jRM","types":["restaurant","liquor_store","bar","food","point_of_interest","store","establishment"],"user_ratings_total":577},{"business_status":"OPERATIONAL","formatted_address":"38 Rue de l'Arbre Sec, 69001 Lyon","geometry":{"location":{"lat":45.7666997,"lng":4.837408},"viewport":{"northeast":{"lat":45.76804432989272,"lng":4.838756179892722},"southwest":{"lat":45.76534467010727,"lng":4.836056520107277}}},"icon":"https://maps.gstatic.com/mapfiles/place_api/icons/v1/png_71/restaurant-71.png","icon_background_color":"#FF9E67","icon_mask_base_uri":"https://maps.gstatic.com/mapfiles/place_api/icons/v2/restaurant_pinlet","name":"Culina Hortus","opening_hours":{"open_now":false},"photos":[{"height":1960,"html_attributions":["<a href=\"https://maps.google.com/maps/contrib/110730663108157714050\">Ava Meagher</a>"],"photo_reference":"AeJbb3fH6R5hczw_hbDMm7fKS8hhiR7AKsCNw64jOjYf98Guaw-guC3DFf939mlODwMlR1w-4xabQ7HGGj8Kx8o6sry8ZzAbdjQaDvo1QSYuF4aoHyDwZFYqdeWFPQs4NsT4UCbIgeJe8xnBjFVdpFd6LrU1-Pa6UjETd-doXhaxzAwMv_rR","width":4032}],"place_id":"ChIJVxzmwl3r9EcRqWL9GGFefOY","plus_code":{"compound_code":"QR8P+MX Lyon","global_code":"8FQ6QR8P+MX"},"rating":4.7,"reference":"ChIJVxzmwl3r9EcRqWL9GGFefOY","types":["restaurant","food","point_of_interest","establishment"],"user_ratings_total":568},{"business_status":"OPERATIONAL","formatted_address":"29 Rue du Bœuf, 69005 Lyon","geometry":{"location":{"lat":45.7621739,"lng":4.8264455},"viewport":{"northeast":{"lat":45.76352572989272,"lng":4.827793279892721},"southwest":{"lat":45.76082607010728,"lng":4.825093620107277}}},"icon":"https://maps.gstatic.com/mapfiles/place_api/icons/v1/png_71/restaurant-71.png","icon_background_color":"#FF9E67","icon_mask_base_uri":"https://maps.gstatic.com/mapfiles/place_api/icons/v2/restaurant_pinlet","name":"Jérémy Galvan","opening_hours":{"open_now":false},"photos":[{"height":560,"html_attributions":["<a href=\"https://maps.google.com/maps/contrib/115884954540354019206\">A Google User</a>"],"photo_reference":"AeJbb3dbqEfUwHtEwyqbKQfe-njvCnxAeLLBh3ef9Iq9YJkX0vjzkeSpvUd4a7JSK8dYZ2W4Gx373tQp46w1PoXH6kk8OUE-TRj2uOoKTmH-2NXmfjA5YlxJ3uhmTqSH1DCDv6Wwj-I1MJHWRZcADcEOujld1qPxmxcVi5jvJZGCFFLcqrBf","width":839}],"place_id":"ChIJ6T19Vqrr9EcRyoNI65L1yEM","plus_code":{"compound_code":"QR6G+VH Lyon","global_code":"8FQ6QR6G+VH"},"price_level":3,"rating":4.7,"reference":"ChIJ6T19Vqrr9EcRyoNI65L1yEM","types":["restaurant","food","point_of_interest","establishment"],"user_ratings_total":502},{"business_status":"OPERATIONAL","formatted_address":"20 Gd Rue de Vaise, 69009 Lyon","geometry":{"location":{"lat":45.7744089,"lng":4.8071075},"viewport":{"northeast":{"lat":45.77576377989272,"lng":4.808471429892721},"southwest":{"lat":45.77306412010727,"lng":4.805771770107278}}},"icon":"https://maps.gstatic.com/mapfiles/place_api/icons/v1/png_71/restaurant-71.png","icon_background_color":"#FF9E67","icon_mask_base_uri":"https://maps.gstatic.com/mapfiles/place_api/icons/v2/restaurant_pinlet","name":"Le Tiroir","opening_hours":{"open_now":false},"photos":[{"height":2448,"html_attributions":["<a href=\"https://maps.google.com/maps/contrib/106734119568610804753\">Anthony Bondon</a>"],"photo_reference":"AeJbb3dhVuQVC4nezmq8X3FeQJx83lE6P0fRRdaRKlWM3LQGo155MCxSkIMNGtRSDlr8VORcCH6pzoVSBB0kXwFOdN_uE8iuSdZD41E7mvRefjTNKx8KSv6k67fU56sSOh7oKB4jwbr84DonQKw4K1dgXxJtj8_XCkFncQAw_EWGmJF6LvTo","width":3264}],"place_id":"ChIJ__8zfnLr9EcRYp1vZOtgnm8","plus_code":{"compound_code":"QRF4+QR Lyon","global_code":"8FQ6QRF4+QR"},"price_level":2,"rating":4.7,"reference":"ChIJ__8zfnLr9EcRYp1vZOtgnm8","types":["restaurant","food","point_of_interest","establishment"],"user_ratings_total":466},{"business_status":"OPERATIONAL","formatted_address":"125 Rue de Sèze, 69006 Lyon","geometry":{"location":{"lat":45.7691193,"lng":4.8560226},"viewport":{"northeast":{"lat":45.77044152989272,"lng":4.857362879892722},"southwest":{"lat":45.76774187010728,"lng":4.854663220107279}}},"icon":"https://maps.gstatic.com/mapfiles/place_api/icons/v1/png_71/restaurant-71.png","icon_background_color":"#FF9E67","icon_mask_base_uri":"https://maps.gstatic.com/mapfiles/place_api/icons/v2/restaurant_pinlet","name":"Restaurant le Gourmet de Séze","opening_hours":{"open_now":false},"photos":[{"height":3408,"html_attributions":["<a href=\"https://maps.google.com/maps/contrib/100513783964191748790\">Restaurant le Gourmet de Séze</a>"],"photo_reference":"AeJbb3cYmHFrwfbz2gsy4T4CwaHZ5lbi8leb5HYpY3hOhM_s1SEvs2YHvyaXWciw9V1-KpqYouZlSClXOay4US3EMmk7PHO1qLDVjItAUqJ2Pn7N8XFOvs3EyfjTJlFsABn_CnqANpI1b8fXjMHsw-nl3_eQkPL7aE3_m7cvRZw9Juz9s-ey","width":5171}],"place_id":"ChIJS_o_P4zq9EcRKSWuB8KhVYs","plus_code":{"compound_code":"QV94+JC Lyon","global_code":"8FQ6QV94+JC"},"price_level":3,"rating":4.7,"reference":"ChIJS_o_P4zq9EcRKSWuB8KhVYs","types":["restaurant","food","point_of_interest","establishment"],"user_ratings_total":440},{"business_status":"OPERATIONAL","formatted_address":"11 Rue Chavanne, 69001 Lyon","geometry":{"location":{"lat":45.76492810000001,"lng":4.832433099999999},"viewport":{"northeast":{"lat":45.76626532989272,"lng":4.833794829892723},"southwest":{"lat":45.76356567010727,"lng":4.831095170107279}}},"icon":"https://maps.gstatic.com/mapfiles/place_api/icons/v1/png_71/restaurant-71.png","icon_background_color":"#FF9E67","icon_mask_base_uri":"https://maps.gstatic.com/mapfiles/place_api/icons/v2/restaurant_pinlet","name":"PRaiRiaL","opening_hours":{"open_now":false},"photos":[{"height":850,"html_attributions":["<a href=\"https://maps.google.com/maps/contrib/113042115987675624653\">A Google User</a>"],"photo_reference":"AeJbb3eiK2nafBIGLV0RDtYgYRalsaDpLAxjH3P7GPVdC4PSiiw_CQnVjxlh0CEeRO4ep7IQAzsCTn7jN1ld34Qp69nkYXKDczOpLPSNoH93ivxRpY254k4k1xUmJMwZbvjA1sLkgBtaAV-xQzR3_UFFDZR2DPXKDAlO03xlBmXPL75My9aq","width":1280}],"place_id":"ChIJmSs1dP_q9EcRwmrEzLAo5fg","plus_code":{"compound_code":"QR7M+X2 Lyon","global_code":"8FQ6QR7M+X2"},"price_level":3,"rating":4.7,"reference":"ChIJmSs1dP_q9EcRwmrEzLAo5fg","types":["restaurant","food","point_of_interest","establishment"],"user_ratings_total":434},{"business_status":"OPERATIONAL","formatted_address":"22 Rue des Remparts d'Ainay, 69002 Lyon","geometry":{"location":{"lat":45.7528874,"lng":4.8302475},"viewport":{"northeast":{"lat":45.75424432989271,"lng":4.831569579892722},"southwest":{"lat":45.75154467010727,"lng":4.828869920107278}}},"icon":"https://maps.gstatic.com/mapfiles/place_api/icons/v1/png_71/restaurant-71.png","icon_background_color":"#FF9E67","icon_mask_base_uri":"https://maps.gstatic.com/mapfiles/place_api/icons/v2/restaurant_pinlet","name":"L'Établi","opening_hours":{"open_now":false},"photos":[{"height":4032,"html_attributions":["<a href=\"https://maps.google.com/maps/contrib/104385194573078814464\">Jean-Luc MINGAS</a>"],"photo_reference":"AeJbb3dc2EAi8LK595OzuL-fbCXrCjHrzBHSCo7UXZc0cTevwcGojc1L9RIgvYdrBwmfZnKVGDGIJoaEnv4AhrWujzQa82d-gjrm6PO26M4uJBqAKfK0sp4dmIo21d2QpH8ViewscfL8_pKKPvLjTeUvJlbM-CWntUWRPOhxGBY3bZWO1koY","width":1908}],"place_id":"ChIJM0_eB03q9EcRx0NcsKQWYaM","plus_code":{"compound_code":"QR3J+43 Lyon","global_code":"8FQ6QR3J+43"},"price_level":3,"rating":4.7,"reference":"ChIJM0_eB03q9EcRx0NcsKQWYaM","types":["restaurant","food","point_of_interest","establishment"],"user_ratings_total":386},{"business_status":"OPERATIONAL","formatted_address":"4 Pl. des Terreaux, 69001 Lyon","geometry":{"location":{"lat":45.7678074,"lng":4.833635699999999},"viewport":{"northeast":{"lat":45.76891397989272,"lng":4.835043829892722},"southwest":{"lat":45.76621432010727,"lng":4.832344170107278}}},"icon":"https://maps.gstatic.com/mapfiles/place_api/icons/v1/png_71/restaurant-71.png","icon_background_color":"#FF9E67","icon_mask_base_uri":"https://maps.gstatic.com/mapfiles/place_api/icons/v2/restaurant_pinlet","name":"Restaurant l'étage","opening_hours":{"open_now":false},"photos":[{"height":3024,"html_attributions":["<a href=\"https://maps.google.com/maps/contrib/109314822283346879168\">Xavier Lantoinette</a>"],"photo_reference":"AeJbb3edWt0RLQ27OSMNN6E-uhoVIwVZjeXJnRYTdXTgzEHdxEhuVC2oGElfeJ7RU0G76mRPVD5-EVs4exaVDxNyy7RC_37f84BtSMeG5ttw7NEfDrdfU-e7GeJLSdtkAPdeSH0hl_hJSVTkqnwQAUvIKnCWjcmneLUZUtxOFQ537zsuvAed","width":4032}],"place_id":"ChIJsVkkkv7q9EcRaxCC8uQVoX4","plus_code":{"compound_code":"QR9M+4F Lyon","global_code":"8FQ6QR9M+4F"},"rating":4.7,"reference":"ChIJsVkkkv7q9EcRaxCC8uQVoX4","types":["restaurant","food","point_of_interest","establishment"],"user_ratings_total":255},{"business_status":"OPERATIONAL","formatted_address":"6 Rue du Bœuf, 69005 Lyon","geometry":{"location":{"lat":45.7633496,"lng":4.8272021},"viewport":{"northeast":{"lat":45.76465772989273,"lng":4.828677579892721},"southwest":{"lat":45.76195807010728,"lng":4.825977920107277}}},"icon":"https://maps.gstatic.com/mapfiles/place_api/icons/v1/png_71/restaurant-71.png","icon_background_color":"#FF9E67","icon_mask_base_uri":"https://maps.gstatic.com/mapfiles/place_api/icons/v2/restaurant_pinlet","name":"Restaurant Les Loges - Chef Anthony Bonnet","opening_hours":{"open_now":false},"photos":[{"height":4032,"html_attributions":["<a href=\"https://maps.google.com/maps/contrib/116147356279238576502\">Grandgirard Tania</a>"],"photo_reference":"AeJbb3ezymm2EuMCka1YbvrwntAVqmslKzLY6CnPa-K6yuYavZeW1VZnR0aPzuT24LKz0BIEeZJWdH7ddt7QkbgdH6OqKs_r2qy1Z75WqK8GqglCWyLs2O_bYPBCv8BpUmElZZ1tRcQjxQgiLORVh_hDRzoOKwwq4VIhmkqnCNy7pOoKtXP-","width":3024}],"place_id":"ChIJz_1o8cDr9EcR9SU6doJvr50","plus_code":{"compound_code":"QR7G+8V Lyon","global_code":"8FQ6QR7G+8V"},"rating":4.7,"reference":"ChIJz_1o8cDr9EcR9SU6doJvr50","types":["restaurant","food","point_of_interest","establishment"],"user_ratings_total":52},{"business_status":"OPERATIONAL","formatted_address":"13 Quai de la Pêcherie, 69001 Lyon","geometry":{"location":{"lat":45.7651467,"lng":4.8316678},"viewport":{"northeast":{"lat":45.76646412989271,"lng":4.833054629892721},"southwest":{"lat":45.76376447010727,"lng":4.830354970107277}}},"icon":"https://maps.gstatic.com/mapfiles/place_api/icons/v1/png_71/restaurant-71.png","icon_background_color":"#FF9E67","icon_mask_base_uri":"https://maps.gstatic.com/mapfiles/place_api/icons/v2/restaurant_pinlet","name":"L'Éclat","opening_hours":{"open_now":false},"photos":[{"height":3024,"html_attributions":["<a href=\"https://maps.google.com/maps/contrib/112048851577347435097\">Dominique DE SAUZA</a>"],"photo_reference":"AeJbb3dU47-wcXv81BPoH3WOqWp4irGHGwivNOFG7nxKfoSXCQDzxpHXeoMZBVAerv815Vc-nOCpXYkHpeezJDDtuoqUFjScjMuI-XpcuAWQyFikx-x91iX-YL0039YK-tWOyuen9JmNpQP53yQ-_E___rLD0sawYXkIZSqZNdhKS2nwj9Rq","width":4032}],"place_id":"ChIJYfQhmP_q9EcR9i4uxqJdcQA","plus_code":{"compound_code":"QR8J+3P Lyon","global_code":"8FQ6QR8J+3P"},"rating":4.7,"reference":"ChIJYfQhmP_q9EcR9i4uxqJdcQA","types":["restaurant","food","point_of_interest","establishment"],"user_ratings_total":43},{"business_status":"OPERATIONAL","formatted_address":"14 Rue Royale, 69001 Lyon","geometry":{"location":{"lat":45.7711214,"lng":4.8372116},"viewport":{"northeast":{"lat":45.77307782989272,"lng":4.838609429892722},"southwest":{"lat":45.77037817010728,"lng":4.835909770107278}}},"icon":"https://maps.gstatic.com/mapfiles/place_api/icons/v1/png_71/restaurant-71.png","icon_background_color":"#FF9E67","icon_mask_base_uri":"https://maps.gstatic.com/mapfiles/place_api/icons/v2/restaurant_pinlet","name":"Le Comptoir Bourguignon","opening_hours":{"open_now":false},"photos":[{"height":4350,"html_attributions":["<a href=\"https://maps.google.com/maps/contrib/101088727572526277464\">A Google User</a>"],"photo_reference":"AeJbb3eHXkG1rzMG4wRcg0zwh0Wzjkd3hr71BtcBg6QhofoKDZpuufcSZiDLthIQS28WSYW2lEme0teVxLSXHdXWejO_wpb5AsL52uCFzGPdvER5DTIigm3-PihuiAEB_wH5nN5lGrmR483qXlgn2UzMFZV4vgESMexYSActcAn72p77nB9w","width":6525}],"place_id":"ChIJuzpf5yLr9EcR7BgzNla7BBU","plus_code":{"compound_code":"QRCP+CV Lyon","global_code":"8FQ6QRCP+CV"},"rating":4.7,"reference":"ChIJuzpf5yLr9EcR7BgzNla7BBU","types":["restaurant","food","point_of_interest","establishment"],"user_ratings_total":36},{"business_status":"OPERATIONAL","formatted_address":"47 Av. Maréchal Foch, 69006 Lyon","geometry":{"location":{"lat":45.7705598,"lng":4.8436828},"viewport":{"northeast":{"lat":45.77189342989273,"lng":4.844907079892722},"southwest":{"lat":45.76919377010729,"lng":4.842207420107278}}},"icon":"https://maps.gstatic.com/mapfiles/place_api/icons/v1/png_71/restaurant-71.png","icon_background_color":"#FF9E67","icon_mask_base_uri":"https://maps.gstatic.com/mapfiles/place_api/icons/v2/restaurant_pinlet","name":"M Restaurant","opening_hours":{"open_now":false},"photos":[{"height":2448,"html_attributions":["<a href=\"https://maps.google.com/maps/contrib/107801007825074334992\">Laure Michallet</a>"],"photo_reference":"AeJbb3eYksi6aKsvm-cG0Ity3-is9MJ-150gXgsXVyt1sogkVkPKF1FDCzc1a2mWHtbL2MkaOc2JR6W_rPPE1MCanwmEIcaOewWL85gSNGXj6HbUl06ki--uzjapI9SUH_Izqo-3zFB2WXIppf_wEoIYWNqBffsyvJ2xuPNpU99N7Qt7Fqb_","width":3264}],"place_id":"ChIJ107fV_Dq9EcRWLJch_Ct91Q","plus_code":{"compound_code":"QRCV+6F Lyon","global_code":"8FQ6QRCV+6F"},"price_level":2,"rating":4.6,"reference":"ChIJ107fV_Dq9EcRWLJch_Ct91Q","types":["restaurant","food","point_of_interest","establishment"],"user_ratings_total":571},{"business_status":"OPERATIONAL","formatted_address":"52 Rue Tronchet, 69006 Lyon","geometry":{"location":{"lat":45.7699475,"lng":4.8495134},"viewport":{"northeast":{"lat":45.77130742989272,"lng":4.850860079892721},"southwest":{"lat":45.76860777010727,"lng":4.848160420107277}}},"icon":"https://maps.gstatic.com/mapfiles/place_api/icons/v1/png_71/restaurant-71.png","icon_background_color":"#FF9E67","icon_mask_base_uri":"https://maps.gstatic.com/mapfiles/place_api/icons/v2/restaurant_pinlet","name":"LE PASSE TEMPS","opening_hours":{"open_now":false},"photos":[{"height":3648,"html_attributions":["<a href=\"https://maps.google.com/maps/contrib/105663490167035229777\">Dovan Suissa</a>"],"photo_reference":"AeJbb3c77HIbNnaL8_eddKDl2cbjqczeTT866mlVCsipMBHikgVLM6ztOTbssO5jEB1fzZePog9aji1VZWkqGDQ6NpesnfH0DpZWi4BWxtcC_tiRFOQzr3rLJeKtsXYe_Jh-RV6EZ9SAsHxj_L5elwOYM2LbLYGXVd06iMrWM7Oix0hbXKpf","width":5472}],"place_id":"ChIJzbsaB_Pq9EcRFhgt1mFaN5c","plus_code":{"compound_code":"QR9X+XR Lyon","global_code":"8FQ6QR9X+XR"},"price_level":3,"rating":4.6,"reference":"ChIJzbsaB_Pq9EcRFhgt1mFaN5c","types":["restaurant","food","point_of_interest","establishment"],"user_ratings_total":408},{"business_status":"OPERATIONAL","formatted_address":"93 Rue Bossuet, 69006 Lyon","geometry":{"location":{"lat":45.76833329999999,"lng":4.855},"viewport":{"northeast":{"lat":45.76963267989272,"lng":4.856325279892721},"southwest":{"lat":45.76693302010727,"lng":4.853625620107277}}},"icon":"https://maps.gstatic.com/mapfiles/place_api/icons/v1/png_71/restaurant-71.png","icon_background_color":"#FF9E67","icon_mask_base_uri":"https://maps.gstatic.com/mapfiles/place_api/icons/v2/restaurant_pinlet","name":"Le zeste gourmand","opening_hours":{"open_now":false},"photos":[{"height":2448,"html_attributions":["<a href=\"https://maps.google.com/maps/contrib/105467320852978827433\">Jaehyun Choi</a>"],"photo_reference":"AeJbb3d_B2u95T9y1O3wltLPnqXHjE-qxoWLQC61KzBh9ml-W2pGks8j0xH5D5jB0LQDF2yFHx_ObBf9femLz6J-w6XtrRhh7yeEZOcdPedEiv1wTAPn2eOd-s7xBrkZo4dXSjCOKsjqSFNQfDwPDI1HlfjYc815_Vz2TAgAdpUJG93lubEf","width":2448}],"place_id":"ChIJq6oue4zq9EcRIP_91oZOlwQ","plus_code":{"compound_code":"QV93+8X Lyon","global_code":"8FQ6QV93+8X"},"rating":4.6,"reference":"ChIJq6oue4zq9EcRIP_91oZOlwQ","types":["restaurant","food","point_of_interest","establishment"],"user_ratings_total":295},{"business_status":"OPERATIONAL","formatted_address":"7 Rue de la Martinière, 69001 Lyon","geometry":{"location":{"lat":45.768305,"lng":4.8289928},"viewport":{"northeast":{"lat":45.76960222989272,"lng":4.830360829892723},"southwest":{"lat":45.76690257010728,"lng":4.827661170107279}}},"icon":"https://maps.gstatic.com/mapfiles/place_api/icons/v1/png_71/restaurant-71.png","icon_background_color":"#FF9E67","icon_mask_base_uri":"https://maps.gstatic.com/mapfiles/place_api/icons/v2/restaurant_pinlet","name":"Sapnà","opening_hours":{"open_now":false},"photos":[{"height":1766,"html_attributions":["<a href=\"https://maps.google.com/maps/contrib/106111597739528519842\">A Google User</a>"],"photo_reference":"AeJbb3e9UBrC-NOXEoaJQM1HT8slb4XqIGCgl43R4VbpMToyA-j9j_QG-XyGk9F8y8LpT4yHykf_bymtqBUvs8atJT3_fxPJHjLeX6TD4rmq0nWuJNkMcBszgM2BA4pDWN21pf8aQtHkmg3cS_3jE0NRNpstAuOTmru0p7uDtoJtbMqkGIBc","width":2358}],"place_id":"ChIJKY7o5Xnr9EcROFvyU6lIjKU","plus_code":{"compound_code":"QR9H+8H Lyon","global_code":"8FQ6QR9H+8H"},"rating":4.6,"reference":"ChIJKY7o5Xnr9EcROFvyU6lIjKU","types":["restaurant","food","point_of_interest","establishment"],"user_ratings_total":266},{"business_status":"OPERATIONAL","formatted_address":"75 Rue Boileau, 69006 Lyon","geometry":{"location":{"lat":45.7697258,"lng":4.8490741},"viewport":{"northeast":{"lat":45.77105967989272,"lng":4.850331129892722},"southwest":{"lat":45.76836002010727,"lng":4.847631470107278}}},"icon":"https://maps.gstatic.com/mapfiles/place_api/icons/v1/png_71/restaurant-71.png","icon_background_color":"#FF9E67","icon_mask_base_uri":"https://maps.gstatic.com/mapfiles/place_api/icons/v2/restaurant_pinlet","name":"Restaurant Cazenove de Pierre ORSI","opening_hours":{"open_now":false},"photos":[{"height":3024,"html_attributions":["<a href=\"https://maps.google.com/maps/contrib/106831045324411840875\">차정은</a>"],"photo_reference":"AeJbb3cZeXjDkPHYXbsACocRLk19baMPYvoF5u1Mryhdwu3ms_eP_danciIcH04y-vX4pI7mCRCi-53R9SrQVGalTINeZaJ7m53Y6alHeYyVUdtmhGVn36qPARivRU4MsKFB9nhCYCbb8jifdojDdtC53zpRJoT4-oXnMwOBiwbvBQuRZfhw","width":4032}],"place_id":"ChIJL8prpvPq9EcRFyqNqyBKDAc","plus_code":{"compound_code":"QR9X+VJ Lyon","global_code":"8FQ6QR9X+VJ"},"price_level":3,"rating":4.6,"reference":"ChIJL8prpvPq9EcRFyqNqyBKDAc","types":["restaurant","food","point_of_interest","establishment"],"user_ratings_total":235},{"business_status":"OPERATIONAL","formatted_address":"11 Pl. de Verdun, 69250 Albigny-sur-Saône","geometry":{"location":{"lat":45.865205,"lng":4.8314471},"viewport":{"northeast":{"lat":45.86656812989272,"lng":4.832710079892721},"southwest":{"lat":45.86386847010728,"lng":4.830010420107278}}},"icon":"https://maps.gstatic.com/mapfiles/place_api/icons/v1/png_71/restaurant-71.png","icon_background_color":"#FF9E67","icon_mask_base_uri":"https://maps.gstatic.com/mapfiles/place_api/icons/v2/restaurant_pinlet","name":"La Table d'Albigny","opening_hours":{"open_now":false},"photos":[{"height":1201,"html_attributions":["<a href=\"https://maps.google.com/maps/contrib/103784892280902539581\">LA TABLE D&#39;ALBIGNY</a>"],"photo_reference":"AeJbb3ecMam4lkM7ayXQqjVJ3xVbsTGAN5uBgSu47IC9M9Slpjk-8zgVPaEHRZipLT-WpC_2LNKNLdDv4Oq5q0dKLoOvrS5DJHpqq5bTdHEEAkJaIKedg8sWv8lIdiB1dh14tLVv3HeloKNlembU6MWNK1Mk4VGyl5_ULFP3dcFqQYJv9Oc","width":1600}],"place_id":"ChIJ9wVYkDuU9EcRmBjgi5aNFq0","plus_code":{"compound_code":"VR8J+3H Albigny-sur-Saône","global_code":"8FQ6VR8J+3H"},"price_level":2,"rating":4.6,"reference":"ChIJ9wVYkDuU9EcRmBjgi5aNFq0","types":["restaurant","food","point_of_interest","establishment"],"user_ratings_total":195},{"business_status":"OPERATIONAL","formatted_address":"112 Boulevard des Belges, 69006 Lyon","geometry":{"location":{"lat":45.7683441,"lng":4.858554799999999},"viewport":{"northeast":{"lat":45.76972802989273,"lng":4.859966029892721},"southwest":{"lat":45.76702837010728,"lng":4.857266370107277}}},"icon":"https://maps.gstatic.com/mapfiles/place_api/icons/v1/png_71/restaurant-71.png","icon_background_color":"#FF9E67","icon_mask_base_uri":"https://maps.gstatic.com/mapfiles/place_api/icons/v2/restaurant_pinlet","name":"Restaurant Miraflores","opening_hours":{"open_now":false},"photos":[{"height":3120,"html_attributions":["<a href=\"https://maps.google.com/maps/contrib/101499854939271532217\">Jacques Barbier</a>"],"photo_reference":"AeJbb3cOnk91JzI5rE7SLHyqWauOMbcOSZNmhzN5FnBQTfzp8z8Mwok4jOhNmBIorRk7O1Llzmv0DsFajJs2ak3Bhl0OkMkQSTedAEEN0ZSJU0UEEZYarftgysuIdushzEUQtVl0MuOZjSGgs6u16yOtsnPFHFGD-fQJcjb04x41KCrC_d6M","width":4160}],"place_id":"ChIJjd9AGvPq9EcRDp6a9VcyAKk","plus_code":{"compound_code":"QV95+8C Lyon","global_code":"8FQ6QV95+8C"},"rating":4.6,"reference":"ChIJjd9AGvPq9EcRDp6a9VcyAKk","types":["restaurant","food","point_of_interest","establishment"],"user_ratings_total":173},{"business_status":"OPERATIONAL","formatted_address":"40 Rue Pierre Corneille, 69006 Lyon","geometry":{"location":{"lat":45.765227,"lng":4.843383},"viewport":{"northeast":{"lat":45.76661202989272,"lng":4.844797379892722},"southwest":{"lat":45.76391237010728,"lng":4.842097720107279}}},"icon":"https://maps.gstatic.com/mapfiles/place_api/icons/v1/png_71/restaurant-71.png","icon_background_color":"#FF9E67","icon_mask_base_uri":"https://maps.gstatic.com/mapfiles/place_api/icons/v2/restaurant_pinlet","name":"Sauf Imprevu Restaurant","opening_hours":{"open_now":false},"photos":[{"height":2736,"html_attributions":["<a href=\"https://maps.google.com/maps/contrib/108408726226338460065\">harboucha bicha</a>"],"photo_reference":"AeJbb3fITNttzq7AGU-6N53vY12xnW0bunK4wZhs4msHfVA1QJ8AKwKCsvOGWYKFdxHI2bj4SYCJo0nia59trZLj4Jrnmev8IyuShc8U_4CFNdkMJoHyY8o2QJZhTox_aZ-VQgcofRR6Kvp39ZJDO47vaQmgTlynBifXfoJ8NyyYNZMkwX49","width":3648}],"place_id":"ChIJfeIWTfbq9EcR_rp0oyvVWag","plus_code":{"compound_code":"QR8V+39 Lyon","global_code":"8FQ6QR8V+39"},"rating":4.6,"reference":"ChIJfeIWTfbq9EcR_rp0oyvVWag","types":["restaurant","food","point_of_interest","establishment"],"user_ratings_total":153},{"business_status":"OPERATIONAL","formatted_address":"142 Av. Lavoisier, 01600 Massieux","geometry":{"location":{"lat":45.903651,"lng":4.8186211},"viewport":{"northeast":{"lat":45.90496027989272,"lng":4.819903029892722},"southwest":{"lat":45.90226062010728,"lng":4.817203370107278}}},"icon":"https://maps.gstatic.com/mapfiles/place_api/icons/v1/png_71/restaurant-71.png","icon_background_color":"#FF9E67","icon_mask_base_uri":"https://maps.gstatic.com/mapfiles/place_api/icons/v2/restaurant_pinlet","name":"Restaurant Maison Germains","opening_hours":{"open_now":false},"photos":[{"height":3024,"html_attributions":["<a href=\"https://maps.google.com/maps/contrib/105377755018577883208\">A Google User</a>"],"photo_reference":"AeJbb3eKl851GwNX4P7zY75fZ5KY22Y8cacJOigZJ8iZ2gjtJ1Ucc7n5izbSke-4Iw4AHOLZHLxENTxSZmURexOhdHNUv087rh5rgNJw7R2jqf2HXuxDzUg-cqv4QbwcHnS2NGla2mdKCaq5xLhn5FgCbcg_pVP4Y94zaZTXCYJBG2izrsEN","width":4032}],"place_id":"ChIJ3QLDF8-W9EcRkw2LoCSNeMw","plus_code":{"compound_code":"WR39+FC Massieux","global_code":"8FQ6WR39+FC"},"price_level":2,"rating":4.6,"reference":"ChIJ3QLDF8-W9EcRkw2LoCSNeMw","types":["restaurant","food","point_of_interest","establishment"],"user_ratings_total":117},{"business_status":"OPERATIONAL","formatted_address":"23 Rue Royale, 69001 Lyon","geometry":{"location":{"lat":45.7706701,"lng":4.837375499999999},"viewport":{"northeast":{"lat":45.77202302989272,"lng":4.838664779892721},"southwest":{"lat":45.76932337010728,"lng":4.835965120107277}}},"icon":"https://maps.gstatic.com/mapfiles/place_api/icons/v1/png_71/restaurant-71.png","icon_background_color":"#FF9E67","icon_mask_base_uri":"https://maps.gstatic.com/mapfiles/place_api/icons/v2/restaurant_pinlet","name":"Le Cochon Qui Boit","opening_hours":{"open_now":false},"photos":[{"height":1123,"html_attributions":["<a href=\"https://maps.google.com/maps/contrib/106515554189993038091\">massimo jose monaco</a>"],"photo_reference":"AeJbb3esPPdVtliUPbz1On2a73S-SHhxVQyTBUqVVNlnOyLRlz0r6UQfnhT6kSJCsdRgPXSFvUVoF1aAcLPTaJbS0LI59OBIvDt3k0u2FXjXKsXaGV8xlGa-f1nWvC0skV3OahtMIUKtMwQYguiQp9Rlgo6XD6C14vzsyg5-n0ahnYNwVBtI","width":1356}],"place_id":"ChIJjfrbofvq9EcR8B-S-qBb4-E","plus_code":{"compound_code":"QRCP+7X Lyon","global_code":"8FQ6QRCP+7X"},"price_level":2,"rating":4.5,"reference":"ChIJjfrbofvq9EcR8B-S-qBb4-E","types":["restaurant","food","point_of_interest","establishment"],"user_ratings_total":488},{"business_status":"OPERATIONAL","formatted_address":"8 Rue Duhamel, 69002 Lyon","geometry":{"location":{"lat":45.7501984,"lng":4.8293371},"viewport":{"northeast":{"lat":45.75161027989272,"lng":4.830676379892722},"southwest":{"lat":45.74891062010727,"lng":4.827976720107278}}},"icon":"https://maps.gstatic.com/mapfiles/place_api/icons/v1/png_71/restaurant-71.png","icon_background_color":"#FF9E67","icon_mask_base_uri":"https://maps.gstatic.com/mapfiles/place_api/icons/v2/restaurant_pinlet","name":"Restaurant Vatel Lyon","opening_hours":{"open_now":false},"photos":[{"height":3749,"html_attributions":["<a href=\"https://maps.google.com/maps/contrib/103726463426133389889\">Restaurant Vatel</a>"],"photo_reference":"AeJbb3c17dWCy2yuiUcLquseRV4XaWGRY3Gws9NgS1LORAimYZjJcpesSlbrDp5CKpks4FWMlZd3JMEXPglgTPfUK07-ZlhonyfnWWypXiFYcIHFkdkEtCHAfYqJrGVPIIb2Sirc4Nr41kZv22NdR61Gc5trWlJkiP4j5s3NhVd9bnKHhFA","width":5625}],"place_id":"ChIJxTQdhUzq9EcR8IqcXQ8eYfI","plus_code":{"compound_code":"QR2H+3P Lyon","global_code":"8FQ6QR2H+3P"},"price_level":2,"rating":4.5,"reference":"ChIJxTQdhUzq9EcR8IqcXQ8eYfI","types":["restaurant","food","point_of_interest","establishment"],"user_ratings_total":483},{"business_status":"OPERATIONAL","formatted_address":"101 Rue Moncey, 69003 Lyon","geometry":{"location":{"lat":45.7617267,"lng":4.8502112},"viewport":{"northeast":{"lat":45.76303367989272,"lng":4.851577229892722},"southwest":{"lat":45.76033402010728,"lng":4.848877570107278}}},"icon":"https://maps.gstatic.com/mapfiles/place_api/icons/v1/png_71/restaurant-71.png","icon_background_color":"#FF9E67","icon_mask_base_uri":"https://maps.gstatic.com/mapfiles/place_api/icons/v2/restaurant_pinlet","name":"La Table 101","opening_hours":{"open_now":false},"photos":[{"height":2448,"html_attributions":["<a href=\"https://maps.google.com/maps/contrib/108134560267460402952\">Quintin Coppola</a>"],"photo_reference":"AeJbb3dsHPURNTaY0Gj8tMOWCMyM6Lx0zBccDWfwt2cGq81qFZwFBnAvdj2hj8bvHOk-NLkZNCgb_97xJHYCGS8BpMFFRmyh4fInR6VRb0BMN6-QDNnmAc8KPCxnRiCoULaMu1jsASTeCrCkFpaKj2n1YIpXjvfuuq0-4mhKoeaOrbRZVdjl","width":3264}],"place_id":"ChIJfeYX2V_q9EcRnqFAtnDMgx4","plus_code":{"compound_code":"QV62+M3 Lyon","global_code":"8FQ6QV62+M3"},"price_level":3,"rating":4.5,"reference":"ChIJfeYX2V_q9EcRnqFAtnDMgx4","types":["restaurant","food","point_of_interest","establishment"],"user_ratings_total":453},{"business_status":"OPERATIONAL","formatted_address":"20 Quai du Dr Gailleton, 69002 Lyon","geometry":{"location":{"lat":45.7547222,"lng":4.8341667},"viewport":{"northeast":{"lat":45.75613542989272,"lng":4.835323729892721},"southwest":{"lat":45.75343577010727,"lng":4.832624070107277}}},"icon":"https://maps.gstatic.com/mapfiles/place_api/icons/v1/png_71/restaurant-71.png","icon_background_color":"#FF9E67","icon_mask_base_uri":"https://maps.gstatic.com/mapfiles/place_api/icons/v2/restaurant_pinlet","name":"LES TROIS DOMES","opening_hours":{"open_now":false},"photos":[{"height":1960,"html_attributions":["<a href=\"https://maps.google.com/maps/contrib/115054762278538303605\">genisso araujo mendes</a>"],"photo_reference":"AeJbb3fIFLeFfWUiZUPctvhtXd8MlTmt0lP279cHGgL-Zl_ek3UvEpHDUgHNNdITsKU4ZqnHYl3fSnAmFP8tUh67w7sjSmsMBknpTV2rh27LnzavSWwCAbiG_kXrda4H0V_ugqagOxzRcotX4iXwNpg3tZwi_qPB1KYgrWzDMalrN8jVezf_","width":4032}],"place_id":"ChIJ1dbOH07q9EcRRtOoS2TUnmU","plus_code":{"compound_code":"QR3M+VM Lyon","global_code":"8FQ6QR3M+VM"},"price_level":4,"rating":4.5,"reference":"ChIJ1dbOH07q9EcRRtOoS2TUnmU","types":["restaurant","food","point_of_interest","establishment"],"user_ratings_total":322},{"business_status":"OPERATIONAL","formatted_address":"005 4 rue Professeur Pierre MARION, 69005 Lyon","geometry":{"location":{"lat":45.7589834,"lng":4.8234694},"viewport":{"northeast":{"lat":45.76039042989273,"lng":4.824703579892721},"southwest":{"lat":45.75769077010728,"lng":4.822003920107277}}},"icon":"https://maps.gstatic.com/mapfiles/place_api/icons/v1/png_71/restaurant-71.png","icon_background_color":"#FF9E67","icon_mask_base_uri":"https://maps.gstatic.com/mapfiles/place_api/icons/v2/restaurant_pinlet","name":"Restaurant Gastronomique Christian Tetedoie","opening_hours":{"open_now":false},"photos":[{"height":1406,"html_attributions":["<a href=\"https://maps.google.com/maps/contrib/100079420195392294237\">Restaurant Tetedoie</a>"],"photo_reference":"AeJbb3epyHDcCcXDEq4a6gGqqtTLAKO7SPZvi1J_ocVTgBonoRksygwT_KsT14C7VlZ8Y87UVu7xMbqcCbvi9PBV7mYD-ILvWK8c_uQBvWhJ8dqhjyFSDAIrq-xw_UQogFAplhpTpPK2QnIpOwKRc4zxt7v5dw38GUukgjAFAAtBG7FyAQwN","width":2598}],"place_id":"ChIJOQNc8avr9EcRIXpW7S6nnS4","plus_code":{"compound_code":"QR5F+H9 Lyon","global_code":"8FQ6QR5F+H9"},"price_level":3,"rating":4.4,"reference":"ChIJOQNc8avr9EcRIXpW7S6nnS4","types":["restaurant","food","point_of_interest","establishment"],"user_ratings_total":2488},{"business_status":"OPERATIONAL","formatted_address":"44 Rue Mercière, 69002 Lyon","geometry":{"location":{"lat":45.762963,"lng":4.832396},"viewport":{"northeast":{"lat":45.76447667989272,"lng":4.833888229892721},"southwest":{"lat":45.76177702010728,"lng":4.831188570107277}}},"icon":"https://maps.gstatic.com/mapfiles/place_api/icons/v1/png_71/restaurant-71.png","icon_background_color":"#FF9E67","icon_mask_base_uri":"https://maps.gstatic.com/mapfiles/place_api/icons/v2/restaurant_pinlet","name":"Fiston - Cuisine française","opening_hours":{"open_now":false},"photos":[{"height":3456,"html_attributions":["<a href=\"https://maps.google.com/maps/contrib/117140020622095492036\">Maïlys Doë de Maindreville</a>"],"photo_reference":"AeJbb3fzyXVawkjGxVvN0KvBcvpHt70S1sl9U7D7WG16Kb1hA21QXlTljgV4LdKEb2G107ukdY4EbfRWm8O3E5sF8TmL8LM7J6NGj-Sf8v2vbv6NXKb2YQwPfSCKjpKc37hyVEAW3-alaJGsZm58yPcPx71HUNtHtZEjpT9rbfRtKKpE9gHs","width":4608}],"place_id":"ChIJQfbgnlXq9EcRQ9YWmWvif-Q","plus_code":{"compound_code":"QR7J+5X Lyon","global_code":"8FQ6QR7J+5X"},"price_level":2,"rating":4.4,"reference":"ChIJQfbgnlXq9EcRQ9YWmWvif-Q","types":["restaurant","food","point_of_interest","establishment"],"user_ratings_total":752},{"business_status":"OPERATIONAL","formatted_address":"1 Pl. Gailleton, 69002 Lyon","geometry":{"location":{"lat":45.7536309,"lng":4.8330005},"viewport":{"northeast":{"lat":45.75497182989272,"lng":4.834327879892722},"southwest":{"lat":45.75227217010728,"lng":4.831628220107278}}},"icon":"https://maps.gstatic.com/mapfiles/place_api/icons/v1/png_71/restaurant-71.png","icon_background_color":"#FF9E67","icon_mask_base_uri":"https://maps.gstatic.com/mapfiles/place_api/icons/v2/restaurant_pinlet","name":"Le Vivarais","opening_hours":{"open_now":false},"photos":[{"height":6324,"html_attributions":["<a href=\"https://maps.google.com/maps/contrib/112759404693895668675\">Le Vivarais</a>"],"photo_reference":"AeJbb3dQqPqOmepNja8U_2vHV8TiOTLJ5skAnJpH1jKOEZXZTLXIxr0vCyO4qoM2RwdvF83CAB5OxVX-dme2uqwT9t7Tv_HKMGLa0fn9FR7ok4p0DK7u1Dt8LXQyIGyveZjRcBKPJotY3XH_TbOJCYqqpz_2h0VGqz14HogiWrNV1Nr7lKNj","width":9486}],"place_id":"ChIJZ0Fz5E3q9EcR7eI8V70KTD8","plus_code":{"compound_code":"QR3M+F6 Lyon","global_code":"8FQ6QR3M+F6"},"price_level":2,"rating":4.4,"reference":"ChIJZ0Fz5E3q9EcR7eI8V70KTD8","types":["restaurant","food","point_of_interest","establishment"],"user_ratings_total":502},{"business_status":"OPERATIONAL","formatted_address":"26 Rue Francia, 69100 Villeurbanne","geometry":{"location":{"lat":45.7617241,"lng":4.9161393},"viewport":{"northeast":{"lat":45.76306417989272,"lng":4.917535879892721},"southwest":{"lat":45.76036452010727,"lng":4.914836220107277}}},"icon":"https://maps.gstatic.com/mapfiles/place_api/icons/v1/png_71/restaurant-71.png","icon_background_color":"#FF9E67","icon_mask_base_uri":"https://maps.gstatic.com/mapfiles/place_api/icons/v2/restaurant_pinlet","name":"Les Portes De L'Inde - Restaurant indien à Villeurbanne, Lyon","opening_hours":{"open_now":false},"photos":[{"height":1200,"html_attributions":["<a href=\"https://maps.google.com/maps/contrib/113244181393899414041\">A Google User</a>"],"photo_reference":"AeJbb3cixbJMTye0QeGs2srdiuqFWYQmwu89mXi88qDxRyby0c5p3YRc6wJ5H1npmZRG1yOBvb-snVw7tLStkkMXUww8DPcu1HOQR1Qnnz8DB8H7tNSSPsGgXpWq-r0QxJR6qNH3jkCYlWVPeOR8uwH1I_CXQKaaJOg8oDlEL6czNJDAin8P","width":1600}],"place_id":"ChIJUb-xrTfB9EcRADhebZlZqHo","plus_code":{"compound_code":"QW68+MF Villeurbanne","global_code":"8FQ6QW68+MF"},"rating":4.4,"reference":"ChIJUb-xrTfB9EcRADhebZlZqHo","types":["meal_takeaway","restaurant","food","point_of_interest","establishment"],"user_ratings_total":484},{"business_status":"OPERATIONAL","formatted_address":"25 Mnt Saint-Barthélémy, 69005 Lyon","geometry":{"location":{"lat":45.7633966,"lng":4.8261652},"viewport":{"northeast":{"lat":45.76477357989271,"lng":4.827463379892723},"southwest":{"lat":45.76207392010727,"lng":4.824763720107279}}},"icon":"https://maps.gstatic.com/mapfiles/place_api/icons/v1/png_71/restaurant-71.png","icon_background_color":"#FF9E67","icon_mask_base_uri":"https://maps.gstatic.com/mapfiles/place_api/icons/v2/restaurant_pinlet","name":"Les Terrasses de Lyon","opening_hours":{"open_now":false},"photos":[{"height":2001,"html_attributions":["<a href=\"https://maps.google.com/maps/contrib/108674376350644493262\">Les Terrasses de Lyon</a>"],"photo_reference":"AeJbb3cydce5lMD_KjG3Op5rd9g7b9CzrCYMgf9Qy3xXH5Yim2HvFlJlTEIMdtAoyvpl3d1dIYtfo9lRrTMe4Ct8DV_4OdHIOx5Vyfyd7qThU_Atjna6dHgw7JA-M9Tyt5BLQwKIMjZKVNeDNAPtWVZemmC0hpUcjWZMrjwvu9jeM_P0HSpT","width":3000}],"place_id":"ChIJw22Raarr9EcRhN5GA0obnrs","plus_code":{"compound_code":"QR7G+9F Lyon","global_code":"8FQ6QR7G+9F"},"rating":4.4,"reference":"ChIJw22Raarr9EcRhN5GA0obnrs","types":["restaurant","food","point_of_interest","establishment"],"user_ratings_total":469},{"business_status":"OPERATIONAL","formatted_address":"11 Av. de Grande Bretagne, 69006 Lyon","geometry":{"location":{"lat":45.7749641,"lng":4.843000200000001},"viewport":{"northeast":{"lat":45.77636752989272,"lng":4.844303679892722},"southwest":{"lat":45.77366787010727,"lng":4.841604020107278}}},"icon":"https://maps.gstatic.com/mapfiles/place_api/icons/v1/png_71/restaurant-71.png","icon_background_color":"#FF9E67","icon_mask_base_uri":"https://maps.gstatic.com/mapfiles/place_api/icons/v2/restaurant_pinlet","name":"Le Président restaurant","opening_hours":{"open_now":false},"photos":[{"height":2939,"html_attributions":["<a href=\"https://maps.google.com/maps/contrib/107628181862649340163\">A Google User</a>"],"photo_reference":"AeJbb3fkW4r1v92cTQqQcYU9h-sAMVcqlIwWBAPkQXtBeOtH2RLcBncS1b4EdlbRxSXgvy88rVR1tLvxtA9cWHz9jX8aDjpTKmmtMIwKKz857nu6qCr9nGDtYBMB9d2z5JFHEJaf5diS0SeV14wVZj4fqlRXgXcNi1eDGbtR_w1m7K9MXDKC","width":4928}],"place_id":"ChIJC5C2hO_q9EcRlA7_N3waUcY","plus_code":{"compound_code":"QRFV+X6 Lyon","global_code":"8FQ6QRFV+X6"},"rating":4.4,"reference":"ChIJC5C2hO_q9EcRlA7_N3waUcY","types":["restaurant","bar","food","point_of_interest","establishment"],"user_ratings_total":206},{"business_status":"OPERATIONAL","formatted_address":"12 All. des Tullistes, 69130 Écully","geometry":{"location":{"lat":45.7752504,"lng":4.779326},"viewport":{"northeast":{"lat":45.77663587989272,"lng":4.780678179892722},"southwest":{"lat":45.77393622010727,"lng":4.777978520107278}}},"icon":"https://maps.gstatic.com/mapfiles/place_api/icons/v1/png_71/restaurant-71.png","icon_background_color":"#FF9E67","icon_mask_base_uri":"https://maps.gstatic.com/mapfiles/place_api/icons/v2/restaurant_pinlet","name":"La table d'à côté","opening_hours":{"open_now":false},"photos":[{"height":3024,"html_attributions":["<a href=\"https://maps.google.com/maps/contrib/109498684332565957326\">Sandra Ferreira</a>"],"photo_reference":"AeJbb3fLUBgqUCFmsdzxCQaej4Yyj19Wq6YKBGS7tEmIrqReDsSchRd_XR_BJMB6Jru7Tz-V3DOFnUxfELFONHiowy-fSigPQL8iT4ASCShIJLdLf-bFIOeTNNb9SViXmhYTbu6o2d_SYRxYOUiB6gOt809ru3ctlfb2kyhb5_hObUlQSWLC","width":4032}],"place_id":"ChIJu3ssN4Xs9EcRwLVABSO70u4","plus_code":{"compound_code":"QQGH+4P Écully","global_code":"8FQ6QQGH+4P"},"price_level":2,"rating":4.4,"reference":"ChIJu3ssN4Xs9EcRwLVABSO70u4","types":["restaurant","food","point_of_interest","establishment"],"user_ratings_total":91},{"business_status":"OPERATIONAL","formatted_address":"20 Rue de la Charité, 69002 Lyon","geometry":{"location":{"lat":45.7546051,"lng":4.8323677},"viewport":{"northeast":{"lat":45.75594842989272,"lng":4.833745629892721},"southwest":{"lat":45.75324877010728,"lng":4.831045970107278}}},"icon":"https://maps.gstatic.com/mapfiles/place_api/icons/v1/png_71/restaurant-71.png","icon_background_color":"#FF9E67","icon_mask_base_uri":"https://maps.gstatic.com/mapfiles/place_api/icons/v2/restaurant_pinlet","name":"Restaurant la Tassée","opening_hours":{"open_now":false},"photos":[{"height":3000,"html_attributions":["<a href=\"https://maps.google.com/maps/contrib/114235245508855843466\">Julia Cb</a>"],"photo_reference":"AeJbb3c8YsYtRVmzjP2UMo_ddC6FsVeeKJx5Cz-h_kwUjaYfRiYnh5XFalvGSJmRj3xbmHRXe2J0NFE-y6Jhj3mME_thmu3cG2N5G7dVbnWIeMoUo5a8ZEdgGDVSVF9vT5OaAxc1W6nTauw0lazHFxSnVx0o8PNtnVkeNS1kD55DeYSPiXCy","width":4000}],"place_id":"ChIJ5R0D9k3q9EcRGsfNZ1XxIFo","plus_code":{"compound_code":"QR3J+RW Lyon","global_code":"8FQ6QR3J+RW"},"price_level":3,"rating":4.3,"reference":"ChIJ5R0D9k3q9EcRGsfNZ1XxIFo","types":["restaurant","food","point_of_interest","establishment"],"user_ratings_total":224},{"business_status":"OPERATIONAL","formatted_address":"7 Rue Bellecordière, 69002 Lyon","geometry":{"location":{"lat":45.7588094,"lng":4.836092799999999},"viewport":{"northeast":{"lat":45.75979392989272,"lng":4.837979079892721},"southwest":{"lat":45.75709427010728,"lng":4.835279420107277}}},"icon":"https://maps.gstatic.com/mapfiles/place_api/icons/v1/png_71/restaurant-71.png","icon_background_color":"#FF9E67","icon_mask_base_uri":"https://maps.gstatic.com/mapfiles/place_api/icons/v2/restaurant_pinlet","name":"Artisan de la Truffe Lyon","opening_hours":{"open_now":true},"photos":[{"height":3024,"html_attributions":["<a href=\"https://maps.google.com/maps/contrib/110312142938085093159\">A Google User</a>"],"photo_reference":"AeJbb3fVsf5MN7DWWY241VAkjmC7h3xXZ6nIoIKdBGoci_OzRf0Q9kxYUruDQ3mdNbaQDDt8mUNcViFH0t6Nr5sm6LCm17HeCGYqpeqwy-CmLYHoEVLf9DXnvOhMkyHTxibA0jXyDA-KCjIADt8zNmnSktM2b5SDcjlb5xV1wX3_SzteSX8e","width":3024}],"place_id":"ChIJiX31mB3r9EcRi2xbokxdn6M","plus_code":{"compound_code":"QR5P+GC Lyon","global_code":"8FQ6QR5P+GC"},"rating":4.3,"reference":"ChIJiX31mB3r9EcRi2xbokxdn6M","types":["restaurant","food","store","point_of_interest","establishment"],"user_ratings_total":149},{"business_status":"OPERATIONAL","formatted_address":"3 Cour Saint Henri Grand Hôtel-Dieu, 69002 Lyon","geometry":{"location":{"lat":45.7588169,"lng":4.8365056},"viewport":{"northeast":{"lat":45.76007552989272,"lng":4.837726379892723},"southwest":{"lat":45.75737587010727,"lng":4.835026720107279}}},"icon":"https://maps.gstatic.com/mapfiles/place_api/icons/v1/png_71/restaurant-71.png","icon_background_color":"#FF9E67","icon_mask_base_uri":"https://maps.gstatic.com/mapfiles/place_api/icons/v2/restaurant_pinlet","name":"Le Grand Réfectoire","opening_hours":{"open_now":false},"photos":[{"height":2475,"html_attributions":["<a href=\"https://maps.google.com/maps/contrib/111579562846221038007\">A Google User</a>"],"photo_reference":"AeJbb3fulKaJEel2pMJHXuigPkn1In25O0iiqOeAdgFt7Cl50OEIpIExH2XUNx5ZMtJWAreoqC4_qr_BT_pjNN31nbw1HOOC846oPr2Z41qEy_3GJ8Hr0jQSvON9wGXO-ufvg8l7DuIOHCLAbs4B5DprTzmaqLV59ZiawHZ97VgZIYjRuRQA","width":3500}],"place_id":"ChIJCc1x5bnr9EcRSldcV0PQq9A","plus_code":{"compound_code":"QR5P+GJ Lyon","global_code":"8FQ6QR5P+GJ"},"rating":4.2,"reference":"ChIJCc1x5bnr9EcRSldcV0PQq9A","types":["restaurant","food","point_of_interest","establishment"],"user_ratings_total":702},{"business_status":"OPERATIONAL","formatted_address":"31 Rue du Bât d'Argent, 69001 Lyon","geometry":{"location":{"lat":45.7662347,"lng":4.8377378},"viewport":{"northeast":{"lat":45.76754532989272,"lng":4.839090479892723},"southwest":{"lat":45.76484567010728,"lng":4.836390820107279}}},"icon":"https://maps.gstatic.com/mapfiles/place_api/icons/v1/png_71/restaurant-71.png","icon_background_color":"#FF9E67","icon_mask_base_uri":"https://maps.gstatic.com/mapfiles/place_api/icons/v2/restaurant_pinlet","name":"Restaurant La Quintessence","opening_hours":{"open_now":false},"photos":[{"height":3968,"html_attributions":["<a href=\"https://maps.google.com/maps/contrib/107692971990922823569\">Nathalie Magnard</a>"],"photo_reference":"AeJbb3fMOPHhc_wUu-Sa_3CcnIK_9vJ510xT3eYwDdNqKQypMGYBdCESLt-9oBqYEgpjazvsoAdvoCHNRajWu0CqL0sM1jRufesqv0U1rZWRXX_Pbgg7GjveZ772duR4LVpbV8_jE5fYkQlc2jKsr3oSBxigJhkOfPS1Z2F9CV3pGeMhJZk","width":2976}],"place_id":"ChIJUTSWAfnq9EcRvIIndGWx_jM","plus_code":{"compound_code":"QR8Q+F3 Lyon","global_code":"8FQ6QR8Q+F3"},"price_level":3,"rating":4.2,"reference":"ChIJUTSWAfnq9EcRvIIndGWx_jM","types":["restaurant","food","point_of_interest","establishment"],"user_ratings_total":330},{"business_status":"OPERATIONAL","formatted_address":"160 Cr du 3° Millénaire, 69800 Saint-Priest","geometry":{"location":{"lat":45.7157582,"lng":4.9289514},"viewport":{"northeast":{"lat":45.71720257989273,"lng":4.930451229892722},"southwest":{"lat":45.71450292010729,"lng":4.927751570107278}}},"icon":"https://maps.gstatic.com/mapfiles/place_api/icons/v1/png_71/restaurant-71.png","icon_background_color":"#FF9E67","icon_mask_base_uri":"https://maps.gstatic.com/mapfiles/place_api/icons/v2/restaurant_pinlet","name":"Le Cocon","opening_hours":{"open_now":false},"photos":[{"height":1200,"html_attributions":["<a href=\"https://maps.google.com/maps/contrib/102344401798055501638\">Le Cocon</a>"],"photo_reference":"AeJbb3d9svG6vpEBZrbhtb3wVl686omIXJEavi4zqntT0356Wk8MseJwRm3Rhdc3O7Ah_HKjUGNyj3SYJjOrcDVkDXhxyP__HnJVYLs_MVqqK137ONfi5Y0kB9OdQtZ_cgiJ-rkn5s0ZTh8tzZdWhpATj7NABh3-RM4EdPHt_FpeeydeQ7gB","width":1600}],"place_id":"ChIJI61JaOfD9EcRMnhng_1ymDY","plus_code":{"compound_code":"PW8H+8H Saint-Priest","global_code":"8FQ6PW8H+8H"},"price_level":2,"rating":4.1,"reference":"ChIJI61JaOfD9EcRMnhng_1ymDY","types":["restaurant","food","point_of_interest","establishment"],"user_ratings_total":285},{"business_status":"OPERATIONAL","formatted_address":"31 Bd Eugène Deruelle, 69003 Lyon","geometry":{"location":{"lat":45.76322829999999,"lng":4.855391},"viewport":{"northeast":{"lat":45.76455262989272,"lng":4.856759729892723},"southwest":{"lat":45.76185297010727,"lng":4.854060070107279}}},"icon":"https://maps.gstatic.com/mapfiles/place_api/icons/v1/png_71/restaurant-71.png","icon_background_color":"#FF9E67","icon_mask_base_uri":"https://maps.gstatic.com/mapfiles/place_api/icons/v2/restaurant_pinlet","name":"La Fine Touch'","opening_hours":{"open_now":true},"photos":[{"height":4032,"html_attributions":["<a href=\"https://maps.google.com/maps/contrib/114828317452337562567\">nadine fouletier</a>"],"photo_reference":"AeJbb3fK5xHKch9F28PxQj6St2-k7wlWp5b1XGkzn3ryzOXRKcmWvlolgqdHIo-VYfAS396qbv07-u1DZ9nE24LB3eSFcJSUTvq5ZU6ZQKqJSoTIoHfN8CXOzUOJZyAbvvKZXedAE7t6kWuJ-kOU2KxBjCKKOroX7fSpi9FhkP33RRjC90qB","width":3024}],"place_id":"ChIJB_u0CYrq9EcRsHV-2QdOF2E","plus_code":{"compound_code":"QV74+75 Lyon","global_code":"8FQ6QV74+75"},"rating":4,"reference":"ChIJB_u0CYrq9EcRsHV-2QdOF2E","types":["restaurant","food","point_of_interest","establishment"],"user_ratings_total":40},{"business_status":"OPERATIONAL","formatted_address":"304, N6, 69760 Limonest","geometry":{"location":{"lat":45.8090725,"lng":4.7795923},"viewport":{"northeast":{"lat":45.81039702989272,"lng":4.780957079892722},"southwest":{"lat":45.80769737010728,"lng":4.778257420107278}}},"icon":"https://maps.gstatic.com/mapfiles/place_api/icons/v1/png_71/restaurant-71.png","icon_background_color":"#FF9E67","icon_mask_base_uri":"https://maps.gstatic.com/mapfiles/place_api/icons/v2/restaurant_pinlet","name":"Elleixir","place_id":"ChIJ8SC19k6T9EcRkPpDJVSUIAw","plus_code":{"compound_code":"RQ5H+JR Limonest","global_code":"8FQ6RQ5H+JR"},"rating":0,"reference":"ChIJ8SC19k6T9EcRkPpDJVSUIAw","types":["restaurant","food","point_of_interest","establishment"],"user_ratings_total":0}]