[{"business_status":"OPERATIONAL","formatted_address":"4 Rue des Trois-Maries, 69005 Lyon","geometry":{"location":{"lat":45.762755,"lng":4.828318500000001},"viewport":{"northeast":{"lat":45.76409492989273,"lng":4.829658479892721},"southwest":{"lat":45.76139527010729,"lng":4.826958820107278}}},"icon":"https://maps.gstatic.com/mapfiles/place_api/icons/v1/png_71/restaurant-71.png","icon_background_color":"#FF9E67","icon_mask_base_uri":"https://maps.gstatic.com/mapfiles/place_api/icons/v2/restaurant_pinlet","name":"White Star Burgers, Poutines & Salades","opening_hours":{"open_now":false},"photos":[{"height":3024,"html_attributions":["<a href=\"https://maps.google.com/maps/contrib/112563169374107169339\">Majid Bakir</a>"],"photo_reference":"AeJbb3fYnoryCJmzqPt3EHykGGbTLTz94zwMOVJyPT-XC9-a_aIvPUbhc_310cdSneSRjlChqY5fBVAxdL2svkrEnJsaHSH0jjTLQ5PzfM0DrTN9uHkRWnioyMew4NohmlMnuAwIiEXaJZnYeMgUXYQnuGvAFDzN2iSvQEhAdrEgQFJTfnWY","width":3024}],"place_id":"ChIJBWgWPJrr9EcRGxXy6SHNp6M","plus_code":{"compound_code":"QR7H+47 Lyon","global_code":"8FQ6QR7H+47"},"rating":5,"reference":"ChIJBWgWPJrr9EcRGxXy6SHNp6M","types":["restaurant","point_of_interest","food","establishment"],"user_ratings_total":136},{"business_status":"OPERATIONAL","formatted_address":"36 Rue Père Chevrier, 69007 Lyon","geometry":{"location":{"lat":45.748334,"lng":4.8447848},"viewport":{"northeast":{"lat":45.74969572989272,"lng":4.846151529892722},"southwest":{"lat":45.74699607010728,"lng":4.843451870107278}}},"icon":"https://maps.gstatic.com/mapfiles/place_api/icons/v1/png_71/restaurant-71.png","icon_background_color":"#FF9E67","icon_mask_base_uri":"https://maps.gstatic.com/mapfiles/place_api/icons/v2/restaurant_pinlet","name":"Burger'it!","place_id":"ChIJVVUhbEHq9EcRdZrZ5Vk5SsQ","plus_code":{"compound_code":"PRXV+8V Lyon","global_code":"8FQ6PRXV+8V"},"rating":5,"reference":"ChIJVVUhbEHq9EcRdZrZ5Vk5SsQ","types":["restaurant","point_of_interest","food","establishment"],"user_ratings_total":5},{"business_status":"OPERATIONAL","formatted_address":"214 Rue Paul Bert, 69003 Lyon","geometry":{"location":{"lat":45.7569027,"lng":4.8637514},"viewport":{"northeast":{"lat":45.75830102989272,"lng":4.865109179892722},"southwest":{"lat":45.75560137010728,"lng":4.862409520107278}}},"icon":"https://maps.gstatic.com/mapfiles/place_api/icons/v1/png_71/restaurant-71.png","icon_background_color":"#FF9E67","icon_mask_base_uri":"https://maps.gstatic.com/mapfiles/place_api/icons/v2/restaurant_pinlet","name":"Les Bibi's Burger","opening_hours":{"open_now":false},"photos":[{"height":5668,"html_attributions":["<a href=\"https://maps.google.com/maps/contrib/100659718850481143659\">A Google User</a>"],"photo_reference":"AeJbb3eMgh4gT8q6zbF--7nWprhUuAawimXlrnfppx8Zz-g8b9pdV5FKKOzx0xL8b4i9wntnSnujsSmtF-xRNeSw0aRwl6FYR4VTJIAnWtGQwp-FvJMHUIzacAPPwXf7Ol8pAtEyAdeAVqmirL0zd6WaTpdw804kHx1DoOiYLdhNWrvT1AX5","width":3779}],"place_id":"ChIJMcy2VM3r9EcRmBNoL1iQJyI","plus_code":{"compound_code":"QV47+QG Lyon","global_code":"8FQ6QV47+QG"},"rating":4.9,"reference":"ChIJMcy2VM3r9EcRmBNoL1iQJyI","types":["restaurant","point_of_interest","food","establishment"],"user_ratings_total":56},{"business_status":"OPERATIONAL","formatted_address":"10 Pl. Jean Macé, 69007 Lyon","geometry":{"location":{"lat":45.74530559999999,"lng":4.8421851},"viewport":{"northeast":{"lat":45.74666547989272,"lng":4.843540879892721},"southwest":{"lat":45.74396582010727,"lng":4.840841220107277}}},"icon":"https://maps.gstatic.com/mapfiles/place_api/icons/v1/png_71/restaurant-71.png","icon_background_color":"#FF9E67","icon_mask_base_uri":"https://maps.gstatic.com/mapfiles/place_api/icons/v2/restaurant_pinlet","name":"Ghost Burger Jean Macé","opening_hours":{"open_now":false},"photos":[{"height":1198,"html_attributions":["<a href=\"https://maps.google.com/maps/contrib/111898582166449918000\">A Google User</a>"],"photo_reference":"AeJbb3ejyYkARIuJ5bsD2Z2VsyVZXPOmg4oC98dzWrSI7sDd1SeOdq_qkGvWSOeHtZgjCiHplAyPza1VFnYDa2KLbaZtuKNfwT4PWMHHu07L4TgkwtLAp4uc5ABciRmaRgKRCi7qWOzUiFDWgc2OROZ9k8-hEommNk36mcUaKH6LCgAlrEMa","width":1066}],"place_id":"ChIJi1rCbJbr9EcROqfpiqwzA8M","plus_code":{"compound_code":"PRWR+4V Lyon","global_code":"8FQ6PRWR+4V"},"rating":4.9,"reference":"ChIJi1rCbJbr9EcROqfpiqwzA8M","types":["restaurant","point_of_interest","food","establishment"],"user_ratings_total":21},{"business_status":"OPERATIONAL","formatted_address":"155 Grande Rue de St Clair, 69300 Caluire-et-Cuire","geometry":{"location":{"lat":45.790978,"lng":4.8595109},"viewport":{"northeast":{"lat":45.79229542989272,"lng":4.860812329892722},"southwest":{"lat":45.78959577010728,"lng":4.858112670107278}}},"icon":"https://maps.gstatic.com/mapfiles/place_api/icons/v1/png_71/restaurant-71.png","icon_background_color":"#FF9E67","icon_mask_base_uri":"https://maps.gstatic.com/mapfiles/place_api/icons/v2/restaurant_pinlet","name":"MASTER GRILL","opening_hours":{"open_now":false},"photos":[{"height":3024,"html_attributions":["<a href=\"https://maps.google.com/maps/contrib/103286870656721981011\">A Google User</a>"],"photo_reference":"AeJbb3fOZi1WOjJycj8539ZhoJEZsp1Lt6pYXs5pSZJIycHLrsAf_tC0zAE2ztR6DCCtrOB0Jzc2b6SC8wlXzTBMpH25PnZ00BYf7wjh99hp5cXebp2ijNGNnNQ5g1oUXGg-zvdB506wrjd_kA6acZhAfq1m1THGP6Xpp3aukAOc9_Zk8r_8","width":4032}],"place_id":"ChIJHeovZKrr9EcRPeA9klUsOAU","plus_code":{"compound_code":"QVR5+CQ Caluire-et-Cuire","global_code":"8FQ6QVR5+CQ"},"rating":4.8,"reference":"ChIJHeovZKrr9EcRPeA9klUsOAU","types":["restaurant","food","point_of_interest","establishment"],"user_ratings_total":116},{"business_status":"OPERATIONAL","formatted_address":"Place Pierre Louis Danis, 69580 Sathonay-Village","geometry":{"location":{"lat":45.83186509999999,"lng":4.8783999},"viewport":{"northeast":{"lat":45.83321492989271,"lng":4.879749729892722},"southwest":{"lat":45.83051527010727,"lng":4.877050070107278}}},"icon":"https://maps.gstatic.com/mapfiles/place_api/icons/v1/png_71/restaurant-71.png","icon_background_color":"#FF9E67","icon_mask_base_uri":"https://maps.gstatic.com/mapfiles/place_api/icons/v2/restaurant_pinlet","name":"Street Corner - Foodtruck burgers à Lyon","opening_hours":{"open_now":false},"photos":[{"height":3744,"html_attributions":["<a href=\"https://maps.google.com/maps/contrib/102011058225281857184\">A Google User</a>"],"photo_reference":"AeJbb3fH5LkMM85R0LxQ6KMxdTT1YclpNeg_BrWqBjCDuAGIKnWGRwASqL3hWe6AjTJk5JHtFInqIIp-Q5agKeeDnKLviwiFbLwVXE7dXnkgxAjWe52on1oZLGZq__d5FqMSczr-IrSWbCRCtcURM0D9kfMdXKVlhFRjdJWpGENcfSYIV_sn","width":5616}],"place_id":"ChIJSYlQRsS_9EcRcigS4gunA6o","plus_code":{"compound_code":"RVJH+P9 Sathonay-Village","global_code":"8FQ6RVJH+P9"},"rating":4.8,"reference":"ChIJSYlQRsS_9EcRcigS4gunA6o","types":["restaurant","point_of_interest","food","establishment"],"user_ratings_total":43},{"business_status":"OPERATIONAL","formatted_address":"33 Rue Ernest Renan, 69120 Vaulx-en-Velin","geometry":{"location":{"lat":45.7857911,"lng":4.905926399999999},"viewport":{"northeast":{"lat":45.78684487989272,"lng":4.907580579892722},"southwest":{"lat":45.78414522010728,"lng":4.904880920107278}}},"icon":"https://maps.gstatic.com/mapfiles/place_api/icons/v1/png_71/restaurant-71.png","icon_background_color":"#FF9E67","icon_mask_base_uri":"https://maps.gstatic.com/mapfiles/place_api/icons/v2/restaurant_pinlet","name":"Burger World","opening_hours":{"open_now":false},"photos":[{"height":1620,"html_attributions":["<a href=\"https://maps.google.com/maps/contrib/115954368324232879699\">A Google User</a>"],"photo_reference":"AeJbb3fgrpUj8xs5jCuaehqeC8tjIaUfkijYgvImkeN5074zoT3z-Q67F4VrHqxmbUS-ruZ34pc_g-nYIZcEHoJaksG7HWDj3rq5E-2XCzDRgaSqPK-cg2lomWwWpEF2Qm_WjambLqaaoivdGGwnSzyp_aV4KylPHCtkdFZJWVZ-j1_B0UFy","width":1620}],"place_id":"ChIJN5kPElfB9EcR14FU_t4ZcVw","plus_code":{"compound_code":"QWP4+89 Vaulx-en-Velin","global_code":"8FQ6QWP4+89"},"rating":4.7,"reference":"ChIJN5kPElfB9EcR14FU_t4ZcVw","types":["restaurant","point_of_interest","food","establishment"],"user_ratings_total":796},{"business_status":"OPERATIONAL","formatted_address":"59 Bd des Brotteaux, 69006 Lyon","geometry":{"location":{"lat":45.76387219999999,"lng":4.8576312},"viewport":{"northeast":{"lat":45.76513957989273,"lng":4.858832829892721},"southwest":{"lat":45.76243992010728,"lng":4.856133170107277}}},"icon":"https://maps.gstatic.com/mapfiles/place_api/icons/v1/png_71/restaurant-71.png","icon_background_color":"#FF9E67","icon_mask_base_uri":"https://maps.gstatic.com/mapfiles/place_api/icons/v2/restaurant_pinlet","name":"WARLIS&BRO","opening_hours":{"open_now":false},"photos":[{"height":4032,"html_attributions":["<a href=\"https://maps.google.com/maps/contrib/112798394798102953128\">A Google User</a>"],"photo_reference":"AeJbb3d_HtFQ-D1HOqOioO5HTkQPJQ9CHxClODfRkNIxqB2NIHLPHjUoCKixtWeI8i2zt-G-fMrOkp6IgUSsYJ4xaddaN10oBySDN4X4uDLT-41iStE9UNSxcmO565HS1JZCHNvuyXlz8KT5xz6in400KLUmv5br-Hi3dS67rBZ-5hrHG7gd","width":3024}],"place_id":"ChIJUw-46Ynq9EcR4mc9mwBaa7A","plus_code":{"compound_code":"QV75+G3 Lyon","global_code":"8FQ6QV75+G3"},"rating":4.7,"reference":"ChIJUw-46Ynq9EcR4mc9mwBaa7A","types":["restaurant","point_of_interest","food","establishment"],"user_ratings_total":333},{"business_status":"OPERATIONAL","formatted_address":"282 Cr Lafayette, 69003 Lyon","geometry":{"location":{"lat":45.7636324,"lng":4.8666993},"viewport":{"northeast":{"lat":45.76500982989273,"lng":4.868052029892723},"southwest":{"lat":45.76231017010728,"lng":4.865352370107279}}},"icon":"https://maps.gstatic.com/mapfiles/place_api/icons/v1/png_71/restaurant-71.png","icon_background_color":"#FF9E67","icon_mask_base_uri":"https://maps.gstatic.com/mapfiles/place_api/icons/v2/restaurant_pinlet","name":"TASTY BURGER","opening_hours":{"open_now":false},"photos":[{"height":3456,"html_attributions":["<a href=\"https://maps.google.com/maps/contrib/103499320180445253831\">Mumen</a>"],"photo_reference":"AeJbb3fGs2iSte-5K3WapuXzunz92Hy4a4kz1QqC3EASSlAWqSCvESa8QbcEPc7B_KCwrb1VfkVaO3s2NVUOBttRWvbMLGzu7rbyueP6-duEQikBp8PD9ivkr4EyGWkPfZrITKGAPMHS_KgsTbIZEpqWuZg9eZCT04b-judjrnA2Tjy458qj","width":4608}],"place_id":"ChIJAQAwSofq9EcRtTr2jJDCms0","plus_code":{"compound_code":"QV78+CM Lyon","global_code":"8FQ6QV78+CM"},"price_level":1,"rating":4.7,"reference":"ChIJAQAwSofq9EcRtTr2jJDCms0","types":["restaurant","point_of_interest","food","establishment"],"user_ratings_total":230},{"business_status":"OPERATIONAL","formatted_address":"56 Rue Saint-Pierre de Vaise, 69009 Lyon","geometry":{"location":{"lat":45.7718145,"lng":4.804175499999999},"viewport":{"northeast":{"lat":45.77314242989272,"lng":4.805565979892722},"southwest":{"lat":45.77044277010727,"lng":4.802866320107278}}},"icon":"https://maps.gstatic.com/mapfiles/place_api/icons/v1/png_71/restaurant-71.png","icon_background_color":"#FF9E67","icon_mask_base_uri":"https://maps.gstatic.com/mapfiles/place_api/icons/v2/restaurant_pinlet","name":"Queenstown","opening_hours":{"open_now":false},"photos":[{"height":2740,"html_attributions":["<a href=\"https://maps.google.com/maps/contrib/109067485590088517403\">Queenstown</a>"],"photo_reference":"AeJbb3catdUAPLCrilaOSPTpsZiHcjNU8uR8dBwPEhniT6YGyZMgWJF4J9nvAuTM7GFc9h3wDQdssezfN6KrGZVItbhSBET3xZRUDLsOowlm3tjYNF0Toi2KbUj2VhA0zfttDTd1NBh1OIJ02fxQYppOkE4NKcKn5AkplPq56izcetpfspEa","width":4117}],"place_id":"ChIJVVXF13Pr9EcR1kccDuXvS2s","plus_code":{"compound_code":"QRC3+PM Lyon","global_code":"8FQ6QRC3+PM"},"rating":4.7,"reference":"ChIJVVXF13Pr9EcR1kccDuXvS2s","types":["restaurant","point_of_interest","food","establishment"],"user_ratings_total":187},{"business_status":"OPERATIONAL","formatted_address":"118 Av. Francis de Pressensé, 69200 Vénissieux","geometry":{"location":{"lat":45.7237077,"lng":4.8646683},"viewport":{"northeast":{"lat":45.72509597989273,"lng":4.866113329892722},"southwest":{"lat":45.72239632010729,"lng":4.863413670107279}}},"icon":"https://maps.gstatic.com/mapfiles/place_api/icons/v1/png_71/restaurant-71.png","icon_background_color":"#FF9E67","icon_mask_base_uri":"https://maps.gstatic.com/mapfiles/place_api/icons/v2/restaurant_pinlet","name":"Chik N Burger","opening_hours":{"open_now":false},"photos":[{"height":3000,"html_attributions":["<a href=\"https://maps.google.com/maps/contrib/104457558135637165542\">A Google User</a>"],"photo_reference":"AeJbb3eYR_fuRrPoXZXI5wcW5DdxLWTkf5lcl45qtIstBwvVPB6w9xp2uoMQOvMjh30TVVU363Hq900FkjGN7Fbt1LZ5S6Grtk0wDcix7S-9QkJ6LMJTxo78Od44kzMnT3nbolFk7Vm4Yfihl7mfFabO12oxtYPeGG67mmtFVwLCvgQ57K1M","width":4000}],"place_id":"ChIJMyo7nO_r9EcR4WZWfqe-EvU","plus_code":{"compound_code":"PVF7+FV Vénissieux","global_code":"8FQ6PVF7+FV"},"rating":4.7,"reference":"ChIJMyo7nO_r9EcR4WZWfqe-EvU","types":["restaurant","food","point_of_interest","store","establishment"],"user_ratings_total":112},{"business_status":"OPERATIONAL","formatted_address":"18 Av. Georges Dimitrov, 69120 Vaulx-en-Velin","geometry":{"location":{"lat":45.7782673,"lng":4.9265111},"viewport":{"northeast":{"lat":45.77935682989271,"lng":4.928018779892723},"southwest":{"lat":45.77665717010727,"lng":4.925319120107279}}},"icon":"https://maps.gstatic.com/mapfiles/place_api/icons/v1/png_71/restaurant-71.png","icon_background_color":"#FF9E67","icon_mask_base_uri":"https://maps.gstatic.com/mapfiles/place_api/icons/v2/restaurant_pinlet","name":"V'Burger","opening_hours":{"open_now":false},"photos":[{"height":1920,"html_attributions":["<a href=\"https://maps.google.com/maps/contrib/114305523436013472445\">A Google User</a>"],"photo_reference":"AeJbb3eBtlTVIg0U3IZvQwpSzadxY22GdrbeD7baCDR4bc9EJjQjjUQ58XOn6hmG94DRzutibcScvJDpcO0ceKq8eDXGHb1_3nZoKvHCAjbJMdjsDwPkPqGZ7ecmwVRIQdyZKXpnsbuYMnYkKYoqPWh8qSA4uYRXc6x77aZ3Iz3ceZ6ppYGB","width":1280}],"place_id":"ChIJZUGA1UTB9EcRR8auyCuUbQ0","plus_code":{"compound_code":"QWHG+8J Vaulx-en-Velin","global_code":"8FQ6QWHG+8J"},"rating":4.7,"reference":"ChIJZUGA1UTB9EcRR8auyCuUbQ0","types":["restaurant","point_of_interest","food","establishment"],"user_ratings_total":40},{"business_status":"OPERATIONAL","formatted_address":"158 Rue de la Pagère, 69500 Bron","geometry":{"location":{"lat":45.73711350000001,"lng":4.9164013},"viewport":{"northeast":{"lat":45.73842402989273,"lng":4.917856679892722},"southwest":{"lat":45.73572437010728,"lng":4.915157020107278}}},"icon":"https://maps.gstatic.com/mapfiles/place_api/icons/v1/png_71/restaurant-71.png","icon_background_color":"#FF9E67","icon_mask_base_uri":"https://maps.gstatic.com/mapfiles/place_api/icons/v2/restaurant_pinlet","name":"Les Burgers de l'aviation","opening_hours":{"open_now":false},"photos":[{"height":4032,"html_attributions":["<a href=\"https://maps.google.com/maps/contrib/103475071235514476460\">Enzo Guichon</a>"],"photo_reference":"AeJbb3doyfK2eqwS3Gxq0xsy5_EAoChUH1vNLwse9hx-8A2obn-3SWnnQ_5baphcU8G7qorXxWd-8EaNIIu1EuYB4c_n4Ai5buO0gqyzBkArchmgYcksoF7IbQQKPUdNlGQ7ONQf0fWM3fGr6ge-_xX7NAwZttsuuy5d0eDve9szArvFncmP","width":1908}],"place_id":"ChIJO-EwXU7B9EcR_vNtRdFXThM","plus_code":{"compound_code":"PWP8+RH Bron","global_code":"8FQ6PWP8+RH"},"rating":4.7,"reference":"ChIJO-EwXU7B9EcR_vNtRdFXThM","types":["restaurant","point_of_interest","food","establishment"],"user_ratings_total":15},{"business_status":"OPERATIONAL","formatted_address":"4 Rue des Marronniers, 69002 Lyon","geometry":{"location":{"lat":45.7573563,"lng":4.834711299999999},"viewport":{"northeast":{"lat":45.75887762989272,"lng":4.836177079892722},"southwest":{"lat":45.75617797010727,"lng":4.833477420107278}}},"icon":"https://maps.gstatic.com/mapfiles/place_api/icons/v1/png_71/restaurant-71.png","icon_background_color":"#FF9E67","icon_mask_base_uri":"https://maps.gstatic.com/mapfiles/place_api/icons/v2/restaurant_pinlet","name":"Yabio - Bellecour - Burgers cools et Lyonnais !","opening_hours":{"open_now":false},"photos":[{"height":719,"html_attributions":["<a href=\"https://maps.google.com/maps/contrib/110534774247490179858\">Yabio - Bellecour</a>"],"photo_reference":"AeJbb3d6pTqjAN5IgXdyesjUqYVvKdO5wEwWsIDnZXwr6MGR2Ei7k-wQE98du16r7pfBhqtMN20_y3ocNf2I54j1SwH8u0eWybseeg5V1Pyqo6_-yNiuSliMPz1uVBQ3Ws42tIHozKuKQdsT9bIkQfCAlkGm-RkcPTPCAZvbJ_B5qwrvK0W3","width":1279}],"place_id":"ChIJAa8DclHq9EcRaIgzNCo-CCs","plus_code":{"compound_code":"QR4M+WV Lyon","global_code":"8FQ6QR4M+WV"},"rating":4.6,"reference":"ChIJAa8DclHq9EcRaIgzNCo-CCs","types":["restaurant","point_of_interest","food","establishment"],"user_ratings_total":3088},{"business_status":"OPERATIONAL","formatted_address":"5 Rue Pizay, 69001 Lyon","geometry":{"location":{"lat":45.76697919999999,"lng":4.8351922},"viewport":{"northeast":{"lat":45.76829297989271,"lng":4.836566179892722},"southwest":{"lat":45.76559332010727,"lng":4.833866520107278}}},"icon":"https://maps.gstatic.com/mapfiles/place_api/icons/v1/png_71/restaurant-71.png","icon_background_color":"#FF9E67","icon_mask_base_uri":"https://maps.gstatic.com/mapfiles/place_api/icons/v2/restaurant_pinlet","name":"Hank Burger Lyon Opera","opening_hours":{"open_now":false},"photos":[{"height":2927,"html_attributions":["<a href=\"https://maps.google.com/maps/contrib/105355420621273766164\">A Google User</a>"],"photo_reference":"AeJbb3cQJJfMx5OVWL3Er1K2MJB1G_lYT_4ZhD7r3PlnL44ACw5-ziB5eQg2FfpT1U3FOZQbT17WjwkOt_9Cdph9LvPgvLzt8rfZYrXB9WsDJuekwtv_PzkGKWglwRhqbd_wA6knI5zO5dLU_QbXEMNxryo2SwQ_2HEcbNKRgUcrBTWOaPOb","width":4391}],"place_id":"ChIJq6pazP7q9EcRXP9164W-wXA","plus_code":{"compound_code":"QR8P+Q3 Lyon","global_code":"8FQ6QR8P+Q3"},"price_level":2,"rating":4.6,"reference":"ChIJq6pazP7q9EcRXP9164W-wXA","types":["meal_takeaway","restaurant","point_of_interest","food","establishment"],"user_ratings_total":1025},{"business_status":"OPERATIONAL","formatted_address":"21 Quai Perrache, 69002 Lyon","geometry":{"location":{"lat":45.7441756,"lng":4.8263712},"viewport":{"northeast":{"lat":45.74549827989272,"lng":4.827773629892722},"southwest":{"lat":45.74279862010727,"lng":4.825073970107278}}},"icon":"https://maps.gstatic.com/mapfiles/place_api/icons/v1/png_71/restaurant-71.png","icon_background_color":"#FF9E67","icon_mask_base_uri":"https://maps.gstatic.com/mapfiles/place_api/icons/v2/restaurant_pinlet","name":"Rem's","opening_hours":{"open_now":false},"photos":[{"height":2322,"html_attributions":["<a href=\"https://maps.google.com/maps/contrib/112658331967950601971\">mikael meriot</a>"],"photo_reference":"AeJbb3fjwHGCHif2FyAsvJ9l3V0t5mQ5t6JlzswLVw6RHuQKzmfSrRTdRejXWEIBPi78ok7qM8Q5VEdhnoNNHHfeuAEqmMFsV7CpF6ZBbt5WZ5W3ohF9BwyOTHJqsPKmcT8srzul6JsoBUPyIbh_iq41X1jOlB2KI2uiz7ONe4LbgnQpd6Rq","width":4128}],"place_id":"ChIJx-JcSjXq9EcRIltOKV8GRtE","plus_code":{"compound_code":"PRVG+MG Lyon","global_code":"8FQ6PRVG+MG"},"price_level":2,"rating":4.6,"reference":"ChIJx-JcSjXq9EcRIltOKV8GRtE","types":["bar","restaurant","point_of_interest","food","establishment"],"user_ratings_total":545},{"business_status":"OPERATIONAL","formatted_address":"22 Rue de la Platière, 69001 Lyon","geometry":{"location":{"lat":45.766035,"lng":4.832562999999999},"viewport":{"northeast":{"lat":45.76742232989272,"lng":4.833907329892721},"southwest":{"lat":45.76472267010728,"lng":4.831207670107277}}},"icon":"https://maps.gstatic.com/mapfiles/place_api/icons/v1/png_71/restaurant-71.png","icon_background_color":"#FF9E67","icon_mask_base_uri":"https://maps.gstatic.com/mapfiles/place_api/icons/v2/restaurant_pinlet","name":"The Roster Lyon Terreaux","opening_hours":{"open_now":false},"photos":[{"height":3645,"html_attributions":["<a href=\"https://maps.google.com/maps/contrib/116027340389823275489\">Gourmix</a>"],"photo_reference":"AeJbb3fCc8iwJWrLFHsoV7o1NuxJS69Ni7_RIx0PBVnpCUSPzQSJoBkxm0aMNwEm42z1ZgfBZDELBY3U930Ql9dCfnmM5hzbEqEC1OIuwvILfNjivEUjEFdMtH1LHTPFcBzpQEy_iyvAlyK1IM231FVVG9tcMHsF3v_eZeAv7EgkJuzRO1VA","width":5306}],"place_id":"ChIJkZlZB__q9EcRMe9LcsMgo1g","plus_code":{"compound_code":"QR8M+C2 Lyon","global_code":"8FQ6QR8M+C2"},"rating":4.6,"reference":"ChIJkZlZB__q9EcRMe9LcsMgo1g","types":["restaurant","point_of_interest","food","establishment"],"user_ratings_total":398},{"business_status":"OPERATIONAL","formatted_address":"133 Rue Servient, 69003 Lyon","geometry":{"location":{"lat":45.7609504,"lng":4.8537992},"viewport":{"northeast":{"lat":45.76220832989272,"lng":4.855241579892722},"southwest":{"lat":45.75950867010728,"lng":4.852541920107278}}},"icon":"https://maps.gstatic.com/mapfiles/place_api/icons/v1/png_71/restaurant-71.png","icon_background_color":"#FF9E67","icon_mask_base_uri":"https://maps.gstatic.com/mapfiles/place_api/icons/v2/restaurant_pinlet","name":"Big Fernand","opening_hours":{"open_now":false},"photos":[{"height":2048,"html_attributions":["<a href=\"https://maps.google.com/maps/contrib/115224121868236032189\">A Google User</a>"],"photo_reference":"AeJbb3eQqH39JIW4CSPp2z-kCvPlMPrT1Xe5lhdyYkx0c9RoLY8UsRZ0KJz4JG4J3xEJOiYigVEtHlDVcQO30WNzhVA-16-GO2DmQJDPbxnRAelodOylqUuftS3cNGRyHeHkCkp5Kt2ps3aXHtQBwJ3c89t8JyQssaAHPT4_sx8Vk6BspKO4","width":2047}],"place_id":"ChIJDT2NPBPr9EcRLstrLKZdorM","plus_code":{"compound_code":"QV63+9G Lyon","global_code":"8FQ6QV63+9G"},"price_level":2,"rating":4.6,"reference":"ChIJDT2NPBPr9EcRLstrLKZdorM","types":["restaurant","point_of_interest","food","establishment"],"user_ratings_total":318},{"business_status":"OPERATIONAL","formatted_address":"35 Rue Chevreul, 69007 Lyon","geometry":{"location":{"lat":45.7491012,"lng":4.8390593},"viewport":{"northeast":{"lat":45.75038177989272,"lng":4.840350229892723},"southwest":{"lat":45.74768212010728,"lng":4.837650570107279}}},"icon":"https://maps.gstatic.com/mapfiles/place_api/icons/v1/png_71/restaurant-71.png","icon_background_color":"#FF9E67","icon_mask_base_uri":"https://maps.gstatic.com/mapfiles/place_api/icons/v2/restaurant_pinlet","name":"Yabio - Chevreul - Burgers cools et Lyonnais !","opening_hours":{"open_now":false},"photos":[{"height":2021,"html_attributions":["<a href=\"https://maps.google.com/maps/contrib/106148537136311080331\">A Google User</a>"],"photo_reference":"AeJbb3d7LFkKbMXnB4wKWgO4KAd7MQIRAUqbQPT7tzKYOebVJ65cAQJXSc99ixZO2ukg6s1iEP19yXyaNWv--tM1jJCC1NqEVWmqlv9ZgF8MAqkR9dk2e3FV_RMxKAEi8DD-N-6XOepYsqV0lv2C7Y1wetJ9eFrMNWKbW41kiDYrxZyuGmRp","width":2021}],"place_id":"ChIJFeb6LCPr9EcRJUeRuDXiuu0","plus_code":{"compound_code":"PRXQ+JJ Lyon","global_code":"8FQ6PRXQ+JJ"},"rating":4.5,"reference":"ChIJFeb6LCPr9EcRJUeRuDXiuu0","types":["restaurant","food","point_of_interest","establishment"],"user_ratings_total":1772},{"business_status":"OPERATIONAL","formatted_address":"82 Cr Vitton, 69006 Lyon","geometry":{"location":{"lat":45.7698298,"lng":4.8578455},"viewport":{"northeast":{"lat":45.77126772989271,"lng":4.859206029892722},"southwest":{"lat":45.76856807010727,"lng":4.856506370107278}}},"icon":"https://maps.gstatic.com/mapfiles/place_api/icons/v1/png_71/restaurant-71.png","icon_background_color":"#FF9E67","icon_mask_base_uri":"https://maps.gstatic.com/mapfiles/place_api/icons/v2/restaurant_pinlet","name":"YABIO","opening_hours":{"open_now":false},"photos":[{"height":845,"html_attributions":["<a href=\"https://maps.google.com/maps/contrib/105104815079292571971\">A Google User</a>"],"photo_reference":"AeJbb3cd9Sk3M3x1aQTt4HPQ8VLz34dn6z8259JXWektIgyLlI1FJhVf95e7StVdm5mHVgqOktMFn3O21FhUlBvwOcjjB85Td_bHIgGZfk1qijIqxvXAjLGHSpWqSp57QosIg5prdvinPP0pLdDRRNPaEr3pyE-UxAlL1EpWL74ujorJGcql","width":1280}],"place_id":"ChIJ2Vidbabr9EcRXgIEXtvE5Y4","plus_code":{"compound_code":"QV95+W4 Lyon","global_code":"8FQ6QV95+W4"},"price_level":2,"rating":4.5,"reference":"ChIJ2Vidbabr9EcRXgIEXtvE5Y4","types":["restaurant","point_of_interest","food","establishment"],"user_ratings_total":1071},{"business_status":"OPERATIONAL","formatted_address":"47 Rue Bonnand, 69003 Lyon","geometry":{"location":{"lat":45.7491181,"lng":4.8840408},"viewport":{"northeast":{"lat":45.75046437989272,"lng":4.885326179892723},"southwest":{"lat":45.74776472010727,"lng":4.882626520107279}}},"icon":"https://maps.gstatic.com/mapfiles/place_api/icons/v1/png_71/restaurant-71.png","icon_background_color":"#FF9E67","icon_mask_base_uri":"https://maps.gstatic.com/mapfiles/place_api/icons/v2/restaurant_pinlet","name":"Les tontons burgers montchat","opening_hours":{"open_now":false},"photos":[{"height":1960,"html_attributions":["<a href=\"https://maps.google.com/maps/contrib/116552485848610241479\">Omri Kedem</a>"],"photo_reference":"AeJbb3dFOv9zxa4zCEocfLkqUHaEnbDpRVEm4F05fyLgKrVPDEWSIoPojEKoWMOSYO_q0ET7EtFyH65pKe14Ocf42e3JN9hh21XqQlxgAR3ZRyMt9uwptPyo-V-Dktw2ItRT19lIMum35ht7XZSYbvvkeoGwpO-yyyW5geaRV3xyQVS669ue","width":4032}],"place_id":"ChIJAQDMRMTB9EcRXwIK2DI1Cww","plus_code":{"compound_code":"PVXM+JJ Lyon","global_code":"8FQ6PVXM+JJ"},"rating":4.5,"reference":"ChIJAQDMRMTB9EcRXwIK2DI1Cww","types":["restaurant","food","point_of_interest","establishment"],"user_ratings_total":320},{"business_status":"OPERATIONAL","formatted_address":"25 Quai Victor Augagneur, 69003 Lyon","geometry":{"location":{"lat":45.757765,"lng":4.8409529},"viewport":{"northeast":{"lat":45.75908917989271,"lng":4.842283429892722},"southwest":{"lat":45.75638952010727,"lng":4.839583770107278}}},"icon":"https://maps.gstatic.com/mapfiles/place_api/icons/v1/png_71/restaurant-71.png","icon_background_color":"#FF9E67","icon_mask_base_uri":"https://maps.gstatic.com/mapfiles/place_api/icons/v2/restaurant_pinlet","name":"King Marcel Lyon Augagneur","opening_hours":{"open_now":false},"photos":[{"height":3468,"html_attributions":["<a href=\"https://maps.google.com/maps/contrib/112145782962640515912\">A Google User</a>"],"photo_reference":"AeJbb3ec3Zj0jv4IrHYYylZxdY9IDFMx_nLiWCFsPRF8MWtjl34s_v8mqdej1XPLQKwwzyHzbT3PnI3XUhJDonuXbgk_72nf-O2ZeIFXVzHO65psbbzDavAoszGQk2gIjiyjgj5sDm2eZ9WhucJVINQI-5_MH-68GpSmMR4vwW_8AUzmwXs5","width":4624}],"place_id":"ChIJUWFFbkjr9EcRXETWNBK076c","plus_code":{"compound_code":"QR5R+39 Lyon","global_code":"8FQ6QR5R+39"},"price_level":2,"rating":4.5,"reference":"ChIJUWFFbkjr9EcRXETWNBK076c","types":["restaurant","point_of_interest","food","establishment"],"user_ratings_total":200},{"business_status":"OPERATIONAL","formatted_address":"55 Rue des Charmettes, 69100 Villeurbanne","geometry":{"location":{"lat":45.7685985,"lng":4.867378299999999},"viewport":{"northeast":{"lat":45.76994502989272,"lng":4.868691279892722},"southwest":{"lat":45.76724537010728,"lng":4.865991620107278}}},"icon":"https://maps.gstatic.com/mapfiles/place_api/icons/v1/png_71/restaurant-71.png","icon_background_color":"#FF9E67","icon_mask_base_uri":"https://maps.gstatic.com/mapfiles/place_api/icons/v2/restaurant_pinlet","name":"Greedy burger","opening_hours":{"open_now":false},"photos":[{"height":4160,"html_attributions":["<a href=\"https://maps.google.com/maps/contrib/103640972002593766851\">A Google User</a>"],"photo_reference":"AeJbb3f__5Hh2RZmXWonFfr40teVmUTp8RsHGmPieS3refKE0WlKonTSWdUxkz05BU4HLWKcQ8k-B-jMTs-yMxMuF3gaZrGMvUyBlFx5JTZYn60RJ5WyNLLhPzhokwcA5mZSqd_nEPmLLu5c7avGlSVX13H9wwat0Tz97ZV_qpQ8IAML0Mmb","width":3120}],"place_id":"ChIJkQGqAO7r9EcRQH3_VB76xsw","plus_code":{"compound_code":"QV98+CX Villeurbanne","global_code":"8FQ6QV98+CX"},"rating":4.5,"reference":"ChIJkQGqAO7r9EcRQH3_VB76xsw","types":["restaurant","point_of_interest","food","establishment"],"user_ratings_total":121},{"business_status":"OPERATIONAL","formatted_address":"984 N6, 69760 Limonest","geometry":{"location":{"lat":45.8147014,"lng":4.7760688},"viewport":{"northeast":{"lat":45.81604397989273,"lng":4.777399079892721},"southwest":{"lat":45.81334432010728,"lng":4.774699420107277}}},"icon":"https://maps.gstatic.com/mapfiles/place_api/icons/v1/png_71/restaurant-71.png","icon_background_color":"#FF9E67","icon_mask_base_uri":"https://maps.gstatic.com/mapfiles/place_api/icons/v2/restaurant_pinlet","name":"Les Burgers de Francois","opening_hours":{"open_now":false},"photos":[{"height":3780,"html_attributions":["<a href=\"https://maps.google.com/maps/contrib/105772757917475197631\">A Google User</a>"],"photo_reference":"AeJbb3djU6_VeT-8XF5_I-TNMnhGqF-EJuXIiwi4zs6tozZvkPesQdIU6nYxSFvlMeXS6nDjOTrR2aFYT1PVzAGcHD0Kk0yFhnCNUF5js6x3OY6NEUu_5nFuXp_2GLuLNRrGYeH0EBhOGaLCNvlWH9SbxbfAXOcB7ciDWPB-h7j-R49Krhv4","width":3024}],"place_id":"ChIJqXUdW06T9EcRXCCsWftsqNw","plus_code":{"compound_code":"RQ7G+VC Limonest","global_code":"8FQ6RQ7G+VC"},"rating":4.5,"reference":"ChIJqXUdW06T9EcRXCCsWftsqNw","types":["restaurant","point_of_interest","food","establishment"],"user_ratings_total":117},{"business_status":"OPERATIONAL","formatted_address":"44 Rue Sergent Blandan, 69001 Lyon","geometry":{"location":{"lat":45.7687715,"lng":4.831953599999999},"viewport":{"northeast":{"lat":45.77010337989272,"lng":4.833221829892723},"southwest":{"lat":45.76740372010728,"lng":4.830522170107279}}},"icon":"https://maps.gstatic.com/mapfiles/place_api/icons/v1/png_71/restaurant-71.png","icon_background_color":"#FF9E67","icon_mask_base_uri":"https://maps.gstatic.com/mapfiles/place_api/icons/v2/restaurant_pinlet","name":"SMASH","opening_hours":{"open_now":false},"photos":[{"height":2130,"html_attributions":["<a href=\"https://maps.google.com/maps/contrib/108267836024947425875\">A Google User</a>"],"photo_reference":"AeJbb3fpTDL-luf7MYq69cLPRBGVHSU_WstaF-9gLmI2fXCSke9oGXXyicoZLRlvjvKGG1yOw91WHRUfZz0oVxIsUZayBq2m302e-p7swm2BKhI8LGP_MdBGDRAtqjr_FhN-a5jzcqqlm2UiH6_oDwHdLD6faekA2bBvi80wLByaD24UnRQM","width":1704}],"place_id":"ChIJBxTE7X7r9EcRmS4Dmz19BHY","plus_code":{"compound_code":"QR9J+GQ Lyon","global_code":"8FQ6QR9J+GQ"},"rating":4.5,"reference":"ChIJBxTE7X7r9EcRmS4Dmz19BHY","types":["restaurant","point_of_interest","food","establishment"],"user_ratings_total":84},{"business_status":"OPERATIONAL","formatted_address":"36 Rue Ferrandière, 69002 Lyon","geometry":{"location":{"lat":45.7620929,"lng":4.8364308},"viewport":{"northeast":{"lat":45.76346712989272,"lng":4.837780179892722},"southwest":{"lat":45.76076747010728,"lng":4.835080520107279}}},"icon":"https://maps.gstatic.com/mapfiles/place_api/icons/v1/png_71/restaurant-71.png","icon_background_color":"#FF9E67","icon_mask_base_uri":"https://maps.gstatic.com/mapfiles/place_api/icons/v2/restaurant_pinlet","name":"Big Fernand","opening_hours":{"open_now":false},"photos":[{"height":1333,"html_attributions":["<a href=\"https://maps.google.com/maps/contrib/107711958246986984460\">Big Fernand</a>"],"photo_reference":"AeJbb3dy1eyZHs40FKahtn-ERj4et-PYZ6hoJfruyGqA4jMhBpErToUhHevBEkZDLKAuXpm5T7ysTy6ZmNjOYY9dmBpntdB7P5jFv3Z6ZQ_NEzNHHQan1QHfnYUdaQXwEUpyD5fsRwOIBCML_njvAN3HLokvlupNa-hFvXYQumVXzGcJzIwX","width":2000}],"place_id":"ChIJl9avTVbq9EcREJFFJKaBNXM","plus_code":{"compound_code":"QR6P+RH Lyon","global_code":"8FQ6QR6P+RH"},"price_level":2,"rating":4.4,"reference":"ChIJl9avTVbq9EcREJFFJKaBNXM","types":["meal_takeaway","meal_delivery","restaurant","point_of_interest","food","establishment"],"user_ratings_total":1345},{"business_status":"OPERATIONAL","formatted_address":"81 Cr Lafayette, 69006 Lyon","geometry":{"location":{"lat":45.7637235,"lng":4.8487816},"viewport":{"northeast":{"lat":45.76504462989273,"lng":4.850115879892722},"southwest":{"lat":45.76234497010729,"lng":4.847416220107278}}},"icon":"https://maps.gstatic.com/mapfiles/place_api/icons/v1/png_71/restaurant-71.png","icon_background_color":"#FF9E67","icon_mask_base_uri":"https://maps.gstatic.com/mapfiles/place_api/icons/v2/restaurant_pinlet","name":"Burgers & Bagels Lafayette","opening_hours":{"open_now":false},"photos":[{"height":3024,"html_attributions":["<a href=\"https://maps.google.com/maps/contrib/103736091340836365502\">nicole M</a>"],"photo_reference":"AeJbb3eu7botAs_CjLCb5q-seQLD8k6XlnPewA4eODEMPVYrMD9rdmY3VlZOtpQJE7VRckwWDFBHWddhqLeLA0EQ6E7zp18SYOnoQfYTIqkjzHhJQHol5d8MHg0TwI2s4h9ZHe6m2R4HPiY1RW4f6T_qp1DYBXmtkpdfegUZbcRUStv_csnK","width":4032}],"place_id":"ChIJcdFaevXq9EcRpZM1tnR0Op8","plus_code":{"compound_code":"QR7X+FG Lyon","global_code":"8FQ6QR7X+FG"},"price_level":2,"rating":4.4,"reference":"ChIJcdFaevXq9EcRpZM1tnR0Op8","types":["bakery","store","restaurant","point_of_interest","food","establishment"],"user_ratings_total":998},{"business_status":"OPERATIONAL","formatted_address":"2 Pl. de la Gare, 69160 Tassin-la-Demi-Lune","geometry":{"location":{"lat":45.7654421,"lng":4.7794589},"viewport":{"northeast":{"lat":45.76680417989272,"lng":4.780806129892723},"southwest":{"lat":45.76410452010728,"lng":4.77810647010728}}},"icon":"https://maps.gstatic.com/mapfiles/place_api/icons/v1/png_71/restaurant-71.png","icon_background_color":"#FF9E67","icon_mask_base_uri":"https://maps.gstatic.com/mapfiles/place_api/icons/v2/restaurant_pinlet","name":"Les Burgers de Papa","opening_hours":{"open_now":false},"photos":[{"height":936,"html_attributions":["<a href=\"https://maps.google.com/maps/contrib/112750250717693462291\">A Google User</a>"],"photo_reference":"AeJbb3fZpR1gkEktt3qpCd1nDSqvSBfwQ_Qj8CH3HE2KzTSN_nUTz9eqr5wIhN7JM9Jugb8X4suWjfuF3vr8SUEeWK8WutW6LOrqND9uH1YR6F4ZiDm8Ftyk1lES40uZODENRdzkT5lbxCmj_PXPvMq_EugBQLZeytL9pntFpnbtp-K_ZW4","width":1784}],"place_id":"ChIJZ2G5dx7t9EcRxRQfnsCJ7RU","plus_code":{"compound_code":"QQ8H+5R Tassin-la-Demi-Lune","global_code":"8FQ6QQ8H+5R"},"price_level":2,"rating":4.4,"reference":"ChIJZ2G5dx7t9EcRxRQfnsCJ7RU","types":["meal_takeaway","meal_delivery","restaurant","food","point_of_interest","establishment"],"user_ratings_total":515},{"business_status":"OPERATIONAL","formatted_address":"28 Rue du Sergent Michel Berthet, 69009 Lyon","geometry":{"location":{"lat":45.7713512,"lng":4.8052901},"viewport":{"northeast":{"lat":45.77269017989272,"lng":4.806741179892723},"southwest":{"lat":45.76999052010728,"lng":4.804041520107279}}},"icon":"https://maps.gstatic.com/mapfiles/place_api/icons/v1/png_71/restaurant-71.png","icon_background_color":"#FF9E67","icon_mask_base_uri":"https://maps.gstatic.com/mapfiles/place_api/icons/v2/restaurant_pinlet","name":"Big Fernand","opening_hours":{"open_now":false},"photos":[{"height":1333,"html_attributions":["<a href=\"https://maps.google.com/maps/contrib/102505757122206013969\">A Google User</a>"],"photo_reference":"AeJbb3dcjOXuHWxLYJu35eNA-FFnlojw2VyJPS1itU_ud-F0moVpovs-6sPRtF0klV5UfnZOx-RMFJl0YKFDUewnjXJjSejfdVBcPrdfZhB3KUuFPdBcA_vOoZkSQlgaQo--uUYOvyQCwPdK-XTMNkGqDGhZh2NOpSTwmrMZxci82QYG7XKl","width":2000}],"place_id":"ChIJz5UCMWDr9EcRbYcL5KG2vPs","plus_code":{"compound_code":"QRC4+G4 Lyon","global_code":"8FQ6QRC4+G4"},"price_level":2,"rating":4.4,"reference":"ChIJz5UCMWDr9EcRbYcL5KG2vPs","types":["meal_takeaway","meal_delivery","restaurant","food","point_of_interest","establishment"],"user_ratings_total":283},{"business_status":"OPERATIONAL","formatted_address":"Niveau 3 \"Les Tables, Centre commercial de, 17 Rue Dr Bouchut, 69003 Lyon","geometry":{"location":{"lat":45.7621058,"lng":4.8557052},"viewport":{"northeast":{"lat":45.76342322989272,"lng":4.856782129892721},"southwest":{"lat":45.76072357010727,"lng":4.854082470107278}}},"icon":"https://maps.gstatic.com/mapfiles/place_api/icons/v1/png_71/restaurant-71.png","icon_background_color":"#FF9E67","icon_mask_base_uri":"https://maps.gstatic.com/mapfiles/place_api/icons/v2/restaurant_pinlet","name":"Bioburger Lyon Part Dieu","opening_hours":{"open_now":false},"photos":[{"height":6000,"html_attributions":["<a href=\"https://maps.google.com/maps/contrib/114897297193587748956\">A Google User</a>"],"photo_reference":"AeJbb3fqtMqaaD-juLLwcZU0uJYgz3KmTg7c1kRPQU71kRQD_Lb3FkQ3GOaC1uLb1-fYKYA1MwmF1ZzCdtwv3-QtDbeXjPqlTk_h4pJ8_BIcpAjtCSd4KOY6dPVVRufdNPToT_3FZtpli5Y9IyljxBbbp7FNOMyp-TiiwdcttvXJYMo7aa63","width":4000}],"place_id":"ChIJc5-SmPjr9EcRE2497Xbjz-A","plus_code":{"compound_code":"QV64+R7 Lyon","global_code":"8FQ6QV64+R7"},"price_level":2,"rating":4.4,"reference":"ChIJc5-SmPjr9EcRE2497Xbjz-A","types":["restaurant","point_of_interest","food","establishment"],"user_ratings_total":210},{"business_status":"OPERATIONAL","formatted_address":"10 Rue de la République, 69001 Lyon","geometry":{"location":{"lat":45.7653675,"lng":4.8357278},"viewport":{"northeast":{"lat":45.76676732989273,"lng":4.837168679892722},"southwest":{"lat":45.76406767010729,"lng":4.834469020107278}}},"icon":"https://maps.gstatic.com/mapfiles/place_api/icons/v1/png_71/restaurant-71.png","icon_background_color":"#FF9E67","icon_mask_base_uri":"https://maps.gstatic.com/mapfiles/place_api/icons/v2/restaurant_pinlet","name":"Les Burgers de Papa","opening_hours":{"open_now":false},"photos":[{"height":1400,"html_attributions":["<a href=\"https://maps.google.com/maps/contrib/106298992017860040676\">A Google User</a>"],"photo_reference":"AeJbb3cWr5-leStR3UZ-KpjCkyRIv_hBOfjZ2Gu8pP5fqpjHPycxa2kojTyuUNHT3AYFXo8lIp4PUbXi2T0b3yXvx1HnULglHH4gPa2b4Y0bDUNl6zVeJDQD9FzK5HKXkeYQaLdDdABoSO96k3bmiNB592ivfctvbsau63hNotaJaAZOh1Wl","width":1400}],"place_id":"ChIJa7PuiIzr9EcRKclT_lj329U","plus_code":{"compound_code":"QR8P+47 Lyon","global_code":"8FQ6QR8P+47"},"price_level":2,"rating":4.3,"reference":"ChIJa7PuiIzr9EcRKclT_lj329U","types":["meal_takeaway","meal_delivery","restaurant","point_of_interest","food","establishment"],"user_ratings_total":1753},{"business_status":"OPERATIONAL","formatted_address":"17 Rue Dr Bouchut, 69003 Lyon","geometry":{"location":{"lat":45.7600926,"lng":4.856105599999999},"viewport":{"northeast":{"lat":45.76116902989273,"lng":4.857536129892723},"southwest":{"lat":45.75846937010728,"lng":4.854836470107279}}},"icon":"https://maps.gstatic.com/mapfiles/place_api/icons/v1/png_71/restaurant-71.png","icon_background_color":"#FF9E67","icon_mask_base_uri":"https://maps.gstatic.com/mapfiles/place_api/icons/v2/restaurant_pinlet","name":"Les Burgers de Papa","opening_hours":{"open_now":false},"photos":[{"height":1080,"html_attributions":["<a href=\"https://maps.google.com/maps/contrib/111386017467582292192\">A Google User</a>"],"photo_reference":"AeJbb3ePT8mVL8lmyb4QD-M8H1IzQCTrawDb3kxzusXm07dHHCKsdp_e8CqAE-gw3ULM7TXpd834mADtW-B8LJ7jYnZeYptOQ_OUoozwwdHDFToWJn-XyEC4TgouSTEfJPQ20X0oDh9HRQ2RwZttT0Ukp6p-tnIJT7F_JEWjouixYIgmguEv","width":1920}],"place_id":"ChIJL7fu-X7r9EcRNqSJvP1FHH8","plus_code":{"compound_code":"QV64+2C Lyon","global_code":"8FQ6QV64+2C"},"price_level":2,"rating":4.3,"reference":"ChIJL7fu-X7r9EcRNqSJvP1FHH8","types":["meal_takeaway","meal_delivery","restaurant","food","point_of_interest","establishment"],"user_ratings_total":902},{"business_status":"OPERATIONAL","formatted_address":"59 Rue Mercière, 69002 Lyon","geometry":{"location":{"lat":45.761914,"lng":4.833053},"viewport":{"northeast":{"lat":45.76323402989272,"lng":4.834526379892722},"southwest":{"lat":45.76053437010728,"lng":4.831826720107278}}},"icon":"https://maps.gstatic.com/mapfiles/place_api/icons/v1/png_71/restaurant-71.png","icon_background_color":"#FF9E67","icon_mask_base_uri":"https://maps.gstatic.com/mapfiles/place_api/icons/v2/restaurant_pinlet","name":"PNY PRESQU'ÎLE","opening_hours":{"open_now":false},"photos":[{"height":800,"html_attributions":["<a href=\"https://maps.google.com/maps/contrib/105366046082317781884\">A Google User</a>"],"photo_reference":"AeJbb3fpofZ5qJoA5U5kASkBfInKVcG05qhor7Ox_HfGhbYPR0wPp4UqyOLXXf3thdSo-ZCRBsRPFtDGS4aEpiO_9jEXgVUeXFd8BjugXX5D_l5PFB8oiKHKZKFMjAkuHsbmmgXIjjH7CgLgRD4i428dwY64FHkm2PGaMcJvIEUCSk_jKIic","width":1200}],"place_id":"ChIJYRpKW2br9EcRjR9BgkzrM9c","plus_code":{"compound_code":"QR6M+Q6 Lyon","global_code":"8FQ6QR6M+Q6"},"rating":4.3,"reference":"ChIJYRpKW2br9EcRjR9BgkzrM9c","types":["restaurant","point_of_interest","food","establishment"],"user_ratings_total":348},{"business_status":"OPERATIONAL","formatted_address":"9 Pl. Gabriel Péri, 69007 Lyon","geometry":{"location":{"lat":45.7545157,"lng":4.8424887},"viewport":{"northeast":{"lat":45.75585717989272,"lng":4.843683779892721},"southwest":{"lat":45.75315752010728,"lng":4.840984120107278}}},"icon":"https://maps.gstatic.com/mapfiles/place_api/icons/v1/png_71/restaurant-71.png","icon_background_color":"#FF9E67","icon_mask_base_uri":"https://maps.gstatic.com/mapfiles/place_api/icons/v2/restaurant_pinlet","name":"Burger's Lyon 7","opening_hours":{"open_now":false},"photos":[{"height":4912,"html_attributions":["<a href=\"https://maps.google.com/maps/contrib/113134023889950383259\">A Google User</a>"],"photo_reference":"AeJbb3cQNXA7ELFLDlGqLe4PzEmjCurEiMuRJMkwkIz1evcdVyM7D1ll5drgaTj8D0n0Xqh0MgLLMClsj7wdO1g-2IGqRFr6WWijK-ffP4exd7-UCN-GJnb8n6Xh67SMXcE6FRIfw89V_jQKlT7Jvj7t2WAKiwZWhG6tn-dgHfTwnwpl1r4","width":7360}],"place_id":"ChIJaxbHH9Pr9EcROpdtXsS3s5A","plus_code":{"compound_code":"QR3R+RX Lyon","global_code":"8FQ6QR3R+RX"},"rating":4.3,"reference":"ChIJaxbHH9Pr9EcROpdtXsS3s5A","types":["restaurant","point_of_interest","food","establishment"],"user_ratings_total":164},{"business_status":"OPERATIONAL","formatted_address":"315 Rue Garibaldi, 69007 Lyon","geometry":{"location":{"lat":45.7486119,"lng":4.8531971},"viewport":{"northeast":{"lat":45.75000812989273,"lng":4.854465829892723},"southwest":{"lat":45.74730847010728,"lng":4.851766170107279}}},"icon":"https://maps.gstatic.com/mapfiles/place_api/icons/v1/png_71/restaurant-71.png","icon_background_color":"#FF9E67","icon_mask_base_uri":"https://maps.gstatic.com/mapfiles/place_api/icons/v2/restaurant_pinlet","name":"FOODIES","opening_hours":{"open_now":false},"photos":[{"height":3840,"html_attributions":["<a href=\"https://maps.google.com/maps/contrib/111777566883302167879\">A Google User</a>"],"photo_reference":"AeJbb3fMWJTdraJJsWnAXtfFhahnqAynr4qAQNY_uukEfaGfOCZAAvbR5tTn7NsemnOFN9LsEvqHxp32Kmqr_sJkzKo1whmjn0EKF4cYD4JusouzV50Wd88GrN0wDBJE96d_NcJI4k56Io8jUxoubLg5AXP4WviQ5GH7F5LcVs0aaxVivPQ2","width":5760}],"place_id":"ChIJrWUOe5Hr9EcR1TDXMVLigbc","plus_code":{"compound_code":"PVX3+C7 Lyon","global_code":"8FQ6PVX3+C7"},"rating":4.3,"reference":"ChIJrWUOe5Hr9EcR1TDXMVLigbc","types":["restaurant","point_of_interest","food","establishment"],"user_ratings_total":148},{"business_status":"OPERATIONAL","formatted_address":"162 Cr Tolstoï, 69100 Villeurbanne","geometry":{"location":{"lat":45.7602047,"lng":4.8872787},"viewport":{"northeast":{"lat":45.76158607989272,"lng":4.888645079892721},"southwest":{"lat":45.75888642010728,"lng":4.885945420107277}}},"icon":"https://maps.gstatic.com/mapfiles/place_api/icons/v1/png_71/restaurant-71.png","icon_background_color":"#FF9E67","icon_mask_base_uri":"https://maps.gstatic.com/mapfiles/place_api/icons/v2/restaurant_pinlet","name":"KRUSTY CLASSIC BURGER","opening_hours":{"open_now":false},"photos":[{"height":1370,"html_attributions":["<a href=\"https://maps.google.com/maps/contrib/106121717343879431981\">A Google User</a>"],"photo_reference":"AeJbb3cBrW13-CAm1fAlYGtGDEpsSf04PH2aCtk1ryqkP4kB43DIhuTX1LEK8Zr40etM2jVRRvKx82GNMtSVhZ0jXhDAv34JVjz_mAERQ8IsLBtHn_fIGuaMwjUZjd5UJHHK1J94QZM8o18VZeg6Aezbt11XP7pf6qe7dAYYtDhuESv1oiZd","width":2436}],"place_id":"ChIJzznsmczB9EcR-j8PK5iyNtg","plus_code":{"compound_code":"QV6P+3W Villeurbanne","global_code":"8FQ6QV6P+3W"},"rating":4.3,"reference":"ChIJzznsmczB9EcR-j8PK5iyNtg","types":["restaurant","point_of_interest","food","establishment"],"user_ratings_total":141},{"business_status":"OPERATIONAL","formatted_address":"119 Av. des Frères Lumière, 69008 Lyon","geometry":{"location":{"lat":45.74371259999999,"lng":4.872603499999999},"viewport":{"northeast":{"lat":45.74504672989272,"lng":4.873962279892722},"southwest":{"lat":45.74234707010728,"lng":4.871262620107278}}},"icon":"https://maps.gstatic.com/mapfiles/place_api/icons/v1/png_71/restaurant-71.png","icon_background_color":"#FF9E67","icon_mask_base_uri":"https://maps.gstatic.com/mapfiles/place_api/icons/v2/restaurant_pinlet","name":"Les Burgers De Papa","opening_hours":{"open_now":false},"photos":[{"height":1080,"html_attributions":["<a href=\"https://maps.google.com/maps/contrib/100390968061398703506\">Les Burgers De Papa</a>"],"photo_reference":"AeJbb3eYq7xXeAp3J3G8FNv4EG7exVXql1cSGxQMitDsjXUreflOUU13KEZFmGen3dSrfasG9Cwfhr5BFdUVqLzU95q265i-WKlRAPcO-B-t4u7tgorNFTkl7EHbnoSd2374rDTcG5f_B2GXFCWClHjQGGsx6lFbGTG6VQxmMZtucL9-Nz7F","width":1920}],"place_id":"ChIJPfykOt7B9EcRMQtqgGi5ews","plus_code":{"compound_code":"PVVF+G3 Lyon","global_code":"8FQ6PVVF+G3"},"price_level":2,"rating":4.2,"reference":"ChIJPfykOt7B9EcRMQtqgGi5ews","types":["meal_takeaway","meal_delivery","restaurant","point_of_interest","food","establishment"],"user_ratings_total":1660},{"business_status":"OPERATIONAL","formatted_address":"Centre commercial Saint Genis, 2 Av. Charles de Gaulle, 69230 Saint-Genis-Laval","geometry":{"location":{"lat":45.6805828,"lng":4.7925176},"viewport":{"northeast":{"lat":45.68168647989272,"lng":4.794285629892721},"southwest":{"lat":45.67898682010728,"lng":4.791585970107278}}},"icon":"https://maps.gstatic.com/mapfiles/place_api/icons/v1/png_71/restaurant-71.png","icon_background_color":"#FF9E67","icon_mask_base_uri":"https://maps.gstatic.com/mapfiles/place_api/icons/v2/restaurant_pinlet","name":"Les Burgers de Papa","opening_hours":{"open_now":false},"photos":[{"height":1400,"html_attributions":["<a href=\"https://maps.google.com/maps/contrib/106161731492267822824\">A Google User</a>"],"photo_reference":"AeJbb3e5CBnfn7pPGZk1JHudZ1I1ULJ_oeYUo7Bh1r8LIKQTmnOoP0Y447t1Kk0AB-frZGgTftxYOH0nVFSuh5x9el_pezwLxFyvs_ew4w61KAjXentDJo5YANZZIG0dUeaWWqWGf8x7weMLjqmQJt9pGVsc16EwJ5eY8p7XcULBQBaVjrm9","width":1400}],"place_id":"ChIJXfn89V3p9EcRoIb_iETMfLE","plus_code":{"compound_code":"MQJV+62 St-Genis-Laval","global_code":"8FQ6MQJV+62"},"price_level":2,"rating":4.2,"reference":"ChIJXfn89V3p9EcRoIb_iETMfLE","types":["meal_takeaway","meal_delivery","restaurant","point_of_interest","food","establishment"],"user_ratings_total":1313},{"business_status":"OPERATIONAL","formatted_address":"19 Rue Childebert, 69002 Lyon","geometry":{"location":{"lat":45.7602816,"lng":4.8363812},"viewport":{"northeast":{"lat":45.76159332989273,"lng":4.837729529892721},"southwest":{"lat":45.75889367010728,"lng":4.835029870107277}}},"icon":"https://maps.gstatic.com/mapfiles/place_api/icons/v1/png_71/restaurant-71.png","icon_background_color":"#FF9E67","icon_mask_base_uri":"https://maps.gstatic.com/mapfiles/place_api/icons/v2/restaurant_pinlet","name":"Le Zinc à burger - République","opening_hours":{"open_now":true},"photos":[{"height":999,"html_attributions":["<a href=\"https://maps.google.com/maps/contrib/105324306180385146907\">Le zinc à burger</a>"],"photo_reference":"AeJbb3fBqlF2hal78H171VhtIfUmpZzhcbczhiD--5wuEV3C1cHKAO-9nLzIQoJcvbyYsLccKEPxleYIAP7jlkBRO95abQLHav-FOi2KzFveSq22RUDpgMBvh7PAp-TGj6yD-zyClaK44xOrTxjJ9uz5jw5pj9Rm6jbvgejbzSN38kX_1UvI","width":1000}],"place_id":"ChIJk0rb51bq9EcRVv8-aTHlmR4","plus_code":{"compound_code":"QR6P+4H Lyon","global_code":"8FQ6QR6P+4H"},"price_level":2,"rating":4.2,"reference":"ChIJk0rb51bq9EcRVv8-aTHlmR4","types":["meal_takeaway","restaurant","food","point_of_interest","establishment"],"user_ratings_total":715},{"business_status":"OPERATIONAL","formatted_address":"14 Rue Tupin, 69002 Lyon","geometry":{"location":{"lat":45.76277779999999,"lng":4.8336111},"viewport":{"northeast":{"lat":45.76417867989272,"lng":4.834957279892722},"southwest":{"lat":45.76147902010727,"lng":4.832257620107278}}},"icon":"https://maps.gstatic.com/mapfiles/place_api/icons/v1/png_71/restaurant-71.png","icon_background_color":"#FF9E67","icon_mask_base_uri":"https://maps.gstatic.com/mapfiles/place_api/icons/v2/restaurant_pinlet","name":"Guy & Sons Cordeliers","opening_hours":{"open_now":false},"photos":[{"height":3024,"html_attributions":["<a href=\"https://maps.google.com/maps/contrib/111291887604076227853\">Guy &amp; Sons</a>"],"photo_reference":"AeJbb3efZlXeA0gsQPe9KrkVTjPpClKbfixTxCVAt3HatCHnbknJbSCw1zyum12ZBCCZPCMASY5sUDdgc7tn-sXNOHu5LrRs_0A9quyPJRyGG7jBtx6qwtoulbP8pwlNQKJLZkkvtw-VZeN66E5MLYkX5wVOze6dhBLCKAGEG96rHVgqWidw","width":3024}],"place_id":"ChIJW0yB6VXq9EcRmY-60RFP9DU","plus_code":{"compound_code":"QR7M+4C Lyon","global_code":"8FQ6QR7M+4C"},"price_level":2,"rating":4.2,"reference":"ChIJW0yB6VXq9EcRmY-60RFP9DU","types":["meal_takeaway","meal_delivery","restaurant","point_of_interest","food","establishment"],"user_ratings_total":539},{"business_status":"OPERATIONAL","formatted_address":"86 Rue Saint-Georges, 69005 Lyon","geometry":{"location":{"lat":45.7567296,"lng":4.8243179},"viewport":{"northeast":{"lat":45.75806617989272,"lng":4.825715229892722},"southwest":{"lat":45.75536652010728,"lng":4.823015570107278}}},"icon":"https://maps.gstatic.com/mapfiles/place_api/icons/v1/png_71/restaurant-71.png","icon_background_color":"#FF9E67","icon_mask_base_uri":"https://maps.gstatic.com/mapfiles/place_api/icons/v2/restaurant_pinlet","name":"Les Tontons Burgers","opening_hours":{"open_now":false},"photos":[{"height":1960,"html_attributions":["<a href=\"https://maps.google.com/maps/contrib/104538990120994003555\">mehdi - samy Chafaa</a>"],"photo_reference":"AeJbb3eZyWvls0Dojzu11LxFwPMVK2VBcPRj_MX4kiAzauuR6MZ2ZKplxh3a-tFX1xigTi2JwIK6AaIWfTHuXbRNhXHuONMdZQ6j6v-CQo443Bg6dm1fu_alA7x0q0q2IDf4HXJb0bdTL0aIudGvywnhaeNLXUM11O0mQc2CxDei3Jh_tkKp","width":4032}],"place_id":"ChIJ0VWtya3r9EcRRSYjTjIX0mQ","plus_code":{"compound_code":"QR4F+MP Lyon","global_code":"8FQ6QR4F+MP"},"price_level":1,"rating":4.2,"reference":"ChIJ0VWtya3r9EcRRSYjTjIX0mQ","types":["restaurant","food","point_of_interest","establishment"],"user_ratings_total":429},{"business_status":"OPERATIONAL","formatted_address":"42 bis Rue Henri Maréchal, 69800 Saint-Priest","geometry":{"location":{"lat":45.6933934,"lng":4.9410804},"viewport":{"northeast":{"lat":45.69492427989272,"lng":4.942440629892722},"southwest":{"lat":45.69222462010728,"lng":4.939740970107279}}},"icon":"https://maps.gstatic.com/mapfiles/place_api/icons/v1/png_71/restaurant-71.png","icon_background_color":"#FF9E67","icon_mask_base_uri":"https://maps.gstatic.com/mapfiles/place_api/icons/v2/restaurant_pinlet","name":"Burger's St Priest","opening_hours":{"open_now":false},"photos":[{"height":1819,"html_attributions":["<a href=\"https://maps.google.com/maps/contrib/106370075494552680848\">A Google User</a>"],"photo_reference":"AeJbb3eJ-VNvbiGoAZ2qT0a6tqRqab7KEfg_yy0KTESkjr6O1RV16TWiUdmwfuxF3S1czAtbnvliYk1i1cHHhySF7IO5lujAWdFZrThnNfkJq7Dxjb1CEefxj3sPdpP3w-6123B_CtqgY-JR3XgP7QG7GI_qR3nmBuFIYe5EliPlwPo7KXME","width":1228}],"place_id":"ChIJdQqOezzD9EcRcWJDhQ3PzGM","plus_code":{"compound_code":"MWVR+9C Saint-Priest","global_code":"8FQ6MWVR+9C"},"price_level":2,"rating":4.2,"reference":"ChIJdQqOezzD9EcRcWJDhQ3PzGM","types":["restaurant","food","point_of_interest","establishment"],"user_ratings_total":245},{"business_status":"OPERATIONAL","formatted_address":"79 Av. Berthelot, 69007 Lyon","geometry":{"location":{"lat":45.744572,"lng":4.8443782},"viewport":{"northeast":{"lat":45.74584642989272,"lng":4.845680679892721},"southwest":{"lat":45.74314677010728,"lng":4.842981020107278}}},"icon":"https://maps.gstatic.com/mapfiles/place_api/icons/v1/png_71/restaurant-71.png","icon_background_color":"#FF9E67","icon_mask_base_uri":"https://maps.gstatic.com/mapfiles/place_api/icons/v2/restaurant_pinlet","name":"Night Burger","opening_hours":{"open_now":false},"photos":[{"height":335,"html_attributions":["<a href=\"https://maps.google.com/maps/contrib/112845576759556799790\">Audrey Clain</a>"],"photo_reference":"AeJbb3c44LKACOXqqg0wqnhiy0xUKNBVYBhMKH1imsttyEXFtJX29dbkAxt76Am5tmFxeEJTzXI9Wyfjh1hHT88-fTBa8VTsEMKI2T1Vh9EOqNS0z33QSJVQ94_gKkr-SZszi942VMATS_rx4EDpStUNzZIzuq3mE4_CJmAL0PZTcz1ibdJO","width":586}],"place_id":"ChIJvxvJgkDq9EcRjE1XKgUeTxM","plus_code":{"compound_code":"PRVV+RQ Lyon","global_code":"8FQ6PRVV+RQ"},"rating":4.2,"reference":"ChIJvxvJgkDq9EcRjE1XKgUeTxM","types":["restaurant","point_of_interest","food","establishment"],"user_ratings_total":170},{"business_status":"OPERATIONAL","formatted_address":"252 Cr Lafayette, 69003 Lyon","geometry":{"location":{"lat":45.7635414,"lng":4.864714},"viewport":{"northeast":{"lat":45.76496137989272,"lng":4.866026079892722},"southwest":{"lat":45.76226172010728,"lng":4.863326420107278}}},"icon":"https://maps.gstatic.com/mapfiles/place_api/icons/v1/png_71/restaurant-71.png","icon_background_color":"#FF9E67","icon_mask_base_uri":"https://maps.gstatic.com/mapfiles/place_api/icons/v2/restaurant_pinlet","name":"Ghost Burger Cours Lafayette","opening_hours":{"open_now":false},"photos":[{"height":3500,"html_attributions":["<a href=\"https://maps.google.com/maps/contrib/106278195326008144762\">A Google User</a>"],"photo_reference":"AeJbb3cuZBKKq6f9V3ZDrGIDj18I5iN7z7eOL5mkfAl-AdRZRWdx3Mwoft7exsPbCDWTfW5Dkb4Otk5TMgU_NfG11Z-zdn3Os5W74WgoSUvM385IJ5Keb84B00Uqr28WlVKcx5mHPCDNmaVy0WsdKiv7Q_f2_XImftOBqbmEP1CAjrNwioU9","width":3500}],"place_id":"ChIJEWWwXHvr9EcR1Q3onE-XlAk","plus_code":{"compound_code":"QV77+CV Lyon","global_code":"8FQ6QV77+CV"},"rating":4.2,"reference":"ChIJEWWwXHvr9EcR1Q3onE-XlAk","types":["restaurant","food","point_of_interest","establishment"],"user_ratings_total":70},{"business_status":"OPERATIONAL","formatted_address":"Mail Claude Bernard, 69100 Villeurbanne","geometry":{"location":{"lat":45.7817196,"lng":4.8694033},"viewport":{"northeast":{"lat":45.78296287989272,"lng":4.871234179892721},"southwest":{"lat":45.78026322010728,"lng":4.868534520107278}}},"icon":"https://maps.gstatic.com/mapfiles/place_api/icons/v1/png_71/restaurant-71.png","icon_background_color":"#FF9E67","icon_mask_base_uri":"https://maps.gstatic.com/mapfiles/place_api/icons/v2/restaurant_pinlet","name":"Le Duke Burger (Foodtruck)","opening_hours":{"open_now":false},"photos":[{"height":424,"html_attributions":["<a href=\"https://maps.google.com/maps/contrib/115348752812253357605\">A Google User</a>"],"photo_reference":"AeJbb3dG39Itawfh1POhkZ7mEQOQzdqxsxFApRnpeBHSfiSfBJ_nXT62Xw3IAOXrAMgAjJlFh8fl9aTivxz7d9vAMIQO0XilTtH8Whf6tbbQoO1MAdSMSqNPkXnG6BcR56tltYyRwhfmMuQz0-tHzTcE7Hiy4wykOdRCUBko_B--6yfCdlr1","width":720}],"place_id":"ChIJyVbGzKnr9EcRDT_LpxE793E","plus_code":{"compound_code":"QVJ9+MQ Villeurbanne","global_code":"8FQ6QVJ9+MQ"},"rating":4.2,"reference":"ChIJyVbGzKnr9EcRDT_LpxE793E","types":["restaurant","food","point_of_interest","establishment"],"user_ratings_total":37},{"business_status":"OPERATIONAL","formatted_address":"112 Cr Charlemagne, 69002 Lyon","geometry":{"location":{"lat":45.7413275,"lng":4.8174157},"viewport":{"northeast":{"lat":45.74266187989272,"lng":4.818802679892721},"southwest":{"lat":45.73996222010727,"lng":4.816103020107278}}},"icon":"https://maps.gstatic.com/mapfiles/place_api/icons/v1/png_71/restaurant-71.png","icon_background_color":"#FF9E67","icon_mask_base_uri":"https://maps.gstatic.com/mapfiles/place_api/icons/v2/restaurant_pinlet","name":"Daddy's Burgers","opening_hours":{"open_now":false},"photos":[{"height":1080,"html_attributions":["<a href=\"https://maps.google.com/maps/contrib/101280566833302369058\">A Google User</a>"],"photo_reference":"AeJbb3dCQPa3kOnRjZxQmH4OTj1urW_Nrz37qJPU8MV7Bu3ovCp0qnt0JJYBpCNw7lFaqk1Zf7R8RVrqBCByc8aRGKZIJZEXg19pkVgxttmNaKzOQ7Egaxshk0v5TU8feXWqLJY7g1pGFgBqWBZpjHLWrkAA9Qhx_z-05IPIJvBJsJy2g5I","width":1080}],"place_id":"ChIJf4np1QXr9EcRztr3jtWr8wY","plus_code":{"compound_code":"PRR8+GX Lyon","global_code":"8FQ6PRR8+GX"},"price_level":2,"rating":4.1,"reference":"ChIJf4np1QXr9EcRztr3jtWr8wY","types":["meal_takeaway","meal_delivery","restaurant","point_of_interest","food","establishment"],"user_ratings_total":2298},{"business_status":"OPERATIONAL","formatted_address":"107 Rue Jean Sarrazin, 69008 Lyon","geometry":{"location":{"lat":45.729229,"lng":4.8609284},"viewport":{"northeast":{"lat":45.73056787989272,"lng":4.862225679892722},"southwest":{"lat":45.72786822010728,"lng":4.859526020107278}}},"icon":"https://maps.gstatic.com/mapfiles/place_api/icons/v1/png_71/restaurant-71.png","icon_background_color":"#FF9E67","icon_mask_base_uri":"https://maps.gstatic.com/mapfiles/place_api/icons/v2/restaurant_pinlet","name":"Big & Burger","opening_hours":{"open_now":false},"photos":[{"height":2988,"html_attributions":["<a href=\"https://maps.google.com/maps/contrib/102468803747010986005\">mohamed-amir mandhouj</a>"],"photo_reference":"AeJbb3fxvzOsKlkEhU7ah7XKc-HrXiX_56HfkEeZyS_lGP8kAo6Vdi9-_Lb9Y5YMCHQFGSvvjou0SVGPcJ2rBA88DAeDIS0qLo27lt2uc7h0_3F0LY42mwGrFKxhbu2nM0hrM-dkVXxMlDG06MlwFKQE1ReUJ6Xkn0zrB86oq_CWFucKPbNE","width":5312}],"place_id":"ChIJX1Nt_APq9EcR3QtsellLkpg","plus_code":{"compound_code":"PVH6+M9 Lyon","global_code":"8FQ6PVH6+M9"},"rating":4.1,"reference":"ChIJX1Nt_APq9EcR3QtsellLkpg","types":["restaurant","point_of_interest","food","establishment"],"user_ratings_total":242},{"business_status":"OPERATIONAL","formatted_address":"27b Av. Jean Jaurès, 69200 Vénissieux","geometry":{"location":{"lat":45.702141,"lng":4.8810281},"viewport":{"northeast":{"lat":45.70346147989272,"lng":4.882303179892722},"southwest":{"lat":45.70076182010728,"lng":4.879603520107278}}},"icon":"https://maps.gstatic.com/mapfiles/place_api/icons/v1/png_71/restaurant-71.png","icon_background_color":"#FF9E67","icon_mask_base_uri":"https://maps.gstatic.com/mapfiles/place_api/icons/v2/restaurant_pinlet","name":"KRUSTY BURGERS 🍔","opening_hours":{"open_now":false},"photos":[{"height":2080,"html_attributions":["<a href=\"https://maps.google.com/maps/contrib/101692274610097659563\">A Google User</a>"],"photo_reference":"AeJbb3elciUaqfR2ped-fln9QpxRxnQcBI8eHCipobxDoqAT6JHNKT-1JjlUehOyEq1mn9ky4QEeVo9c5tJ8DiAE2xPtMQ8VunQwzMX736BrJwxbBFQVZR_dBJt8-eIAe1J77h0YW6Y26rydGVRYj4AnqjP7Q9OLSP2-UAZK-kyPo01LPWEJ","width":1102}],"place_id":"ChIJj2qboIPD9EcRum60OC40GvU","plus_code":{"compound_code":"PV2J+VC Vénissieux","global_code":"8FQ6PV2J+VC"},"rating":4.1,"reference":"ChIJj2qboIPD9EcRum60OC40GvU","types":["restaurant","point_of_interest","food","establishment"],"user_ratings_total":136},{"business_status":"OPERATIONAL","formatted_address":"19 Av. Franklin Roosevelt, 69150 Décines-Charpieu","geometry":{"location":{"lat":45.7658362,"lng":4.9374353},"viewport":{"northeast":{"lat":45.76721007989272,"lng":4.938780629892722},"southwest":{"lat":45.76451042010727,"lng":4.936080970107279}}},"icon":"https://maps.gstatic.com/mapfiles/place_api/icons/v1/png_71/restaurant-71.png","icon_background_color":"#FF9E67","icon_mask_base_uri":"https://maps.gstatic.com/mapfiles/place_api/icons/v2/restaurant_pinlet","name":"Burger's Décines","opening_hours":{"open_now":false},"photos":[{"height":500,"html_attributions":["<a href=\"https://maps.google.com/maps/contrib/110902389500641943817\">Burger&#39;s</a>"],"photo_reference":"AeJbb3d5iZs8ex-J2F0wPiigPQVExKZ76X3MTA6bGe_-43jzFodGwgaAZCRc9MRdx1Y8c3DX6iPbI7SAoJPxNsXv2SUnIF-GYk8xDDh9NiWvDGrPxI8RT5PCOgfCZSf8RE9jgylRDFFVXgUTjQGDqx0jsOdSGq4go-UgAOi46p7iCWKAyksp","width":500}],"place_id":"ChIJT0q7j93A9EcREq8-Xi8qwUc","plus_code":{"compound_code":"QW8P+9X Décines-Charpieu","global_code":"8FQ6QW8P+9X"},"rating":4,"reference":"ChIJT0q7j93A9EcREq8-Xi8qwUc","types":["restaurant","food","point_of_interest","establishment"],"user_ratings_total":2166},{"business_status":"OPERATIONAL","formatted_address":"Restaurant Frite Alors! - Terreau, 20 Rue Terme, 69001 Lyon","geometry":{"location":{"lat":45.76788579999999,"lng":4.831942199999999},"viewport":{"northeast":{"lat":45.76929567989271,"lng":4.833328329892722},"southwest":{"lat":45.76659602010727,"lng":4.830628670107278}}},"icon":"https://maps.gstatic.com/mapfiles/place_api/icons/v1/png_71/restaurant-71.png","icon_background_color":"#FF9E67","icon_mask_base_uri":"https://maps.gstatic.com/mapfiles/place_api/icons/v2/restaurant_pinlet","name":"FRITE ALORS ! TERREAUX - Poutines québécoises - Frites belges - Burgers","opening_hours":{"open_now":false},"photos":[{"height":2304,"html_attributions":["<a href=\"https://maps.google.com/maps/contrib/111962866636988370106\">Eric Delforge</a>"],"photo_reference":"AeJbb3f4nIZ-cx4Fi70ywaqc_KGkcdL2o1Vxu9eNC70oIy2X9eN8ePmmuPRK6spsTF4iRAw6k1JDKF-FD7gWFKd9GfgCdjVKicmBbWDyQn5pZbHPhVzsZZaOKM9AYwL04VrAjuvTRUYirj2L9diIaSb5lLJGnsCCuB7uXudQlkS_Ota2H3qO","width":4608}],"place_id":"ChIJTQHZaP7q9EcRp4qR1l5zdrk","plus_code":{"compound_code":"QR9J+5Q Lyon","global_code":"8FQ6QR9J+5Q"},"price_level":2,"rating":4,"reference":"ChIJTQHZaP7q9EcRp4qR1l5zdrk","types":["restaurant","food","point_of_interest","establishment"],"user_ratings_total":2116},{"business_status":"OPERATIONAL","formatted_address":"172 Cr Lafayette, 69003 Lyon","geometry":{"location":{"lat":45.7635724,"lng":4.8569623},"viewport":{"northeast":{"lat":45.76492422989272,"lng":4.858288379892723},"southwest":{"lat":45.76222457010728,"lng":4.855588720107279}}},"icon":"https://maps.gstatic.com/mapfiles/place_api/icons/v1/png_71/restaurant-71.png","icon_background_color":"#FF9E67","icon_mask_base_uri":"https://maps.gstatic.com/mapfiles/place_api/icons/v2/restaurant_pinlet","name":"Big Fernand","opening_hours":{"open_now":false},"photos":[{"height":1333,"html_attributions":["<a href=\"https://maps.google.com/maps/contrib/116268829260891854835\">A Google User</a>"],"photo_reference":"AeJbb3cgQbBCvMjz416auFvtZAAiF28WxNLP7Oug2E_1x8yg3p7EM26amIPSZ5ul-647B5hEFn6PPpLlqB289n2PtvJDObQjew3_LVHn0am1JggaVa7Y0It8wawa0QQLDHoG9l7AhEDlPX8gmKrMs9SX_1u0YU__MHWm1ag5gZ2EB3BIUZNF","width":2000}],"place_id":"ChIJAQBU5Ynq9EcRQmkWkB3XBRI","plus_code":{"compound_code":"QV74+CQ Lyon","global_code":"8FQ6QV74+CQ"},"price_level":2,"rating":4,"reference":"ChIJAQBU5Ynq9EcRQmkWkB3XBRI","types":["meal_takeaway","meal_delivery","restaurant","food","point_of_interest","establishment"],"user_ratings_total":789},{"business_status":"OPERATIONAL","formatted_address":"535 N6, 69760 Limonest","geometry":{"location":{"lat":45.8105324,"lng":4.7776662},"viewport":{"northeast":{"lat":45.81190192989272,"lng":4.779091829892722},"southwest":{"lat":45.80920227010728,"lng":4.776392170107278}}},"icon":"https://maps.gstatic.com/mapfiles/place_api/icons/v1/png_71/restaurant-71.png","icon_background_color":"#FF9E67","icon_mask_base_uri":"https://maps.gstatic.com/mapfiles/place_api/icons/v2/restaurant_pinlet","name":"kry's burgers","place_id":"ChIJyb5wLkmT9EcR1YtoV0H0C5Y","plus_code":{"compound_code":"RQ6H+63 Limonest","global_code":"8FQ6RQ6H+63"},"rating":4,"reference":"ChIJyb5wLkmT9EcR1YtoV0H0C5Y","types":["restaurant","point_of_interest","food","establishment"],"user_ratings_total":4},{"business_status":"OPERATIONAL","formatted_address":"27 Av. Jean Mermoz, 69008 Lyon","geometry":{"location":{"lat":45.7354699,"lng":4.872838799999999},"viewport":{"northeast":{"lat":45.73676147989273,"lng":4.874105529892722},"southwest":{"lat":45.73406182010729,"lng":4.871405870107278}}},"icon":"https://maps.gstatic.com/mapfiles/place_api/icons/v1/png_71/restaurant-71.png","icon_background_color":"#FF9E67","icon_mask_base_uri":"https://maps.gstatic.com/mapfiles/place_api/icons/v2/restaurant_pinlet","name":"Burger's Lyon 8","opening_hours":{"open_now":false},"photos":[{"height":2560,"html_attributions":["<a href=\"https://maps.google.com/maps/contrib/116287789479366766856\">Inès Tema</a>"],"photo_reference":"AeJbb3ftBRY_JxerLTZquLnPDBbuNLBBiLousW1uRIi7NLaKCMrA1AGNdeMsVUirW-nMkJVJOCrdc1wdvMmtNVc7hKayP3T9PbmO_8nKQwjRiBpplxtWyrNsR5CAlMt70lfVNYG5bhe3T6PainoC5uA5mzco-d6K6Z49pfMuSA3-bncmHBID","width":1440}],"place_id":"ChIJ21z7YuPB9EcR_bGoItUjTLk","plus_code":{"compound_code":"PVPF+54 Lyon","global_code":"8FQ6PVPF+54"},"price_level":1,"rating":3.9,"reference":"ChIJ21z7YuPB9EcR_bGoItUjTLk","types":["restaurant","food","point_of_interest","establishment"],"user_ratings_total":804},{"business_status":"OPERATIONAL","formatted_address":"1 Rue Claude Violet, 69008 Lyon","geometry":{"location":{"lat":45.7329281,"lng":4.8795544},"viewport":{"northeast":{"lat":45.73435062989272,"lng":4.880872429892722},"southwest":{"lat":45.73165097010727,"lng":4.878172770107279}}},"icon":"https://maps.gstatic.com/mapfiles/place_api/icons/v1/png_71/restaurant-71.png","icon_background_color":"#FF9E67","icon_mask_base_uri":"https://maps.gstatic.com/mapfiles/place_api/icons/v2/restaurant_pinlet","name":"Oh My Burger","opening_hours":{"open_now":false},"photos":[{"height":3024,"html_attributions":["<a href=\"https://maps.google.com/maps/contrib/104899272984822295191\">A Google User</a>"],"photo_reference":"AeJbb3do94owvg8BQQvkN2MFcbSUvJTqZQ9zzErtdoDyYkHcAlN0eYKTVrojUT7_ITCRBLR9fSCWVllNwU-rdc5J7zaG6bXEr-WxRjvu_IpLUtIxKfE8Izm95K4x5U5gF4iarSFZ1Pskf0eoiczSOrFbmzGjz7kvMO_i8cb5LLWcBfTrErnQ","width":4032}],"place_id":"ChIJt7VQI_DB9EcROTtZhmvN0Lc","plus_code":{"compound_code":"PVMH+5R Lyon","global_code":"8FQ6PVMH+5R"},"rating":3.9,"reference":"ChIJt7VQI_DB9EcROTtZhmvN0Lc","types":["restaurant","food","point_of_interest","establishment"],"user_ratings_total":26},{"business_status":"OPERATIONAL","formatted_address":"63 Rue de la République, 69002 Lyon","geometry":{"location":{"lat":45.7597141,"lng":4.8355557},"viewport":{"northeast":{"lat":45.76087062989272,"lng":4.836624879892722},"southwest":{"lat":45.75817097010728,"lng":4.833925220107278}}},"icon":"https://maps.gstatic.com/mapfiles/place_api/icons/v1/png_71/restaurant-71.png","icon_background_color":"#FF9E67","icon_mask_base_uri":"https://maps.gstatic.com/mapfiles/place_api/icons/v2/restaurant_pinlet","name":"Five Guys Lyon République","opening_hours":{"open_now":false},"photos":[{"height":606,"html_attributions":["<a href=\"https://maps.google.com/maps/contrib/105580942481466388087\">A Google User</a>"],"photo_reference":"AeJbb3fsfPRUgMzkiBAFg5Vzif4hA9PhNmK1X0LnUsabiKxOc8pIIIf3XXKswFbRVbm7EZxo0uhmMz0YyjPK1OHSo5rtua8eiqvqK894U2Q8MPhzv_Fe6Vp7VdVDXl0WN_M_35nV37U9K_8ZuG28BdCBClnzQN_Y6i0I9u7xN9BVeZcJtbr-","width":1079}],"place_id":"ChIJOz9peg7r9EcR7vjqhlau7AA","plus_code":{"compound_code":"QR5P+V6 Lyon","global_code":"8FQ6QR5P+V6"},"price_level":2,"rating":3.8,"reference":"ChIJOz9peg7r9EcR7vjqhlau7AA","types":["meal_takeaway","restaurant","point_of_interest","food","establishment"],"user_ratings_total":994},{"business_status":"OPERATIONAL","formatted_address":"34 Rue de l'Université, 69007 Lyon","geometry":{"location":{"lat":45.7492345,"lng":4.8417172},"viewport":{"northeast":{"lat":45.75058712989272,"lng":4.843094829892721},"southwest":{"lat":45.74788747010728,"lng":4.840395170107278}}},"icon":"https://maps.gstatic.com/mapfiles/place_api/icons/v1/png_71/restaurant-71.png","icon_background_color":"#FF9E67","icon_mask_base_uri":"https://maps.gstatic.com/mapfiles/place_api/icons/v2/restaurant_pinlet","name":"Greg & Jerry's","opening_hours":{"open_now":false},"photos":[{"height":3968,"html_attributions":["<a href=\"https://maps.google.com/maps/contrib/114023516386439720874\">L&#39;apaisé ASMR</a>"],"photo_reference":"AeJbb3esAJcUoUPwmKKsQIdJekXT10bHrWwecBff5WnarAKanuTZNVQ9QYxJ-5k7Q2e3HpGUqtQ2RUBefa1WLm1UHtJ_77sHp-g3aceUk_k3Zj6rGS_MrwTvAZgdDHJowfgl1OPe74VUiw0YYHgt3TTx8snDjfy3HTaEoRdSuKlXk_-Oy1tl","width":2976}],"place_id":"ChIJn1PUn0bq9EcRpEqN-k1A_nc","plus_code":{"compound_code":"PRXR+MM Lyon","global_code":"8FQ6PRXR+MM"},"rating":3.8,"reference":"ChIJn1PUn0bq9EcRpEqN-k1A_nc","types":["meal_takeaway","restaurant","point_of_interest","food","establishment"],"user_ratings_total":305},{"business_status":"OPERATIONAL","formatted_address":"112 Cr Charlemagne, 69002 Lyon","geometry":{"location":{"lat":45.741785,"lng":4.8159668},"viewport":{"northeast":{"lat":45.74313482989273,"lng":4.817316629892721},"southwest":{"lat":45.74043517010728,"lng":4.814616970107277}}},"icon":"https://maps.gstatic.com/mapfiles/place_api/icons/v1/png_71/restaurant-71.png","icon_background_color":"#FF9E67","icon_mask_base_uri":"https://maps.gstatic.com/mapfiles/place_api/icons/v2/restaurant_pinlet","name":"Steak 'n Shake","opening_hours":{"open_now":false},"photos":[{"height":1365,"html_attributions":["<a href=\"https://maps.google.com/maps/contrib/101539141116977683928\">A Google User</a>"],"photo_reference":"AeJbb3fD3U9x0md7Olrp6zkiqEzpokxoLY_SQ51Xkc-75LfliXOJamIQQtWX_eYPYs5QpWNGeIe9AESSJGa2FD-OqDC69af189V3UvBrJ9KWmoe99mHYQyYws9n19SSAgezW_MhbggeKOaBOXzRSgx9dFiL3GCtChYdbjWkVdJkGdye6qe-6","width":2048}],"place_id":"ChIJLW6iSsnr9EcR1UL3-U90Jow","plus_code":{"compound_code":"PRR8+P9 Lyon","global_code":"8FQ6PRR8+P9"},"price_level":2,"rating":3.7,"reference":"ChIJLW6iSsnr9EcR1UL3-U90Jow","types":["restaurant","food","point_of_interest","establishment"],"user_ratings_total":1536},{"business_status":"OPERATIONAL","formatted_address":"424 Cr Emile Zola, 69100 Villeurbanne","geometry":{"location":{"lat":45.7637618,"lng":4.910187},"viewport":{"northeast":{"lat":45.76514072989272,"lng":4.911557779892722},"southwest":{"lat":45.76244107010728,"lng":4.908858120107278}}},"icon":"https://maps.gstatic.com/mapfiles/place_api/icons/v1/png_71/restaurant-71.png","icon_background_color":"#FF9E67","icon_mask_base_uri":"https://maps.gstatic.com/mapfiles/place_api/icons/v2/restaurant_pinlet","name":"Le 424 - Burgers and Grill","opening_hours":{"open_now":false},"photos":[{"height":2304,"html_attributions":["<a href=\"https://maps.google.com/maps/contrib/101638655818950509742\">Steeve Mombrun</a>"],"photo_reference":"AeJbb3fZCd7cw2nFItakDk0vCaQC1xALf-XjGJ6Ski8g16QoCVhVm6hw7QjdH6DDSGO2JI5HWdx17uuBMDkwMVZOIQQjNiJz3u5ni7jXMvmRhDxfNsSd2e8S1D6vCWPOEyW9wpChkPUsK1oHGViWTsk-JnFRmk4W4NUSImzW8Cul7p6M2WC_","width":4096}],"place_id":"ChIJb76nd1TA9EcRhPk7vUDKHLM","plus_code":{"compound_code":"QW76+F3 Villeurbanne","global_code":"8FQ6QW76+F3"},"rating":3.7,"reference":"ChIJb76nd1TA9EcRhPk7vUDKHLM","types":["restaurant","food","point_of_interest","establishment"],"user_ratings_total":22},{"business_status":"OPERATIONAL","formatted_address":"11 Rue de la République, 69001 Lyon","geometry":{"location":{"lat":45.7659212,"lng":4.8361462},"viewport":{"northeast":{"lat":45.76718887989273,"lng":4.837386029892722},"southwest":{"lat":45.76448922010729,"lng":4.834686370107278}}},"icon":"https://maps.gstatic.com/mapfiles/place_api/icons/v1/png_71/restaurant-71.png","icon_background_color":"#FF9E67","icon_mask_base_uri":"https://maps.gstatic.com/mapfiles/place_api/icons/v2/restaurant_pinlet","name":"Hamburger","place_id":"ChIJnyBZaJbr9EcRAGvzFMXqgIg","plus_code":{"compound_code":"QR8P+9F Lyon","global_code":"8FQ6QR8P+9F"},"rating":0,"reference":"ChIJnyBZaJbr9EcRAGvzFMXqgIg","types":["restaurant","point_of_interest","food","establishment"],"user_ratings_total":0},{"business_status":"OPERATIONAL","formatted_address":"145 Rue Sébastien Gryphe, 69007 Lyon","geometry":{"location":{"lat":45.7473086,"lng":4.838462499999999},"viewport":{"northeast":{"lat":45.74869347989272,"lng":4.839727879892721},"southwest":{"lat":45.74599382010728,"lng":4.837028220107277}}},"icon":"https://maps.gstatic.com/mapfiles/place_api/icons/v1/png_71/restaurant-71.png","icon_background_color":"#FF9E67","icon_mask_base_uri":"https://maps.gstatic.com/mapfiles/place_api/icons/v2/restaurant_pinlet","name":"Meat hamburger","place_id":"ChIJLe36MYPr9EcR9O0tReeMvxQ","plus_code":{"compound_code":"PRWQ+W9 Lyon","global_code":"8FQ6PRWQ+W9"},"rating":0,"reference":"ChIJLe36MYPr9EcR9O0tReeMvxQ","types":["restaurant","food","point_of_interest","establishment"],"user_ratings_total":0}]