[{"business_status":"OPERATIONAL","formatted_address":"4 Rue des Trois-Maries, 69005 Lyon","geometry":{"location":{"lat":45.762755,"lng":4.828318500000001},"viewport":{"northeast":{"lat":45.76409492989273,"lng":4.829658479892721},"southwest":{"lat":45.76139527010729,"lng":4.826958820107278}}},"icon":"https://maps.gstatic.com/mapfiles/place_api/icons/v1/png_71/restaurant-71.png","icon_background_color":"#FF9E67","icon_mask_base_uri":"https://maps.gstatic.com/mapfiles/place_api/icons/v2/restaurant_pinlet","name":"White Star Burgers, Poutines & Salades","opening_hours":{"open_now":false},"photos":[{"height":3024,"html_attributions":["<a href=\"https://maps.google.com/maps/contrib/112563169374107169339\">Majid Bakir</a>"],"photo_reference":"AeJbb3f4UNeVu3m5p-KY6C6L1mG4LE4MSv2eUcKWdO8TXLxALmfpDOdyy1f7u8BtNP4uzjp8cQ94IB4FP_uWAcYmWdb1rv8rCaLENCSMx-aEpaIYemvjuzPSsbE1JO3RV3Ch1mTfgpkp23BT4eiPpoJV62FKIWD6GHNa7GgraXqhVDdqBJPX","width":3024}],"place_id":"ChIJBWgWPJrr9EcRGxXy6SHNp6M","plus_code":{"compound_code":"QR7H+47 Lyon","global_code":"8FQ6QR7H+47"},"rating":5,"reference":"ChIJBWgWPJrr9EcRGxXy6SHNp6M","types":["restaurant","point_of_interest","food","establishment"],"user_ratings_total":139},{"business_status":"OPERATIONAL","formatted_address":"36 Rue Père Chevrier, 69007 Lyon","geometry":{"location":{"lat":45.748334,"lng":4.8447848},"viewport":{"northeast":{"lat":45.74969572989272,"lng":4.846151529892722},"southwest":{"lat":45.74699607010728,"lng":4.843451870107278}}},"icon":"https://maps.gstatic.com/mapfiles/place_api/icons/v1/png_71/restaurant-71.png","icon_background_color":"#FF9E67","icon_mask_base_uri":"https://maps.gstatic.com/mapfiles/place_api/icons/v2/restaurant_pinlet","name":"Burger'it!","place_id":"ChIJVVUhbEHq9EcRdZrZ5Vk5SsQ","plus_code":{"compound_code":"PRXV+8V Lyon","global_code":"8FQ6PRXV+8V"},"rating":5,"reference":"ChIJVVUhbEHq9EcRdZrZ5Vk5SsQ","types":["restaurant","point_of_interest","food","establishment"],"user_ratings_total":5},{"business_status":"OPERATIONAL","formatted_address":"214 Rue Paul Bert, 69003 Lyon","geometry":{"location":{"lat":45.7569027,"lng":4.8637514},"viewport":{"northeast":{"lat":45.75830102989272,"lng":4.865109179892722},"southwest":{"lat":45.75560137010728,"lng":4.862409520107278}}},"icon":"https://maps.gstatic.com/mapfiles/place_api/icons/v1/png_71/restaurant-71.png","icon_background_color":"#FF9E67","icon_mask_base_uri":"https://maps.gstatic.com/mapfiles/place_api/icons/v2/restaurant_pinlet","name":"Les Bibi's Burger","opening_hours":{"open_now":false},"photos":[{"height":5668,"html_attributions":["<a href=\"https://maps.google.com/maps/contrib/100659718850481143659\">A Google User</a>"],"photo_reference":"AeJbb3dCEjw1Mlc7bjzznA7IE01211rUHhP1kkK2gcgGp09gsZOCeLVOMGsXV1NeOqrVZEWEiMsc-n3cogpjydS8Fa8xc5XRR6bVW3VDWDFnhnxTxduRK2n-E1kP6k0yS8lEwFcklGUPVoY-91CFUY3zSCKu82yF35RzDGeJl2ad26l0mzMy","width":3779}],"place_id":"ChIJMcy2VM3r9EcRmBNoL1iQJyI","plus_code":{"compound_code":"QV47+QG Lyon","global_code":"8FQ6QV47+QG"},"rating":4.9,"reference":"ChIJMcy2VM3r9EcRmBNoL1iQJyI","types":["restaurant","food","point_of_interest","establishment"],"user_ratings_total":57},{"business_status":"OPERATIONAL","formatted_address":"10 Pl. Jean Macé, 69007 Lyon","geometry":{"location":{"lat":45.74530559999999,"lng":4.8421851},"viewport":{"northeast":{"lat":45.74666547989272,"lng":4.843540879892721},"southwest":{"lat":45.74396582010727,"lng":4.840841220107277}}},"icon":"https://maps.gstatic.com/mapfiles/place_api/icons/v1/png_71/restaurant-71.png","icon_background_color":"#FF9E67","icon_mask_base_uri":"https://maps.gstatic.com/mapfiles/place_api/icons/v2/restaurant_pinlet","name":"Ghost Burger Jean Macé","opening_hours":{"open_now":true},"photos":[{"height":1198,"html_attributions":["<a href=\"https://maps.google.com/maps/contrib/111898582166449918000\">A Google User</a>"],"photo_reference":"AeJbb3c1ovmeugcvyIJLVU6Ul5rKZ2VqklBGb7PpZHeY4ju3NmgQPrOIdMy5ufIwNL6ZeBtYt5fSUHCdXy9loI-xc1w05_uT_KPWAegg6_dYb708wsURaY9dGZYh9h0fgZqldAppljiDKh9bJcR1kFqEiA6H3WCAMkIU5n0SeOToSawuKFw_","width":1066}],"place_id":"ChIJi1rCbJbr9EcROqfpiqwzA8M","plus_code":{"compound_code":"PRWR+4V Lyon","global_code":"8FQ6PRWR+4V"},"rating":4.9,"reference":"ChIJi1rCbJbr9EcROqfpiqwzA8M","types":["restaurant","food","point_of_interest","establishment"],"user_ratings_total":21},{"business_status":"OPERATIONAL","formatted_address":"69510 Messimy","geometry":{"location":{"lat":45.70202829999999,"lng":4.6871217},"viewport":{"northeast":{"lat":45.70336517989272,"lng":4.688648429892722},"southwest":{"lat":45.70066552010727,"lng":4.685948770107278}}},"icon":"https://maps.gstatic.com/mapfiles/place_api/icons/v1/png_71/restaurant-71.png","icon_background_color":"#FF9E67","icon_mask_base_uri":"https://maps.gstatic.com/mapfiles/place_api/icons/v2/restaurant_pinlet","name":"27th street burgers","opening_hours":{"open_now":false},"photos":[{"height":5504,"html_attributions":["<a href=\"https://maps.google.com/maps/contrib/104953502955333620882\">Ryordan</a>"],"photo_reference":"AeJbb3cfelzgxbREwZHpS8pvijBrhRODe1IhOIt4T9SDSLe5kQLPkAQtm4tSy9tbkPH_3ocAOVxi89YN0ZYCFLdCJI8wWRnPwIG1uJsmQg6flRcjktMxMsT3RcuhDpJsMQnWF__xkEzG8kVqCZ3pGZD6w7xA9Y8C_oxBD35sVv0VdaG-yTn_","width":3096}],"place_id":"ChIJsURjPZLx9EcRgxhGsSOhwFI","plus_code":{"compound_code":"PM2P+RV Messimy","global_code":"8FQ6PM2P+RV"},"rating":4.9,"reference":"ChIJsURjPZLx9EcRgxhGsSOhwFI","types":["restaurant","food","point_of_interest","establishment"],"user_ratings_total":21},{"business_status":"OPERATIONAL","formatted_address":"155 Grande Rue de St Clair, 69300 Caluire-et-Cuire","geometry":{"location":{"lat":45.790978,"lng":4.8595109},"viewport":{"northeast":{"lat":45.79229542989272,"lng":4.860812329892722},"southwest":{"lat":45.78959577010728,"lng":4.858112670107278}}},"icon":"https://maps.gstatic.com/mapfiles/place_api/icons/v1/png_71/restaurant-71.png","icon_background_color":"#FF9E67","icon_mask_base_uri":"https://maps.gstatic.com/mapfiles/place_api/icons/v2/restaurant_pinlet","name":"MASTER GRILL","opening_hours":{"open_now":false},"photos":[{"height":3024,"html_attributions":["<a href=\"https://maps.google.com/maps/contrib/103286870656721981011\">A Google User</a>"],"photo_reference":"AeJbb3dVB3siV3Y-SS0fG1eoUgDojEU7H57Zamrqr3Rs-x9EGt442e7k3yJoi0wylKF3tX49MnceDAQmctgFDgRYn_hAEk14nQjboW3DHfEUleiUUcYygkU5-sx0rrpSBuAC5v4kQ07gKv0DPJNOOh_nzUP4G2Gn4HuhVc-bqtCbhVH2rC7s","width":4032}],"place_id":"ChIJHeovZKrr9EcRPeA9klUsOAU","plus_code":{"compound_code":"QVR5+CQ Caluire-et-Cuire","global_code":"8FQ6QVR5+CQ"},"rating":4.8,"reference":"ChIJHeovZKrr9EcRPeA9klUsOAU","types":["restaurant","food","point_of_interest","establishment"],"user_ratings_total":116},{"business_status":"OPERATIONAL","formatted_address":"33 Rue Ernest Renan, 69120 Vaulx-en-Velin","geometry":{"location":{"lat":45.7857911,"lng":4.905926399999999},"viewport":{"northeast":{"lat":45.78684487989272,"lng":4.907580579892722},"southwest":{"lat":45.78414522010728,"lng":4.904880920107278}}},"icon":"https://maps.gstatic.com/mapfiles/place_api/icons/v1/png_71/restaurant-71.png","icon_background_color":"#FF9E67","icon_mask_base_uri":"https://maps.gstatic.com/mapfiles/place_api/icons/v2/restaurant_pinlet","name":"Burger World","opening_hours":{"open_now":true},"photos":[{"height":1620,"html_attributions":["<a href=\"https://maps.google.com/maps/contrib/115954368324232879699\">A Google User</a>"],"photo_reference":"AeJbb3d_hxxU_SUyUNMfW1jVCVComZIzb9PFo2cifluBZLAaUUW5HlqQm9tSyR3DnWGswLqS3vc0nLp1MPv3IhUWXDtUjZGAbvrfUdZeOMB4R_DPh92n1j5aP-TRVOxiNvH3sbyVQjeeKplWYNLeWJFcuk33PhykmO3w49G-mogu4QYTtRSc","width":1620}],"place_id":"ChIJN5kPElfB9EcR14FU_t4ZcVw","plus_code":{"compound_code":"QWP4+89 Vaulx-en-Velin","global_code":"8FQ6QWP4+89"},"rating":4.7,"reference":"ChIJN5kPElfB9EcR14FU_t4ZcVw","types":["restaurant","food","point_of_interest","establishment"],"user_ratings_total":824},{"business_status":"OPERATIONAL","formatted_address":"59 Bd des Brotteaux, 69006 Lyon","geometry":{"location":{"lat":45.76387219999999,"lng":4.8576312},"viewport":{"northeast":{"lat":45.76513957989273,"lng":4.858832829892721},"southwest":{"lat":45.76243992010728,"lng":4.856133170107277}}},"icon":"https://maps.gstatic.com/mapfiles/place_api/icons/v1/png_71/restaurant-71.png","icon_background_color":"#FF9E67","icon_mask_base_uri":"https://maps.gstatic.com/mapfiles/place_api/icons/v2/restaurant_pinlet","name":"WARLIS&BRO","opening_hours":{"open_now":true},"photos":[{"height":4032,"html_attributions":["<a href=\"https://maps.google.com/maps/contrib/112798394798102953128\">A Google User</a>"],"photo_reference":"AeJbb3cB0gAk9yx_qu7jo0XafPHElyDTmpc4dHml7LDHF30sKqaTg2yFEAWYaig9cYSEdVitemyX0admiw8h5SSLR4Dg2w5mLamgDhc-3kQvdI0Y0nqkAS9ijfCdz0cbsWDzScvcaeqiWLK7dvC1XaJL6v-YQRHXaD0HxsoqBhVCD2mEoQ9X","width":3024}],"place_id":"ChIJUw-46Ynq9EcR4mc9mwBaa7A","plus_code":{"compound_code":"QV75+G3 Lyon","global_code":"8FQ6QV75+G3"},"rating":4.7,"reference":"ChIJUw-46Ynq9EcR4mc9mwBaa7A","types":["restaurant","point_of_interest","food","establishment"],"user_ratings_total":347},{"business_status":"OPERATIONAL","formatted_address":"282 Cr Lafayette, 69003 Lyon","geometry":{"location":{"lat":45.7636324,"lng":4.8666993},"viewport":{"northeast":{"lat":45.76500982989273,"lng":4.868052029892723},"southwest":{"lat":45.76231017010728,"lng":4.865352370107279}}},"icon":"https://maps.gstatic.com/mapfiles/place_api/icons/v1/png_71/restaurant-71.png","icon_background_color":"#FF9E67","icon_mask_base_uri":"https://maps.gstatic.com/mapfiles/place_api/icons/v2/restaurant_pinlet","name":"TASTY BURGER","opening_hours":{"open_now":false},"photos":[{"height":3456,"html_attributions":["<a href=\"https://maps.google.com/maps/contrib/103499320180445253831\">Mumen</a>"],"photo_reference":"AeJbb3dRSfdv8njCvUSa0wkD0Hyi_Zj_2poBlL-byZrnrv-M6Db6HLMsxlOwfdPBkYM5XfYm2mXPiy9644riEpFTnYTGU4wo6Jy1X8WPk8tDrS31JOt2hQ1lb-ZAiQeO5Eqrvzc2mGk9a3E8VMVvJ9L7q25B4z_DfHgn1LvFjIqXHoc4Ym69","width":4608}],"place_id":"ChIJAQAwSofq9EcRtTr2jJDCms0","plus_code":{"compound_code":"QV78+CM Lyon","global_code":"8FQ6QV78+CM"},"price_level":1,"rating":4.7,"reference":"ChIJAQAwSofq9EcRtTr2jJDCms0","types":["restaurant","food","point_of_interest","establishment"],"user_ratings_total":230},{"business_status":"OPERATIONAL","formatted_address":"56 Rue Saint-Pierre de Vaise, 69009 Lyon","geometry":{"location":{"lat":45.7718145,"lng":4.804175499999999},"viewport":{"northeast":{"lat":45.77314242989272,"lng":4.805565979892722},"southwest":{"lat":45.77044277010727,"lng":4.802866320107278}}},"icon":"https://maps.gstatic.com/mapfiles/place_api/icons/v1/png_71/restaurant-71.png","icon_background_color":"#FF9E67","icon_mask_base_uri":"https://maps.gstatic.com/mapfiles/place_api/icons/v2/restaurant_pinlet","name":"Queenstown","opening_hours":{"open_now":false},"photos":[{"height":2740,"html_attributions":["<a href=\"https://maps.google.com/maps/contrib/109067485590088517403\">Queenstown</a>"],"photo_reference":"AeJbb3eK04ewTWDJAKlhgLloCYGbZqzX2goSUh980GTa0yPFiRowESo_nGgJyjejx3dcJOKAgjDvjEj-KEpp51PkQjPJ9Vqo-9m3qc41i9ZOnVkG1OgDo5-OawsWTlA6NVeEEtJPgMPgP0vND6OfEVotXpIqLmGiBA1eQUscQIWjdbTVXWCX","width":4117}],"place_id":"ChIJVVXF13Pr9EcR1kccDuXvS2s","plus_code":{"compound_code":"QRC3+PM Lyon","global_code":"8FQ6QRC3+PM"},"rating":4.7,"reference":"ChIJVVXF13Pr9EcR1kccDuXvS2s","types":["restaurant","point_of_interest","food","establishment"],"user_ratings_total":187},{"business_status":"OPERATIONAL","formatted_address":"118 Av. Francis de Pressensé, 69200 Vénissieux","geometry":{"location":{"lat":45.7237077,"lng":4.8646683},"viewport":{"northeast":{"lat":45.72509597989273,"lng":4.866113329892722},"southwest":{"lat":45.72239632010729,"lng":4.863413670107279}}},"icon":"https://maps.gstatic.com/mapfiles/place_api/icons/v1/png_71/restaurant-71.png","icon_background_color":"#FF9E67","icon_mask_base_uri":"https://maps.gstatic.com/mapfiles/place_api/icons/v2/restaurant_pinlet","name":"Chik N Burger","opening_hours":{"open_now":true},"photos":[{"height":3000,"html_attributions":["<a href=\"https://maps.google.com/maps/contrib/104457558135637165542\">A Google User</a>"],"photo_reference":"AeJbb3eUiJl3zpVWV0hPYSOOq8vs9fYomDhBIK8J2AaYWwyfG2ZNgT2QpK7cN7FY-N3kqObg3x3bYkD03oWA2uQrmNAE84nNu81rGMRBxoKrwXcHwgJwkX6SAP32xJB22beV4Q6vDCblfHjhi0ymHshX16KQCgpRJKr3UmqLnJgjpMf-WLYp","width":4000}],"place_id":"ChIJMyo7nO_r9EcR4WZWfqe-EvU","plus_code":{"compound_code":"PVF7+FV Vénissieux","global_code":"8FQ6PVF7+FV"},"rating":4.7,"reference":"ChIJMyo7nO_r9EcR4WZWfqe-EvU","types":["restaurant","store","food","point_of_interest","establishment"],"user_ratings_total":116},{"business_status":"OPERATIONAL","formatted_address":"18 Av. Georges Dimitrov, 69120 Vaulx-en-Velin","geometry":{"location":{"lat":45.7782673,"lng":4.9265111},"viewport":{"northeast":{"lat":45.77935682989271,"lng":4.928018779892723},"southwest":{"lat":45.77665717010727,"lng":4.925319120107279}}},"icon":"https://maps.gstatic.com/mapfiles/place_api/icons/v1/png_71/restaurant-71.png","icon_background_color":"#FF9E67","icon_mask_base_uri":"https://maps.gstatic.com/mapfiles/place_api/icons/v2/restaurant_pinlet","name":"V'Burger","opening_hours":{"open_now":false},"photos":[{"height":1920,"html_attributions":["<a href=\"https://maps.google.com/maps/contrib/114305523436013472445\">A Google User</a>"],"photo_reference":"AeJbb3ejgemhbu0elU-vqe7fCo2ocYP6S532P6Kx4z_D1tlwzjFIMlfs4rZPJLxjGhLWkS2bROadnEXTdcfDHgjOrV-hGUoS9IM0jQdhA3ZPoKDyjixU9ToRpgiaKpbYQuIo0GLCJR7eQDvnbjxiNtvPkWMi09auGuF56I4_K21tiQE9wmkE","width":1280}],"place_id":"ChIJZUGA1UTB9EcRR8auyCuUbQ0","plus_code":{"compound_code":"QWHG+8J Vaulx-en-Velin","global_code":"8FQ6QWHG+8J"},"rating":4.7,"reference":"ChIJZUGA1UTB9EcRR8auyCuUbQ0","types":["restaurant","point_of_interest","food","establishment"],"user_ratings_total":43},{"business_status":"OPERATIONAL","formatted_address":"158 Rue de la Pagère, 69500 Bron","geometry":{"location":{"lat":45.7371026,"lng":4.9164207},"viewport":{"northeast":{"lat":45.73842402989273,"lng":4.917856679892722},"southwest":{"lat":45.73572437010728,"lng":4.915157020107278}}},"icon":"https://maps.gstatic.com/mapfiles/place_api/icons/v1/png_71/restaurant-71.png","icon_background_color":"#FF9E67","icon_mask_base_uri":"https://maps.gstatic.com/mapfiles/place_api/icons/v2/restaurant_pinlet","name":"Les Burgers de l'aviation","opening_hours":{"open_now":true},"photos":[{"height":4032,"html_attributions":["<a href=\"https://maps.google.com/maps/contrib/103475071235514476460\">Enzo Guichon</a>"],"photo_reference":"AeJbb3eaJomZFy9FQRHhSb9pTOQFy89akSsExFgfnyBf3Vz2dDy-bW9ys-Szj_ITIoqxu-7WkoS1McVrJe2rY2NCFiyi05tczhnrpAPsYshAmi7Bbw44kM3VZG1X7-lH3DeJhqw1DEsrup_R8FTylhiFqkjX8McGARDJCaZcTcbm0gzYuQa4","width":1908}],"place_id":"ChIJO-EwXU7B9EcR_vNtRdFXThM","plus_code":{"compound_code":"PWP8+RH Bron","global_code":"8FQ6PWP8+RH"},"rating":4.7,"reference":"ChIJO-EwXU7B9EcR_vNtRdFXThM","types":["restaurant","point_of_interest","food","establishment"],"user_ratings_total":15},{"business_status":"OPERATIONAL","formatted_address":"4 Rue des Marronniers, 69002 Lyon","geometry":{"location":{"lat":45.7573563,"lng":4.834711299999999},"viewport":{"northeast":{"lat":45.75887762989272,"lng":4.836177079892722},"southwest":{"lat":45.75617797010727,"lng":4.833477420107278}}},"icon":"https://maps.gstatic.com/mapfiles/place_api/icons/v1/png_71/restaurant-71.png","icon_background_color":"#FF9E67","icon_mask_base_uri":"https://maps.gstatic.com/mapfiles/place_api/icons/v2/restaurant_pinlet","name":"Yabio - Bellecour - Burgers cools et Lyonnais !","opening_hours":{"open_now":true},"photos":[{"height":719,"html_attributions":["<a href=\"https://maps.google.com/maps/contrib/110534774247490179858\">Yabio - Bellecour</a>"],"photo_reference":"AeJbb3ephth5qeXWJGvDNTxOaPsnQPRKxkhI8tPEfQOAz72hW3oyTU88Tu6Fr-N7LnxiQKa77IScd0lKJnb2MouJlti9UdhpnIpGTiKA7wfsT7SaDnc86OKuOZ5lQGw1vHNn94ttfk1wKlfhAWA9vW7WaFXFMn5Y1i0lJ7hdjuxxA-9w0nPN","width":1279}],"place_id":"ChIJAa8DclHq9EcRaIgzNCo-CCs","plus_code":{"compound_code":"QR4M+WV Lyon","global_code":"8FQ6QR4M+WV"},"rating":4.6,"reference":"ChIJAa8DclHq9EcRaIgzNCo-CCs","types":["restaurant","food","point_of_interest","establishment"],"user_ratings_total":3124},{"business_status":"OPERATIONAL","formatted_address":"5 Rue Pizay, 69001 Lyon","geometry":{"location":{"lat":45.76697919999999,"lng":4.8351922},"viewport":{"northeast":{"lat":45.76829297989271,"lng":4.836566179892722},"southwest":{"lat":45.76559332010727,"lng":4.833866520107278}}},"icon":"https://maps.gstatic.com/mapfiles/place_api/icons/v1/png_71/restaurant-71.png","icon_background_color":"#FF9E67","icon_mask_base_uri":"https://maps.gstatic.com/mapfiles/place_api/icons/v2/restaurant_pinlet","name":"Hank Burger Lyon Opera","opening_hours":{"open_now":true},"photos":[{"height":2927,"html_attributions":["<a href=\"https://maps.google.com/maps/contrib/105355420621273766164\">A Google User</a>"],"photo_reference":"AeJbb3fmXRWVb0AqNz2Ye-tamd8RByc9CGzuLcvXKLh9pLhMP9LrfovpEjMMLeD0EylQPyWrWJIuVjB6x8owQq2URspjMUjMzdRIpgbkkb_-56semSLhdIf-H-R51RgtxkDIw4bqvWIZ_XBwShQSexrHbwMcy8GETAg59qk3v_ZQ9_v0VEyl","width":4391}],"place_id":"ChIJq6pazP7q9EcRXP9164W-wXA","plus_code":{"compound_code":"QR8P+Q3 Lyon","global_code":"8FQ6QR8P+Q3"},"price_level":2,"rating":4.6,"reference":"ChIJq6pazP7q9EcRXP9164W-wXA","types":["meal_takeaway","restaurant","point_of_interest","food","establishment"],"user_ratings_total":1032},{"business_status":"OPERATIONAL","formatted_address":"21 Quai Perrache, 69002 Lyon","geometry":{"location":{"lat":45.7441756,"lng":4.8263712},"viewport":{"northeast":{"lat":45.74549827989272,"lng":4.827773629892722},"southwest":{"lat":45.74279862010727,"lng":4.825073970107278}}},"icon":"https://maps.gstatic.com/mapfiles/place_api/icons/v1/png_71/restaurant-71.png","icon_background_color":"#FF9E67","icon_mask_base_uri":"https://maps.gstatic.com/mapfiles/place_api/icons/v2/restaurant_pinlet","name":"Rem's","opening_hours":{"open_now":true},"photos":[{"height":2322,"html_attributions":["<a href=\"https://maps.google.com/maps/contrib/112658331967950601971\">mikael meriot</a>"],"photo_reference":"AeJbb3cMuv_M-ajBXqQrJ5xpUsXKgzpXxXIJlZjwqtmJrVKykm2F8F1DOiuGe-z3wbmXVL4iCiOtsgncaWOQHFyfRQhfvJhqGe62ADUkAPEEnmpHfuCPKnHnoaoV1XfPqw63gZXGRYvt3cP43Fs-Q3SHzYZKDTqUYuLKd95XAOASnIqyaMEt","width":4128}],"place_id":"ChIJx-JcSjXq9EcRIltOKV8GRtE","plus_code":{"compound_code":"PRVG+MG Lyon","global_code":"8FQ6PRVG+MG"},"price_level":2,"rating":4.6,"reference":"ChIJx-JcSjXq9EcRIltOKV8GRtE","types":["bar","restaurant","point_of_interest","food","establishment"],"user_ratings_total":546},{"business_status":"OPERATIONAL","formatted_address":"22 Rue de la Platière, 69001 Lyon","geometry":{"location":{"lat":45.766035,"lng":4.832562999999999},"viewport":{"northeast":{"lat":45.76742232989272,"lng":4.833907329892721},"southwest":{"lat":45.76472267010728,"lng":4.831207670107277}}},"icon":"https://maps.gstatic.com/mapfiles/place_api/icons/v1/png_71/restaurant-71.png","icon_background_color":"#FF9E67","icon_mask_base_uri":"https://maps.gstatic.com/mapfiles/place_api/icons/v2/restaurant_pinlet","name":"The Roster Lyon Terreaux","opening_hours":{"open_now":false},"photos":[{"height":3645,"html_attributions":["<a href=\"https://maps.google.com/maps/contrib/116027340389823275489\">Gourmix</a>"],"photo_reference":"AeJbb3f5WKpYTE2abA-P6D-s_VoM0Yum1IJgGKhng95VGAO9R3dKH0Fwywm-IqfBwOvwpaymRzZDiyKmdhJOZKdMo2jhiZrBQYivsaJ_L1AtJFKzOXganze0Un4EwpfCOj-A9crq8f3MCTTGwWupAdY_wYO3PG6-qlinLMHMaRCUUOHLHDgY","width":5306}],"place_id":"ChIJkZlZB__q9EcRMe9LcsMgo1g","plus_code":{"compound_code":"QR8M+C2 Lyon","global_code":"8FQ6QR8M+C2"},"rating":4.6,"reference":"ChIJkZlZB__q9EcRMe9LcsMgo1g","types":["restaurant","food","point_of_interest","establishment"],"user_ratings_total":401},{"business_status":"OPERATIONAL","formatted_address":"133 Rue Servient, 69003 Lyon","geometry":{"location":{"lat":45.7609504,"lng":4.8537992},"viewport":{"northeast":{"lat":45.76220832989272,"lng":4.855241579892722},"southwest":{"lat":45.75950867010728,"lng":4.852541920107278}}},"icon":"https://maps.gstatic.com/mapfiles/place_api/icons/v1/png_71/restaurant-71.png","icon_background_color":"#FF9E67","icon_mask_base_uri":"https://maps.gstatic.com/mapfiles/place_api/icons/v2/restaurant_pinlet","name":"Big Fernand","opening_hours":{"open_now":true},"photos":[{"height":2048,"html_attributions":["<a href=\"https://maps.google.com/maps/contrib/115224121868236032189\">A Google User</a>"],"photo_reference":"AeJbb3dwSZMw6Izdq7nDF7tHT4xGkbCzzCrfYiHLM4SL76B5HieNSDjgE2R1NE85K58WlxPXbVu4fMrSy9I0TCFm5y69GshItlp4yem9PmlSX_451OvnwIvxB9RvDwOPq1t8ic73cB_zYS_bMCqHBbqrnoR1FfjgDBRxz-saEnqRtDO7USQD","width":2047}],"place_id":"ChIJDT2NPBPr9EcRLstrLKZdorM","plus_code":{"compound_code":"QV63+9G Lyon","global_code":"8FQ6QV63+9G"},"price_level":2,"rating":4.6,"reference":"ChIJDT2NPBPr9EcRLstrLKZdorM","types":["restaurant","point_of_interest","food","establishment"],"user_ratings_total":323},{"business_status":"OPERATIONAL","formatted_address":"44 Rue Sergent Blandan, 69001 Lyon","geometry":{"location":{"lat":45.7687715,"lng":4.831953599999999},"viewport":{"northeast":{"lat":45.77010337989272,"lng":4.833221829892723},"southwest":{"lat":45.76740372010728,"lng":4.830522170107279}}},"icon":"https://maps.gstatic.com/mapfiles/place_api/icons/v1/png_71/restaurant-71.png","icon_background_color":"#FF9E67","icon_mask_base_uri":"https://maps.gstatic.com/mapfiles/place_api/icons/v2/restaurant_pinlet","name":"SMASH","opening_hours":{"open_now":false},"photos":[{"height":2130,"html_attributions":["<a href=\"https://maps.google.com/maps/contrib/108267836024947425875\">A Google User</a>"],"photo_reference":"AeJbb3e5uvmj9ueCbd9ip3apXjTd8wDz8zMj-sMYxgfN6J36UxBkwxM2lGrPMLUwZzWySc4fV45Hu2y4l_AfcCmEh8gkpM-w4ZIXdXrStIsSdLhIZJqqMAFOQHqZYQdIgsAaMNliivYr1ybbR_jujk6utltpmYeMk2DXe9WPuHgyuHX2-oD4","width":1704}],"place_id":"ChIJBxTE7X7r9EcRmS4Dmz19BHY","plus_code":{"compound_code":"QR9J+GQ Lyon","global_code":"8FQ6QR9J+GQ"},"rating":4.6,"reference":"ChIJBxTE7X7r9EcRmS4Dmz19BHY","types":["restaurant","food","point_of_interest","establishment"],"user_ratings_total":88},{"business_status":"OPERATIONAL","formatted_address":"35 Rue Chevreul, 69007 Lyon","geometry":{"location":{"lat":45.7491012,"lng":4.8390593},"viewport":{"northeast":{"lat":45.75038177989272,"lng":4.840350229892723},"southwest":{"lat":45.74768212010728,"lng":4.837650570107279}}},"icon":"https://maps.gstatic.com/mapfiles/place_api/icons/v1/png_71/restaurant-71.png","icon_background_color":"#FF9E67","icon_mask_base_uri":"https://maps.gstatic.com/mapfiles/place_api/icons/v2/restaurant_pinlet","name":"Yabio - Chevreul - Burgers cools et Lyonnais !","opening_hours":{"open_now":true},"photos":[{"height":2021,"html_attributions":["<a href=\"https://maps.google.com/maps/contrib/106148537136311080331\">A Google User</a>"],"photo_reference":"AeJbb3e5jWSGFk0mOc7qe5lEgvsKJqtF5zNIg0HHm_TKsdBqluDnS9CPTt9lFbeLcXwkkr7qvoorCbZNhldh-DsFu_wD4FrIph1NPMqdV_bFVxDiK75QMLSjF0bz9FLzSwgDKVEQ7IcOtFawJBT49QaC8-hXpjokq0ZVTkoqHlc3_Mnd9faS","width":2021}],"place_id":"ChIJFeb6LCPr9EcRJUeRuDXiuu0","plus_code":{"compound_code":"PRXQ+JJ Lyon","global_code":"8FQ6PRXQ+JJ"},"rating":4.5,"reference":"ChIJFeb6LCPr9EcRJUeRuDXiuu0","types":["restaurant","food","point_of_interest","establishment"],"user_ratings_total":1791},{"business_status":"OPERATIONAL","formatted_address":"82 Cr Vitton, 69006 Lyon","geometry":{"location":{"lat":45.7698298,"lng":4.8578455},"viewport":{"northeast":{"lat":45.77126772989271,"lng":4.859206029892722},"southwest":{"lat":45.76856807010727,"lng":4.856506370107278}}},"icon":"https://maps.gstatic.com/mapfiles/place_api/icons/v1/png_71/restaurant-71.png","icon_background_color":"#FF9E67","icon_mask_base_uri":"https://maps.gstatic.com/mapfiles/place_api/icons/v2/restaurant_pinlet","name":"YABIO","opening_hours":{"open_now":false},"photos":[{"height":845,"html_attributions":["<a href=\"https://maps.google.com/maps/contrib/105104815079292571971\">A Google User</a>"],"photo_reference":"AeJbb3ezVPNi9nfVCwgxs_TagOBrLvuLT_Y8hWccMcGGyssNfltSauFrOEnHoDc6PwpuiJXJeWzTDUJs7a0Jz446q7_cPh0_Ft0-zNuiEpf_Jwdwmh92PH87-0MwzhgMERvddeQlIzeEWyFLLciBY_jwptofEfEPUMcoFuIkz-sJuwLjXbsD","width":1280}],"place_id":"ChIJ2Vidbabr9EcRXgIEXtvE5Y4","plus_code":{"compound_code":"QV95+W4 Lyon","global_code":"8FQ6QV95+W4"},"price_level":2,"rating":4.5,"reference":"ChIJ2Vidbabr9EcRXgIEXtvE5Y4","types":["restaurant","food","point_of_interest","establishment"],"user_ratings_total":1098},{"business_status":"OPERATIONAL","formatted_address":"47 Rue Bonnand, 69003 Lyon","geometry":{"location":{"lat":45.7491181,"lng":4.8840408},"viewport":{"northeast":{"lat":45.75046437989272,"lng":4.885326179892723},"southwest":{"lat":45.74776472010727,"lng":4.882626520107279}}},"icon":"https://maps.gstatic.com/mapfiles/place_api/icons/v1/png_71/restaurant-71.png","icon_background_color":"#FF9E67","icon_mask_base_uri":"https://maps.gstatic.com/mapfiles/place_api/icons/v2/restaurant_pinlet","name":"Les tontons burgers montchat","opening_hours":{"open_now":false},"photos":[{"height":1960,"html_attributions":["<a href=\"https://maps.google.com/maps/contrib/116552485848610241479\">Omri Kedem</a>"],"photo_reference":"AeJbb3ePVGYJp0GqruSlqapVKuDh8tZW_6DcWIlD3S8bh5LLPRKBE4K6rwzPNCoUxuTouZoFd2ToukIaGFh_w4XiwBcN2XBegbNPqY0KhhI7sF8GmdSswzg5eT2SjqrnFbXcWTI1AkOZAsJSTDLjFhPSBjkCl8_uv7crU_9xheV9G_beOn1k","width":4032}],"place_id":"ChIJAQDMRMTB9EcRXwIK2DI1Cww","plus_code":{"compound_code":"PVXM+JJ Lyon","global_code":"8FQ6PVXM+JJ"},"rating":4.5,"reference":"ChIJAQDMRMTB9EcRXwIK2DI1Cww","types":["restaurant","food","point_of_interest","establishment"],"user_ratings_total":324},{"business_status":"OPERATIONAL","formatted_address":"25 Quai Victor Augagneur, 69003 Lyon","geometry":{"location":{"lat":45.757765,"lng":4.8409529},"viewport":{"northeast":{"lat":45.75908917989271,"lng":4.842283429892722},"southwest":{"lat":45.75638952010727,"lng":4.839583770107278}}},"icon":"https://maps.gstatic.com/mapfiles/place_api/icons/v1/png_71/restaurant-71.png","icon_background_color":"#FF9E67","icon_mask_base_uri":"https://maps.gstatic.com/mapfiles/place_api/icons/v2/restaurant_pinlet","name":"King Marcel Lyon Augagneur","opening_hours":{"open_now":false},"photos":[{"height":3468,"html_attributions":["<a href=\"https://maps.google.com/maps/contrib/112145782962640515912\">A Google User</a>"],"photo_reference":"AeJbb3fFJiWhU0ZsQfU9RsTrNkfGwAJCDSHoh2smtaWqUZCom8LLxz0BRzngrl1Jm3eEVmIwPbb6qm9VBQS9eNpLOEi9BIJsdovLdlU1yKfKRI4PKcrnIOvzPnfZj7LGXg5koWxtGSoR8C_y8JAlgkVuJuh4Acsl3-w-MizwUI0NbBOI-smk","width":4624}],"place_id":"ChIJUWFFbkjr9EcRXETWNBK076c","plus_code":{"compound_code":"QR5R+39 Lyon","global_code":"8FQ6QR5R+39"},"price_level":2,"rating":4.5,"reference":"ChIJUWFFbkjr9EcRXETWNBK076c","types":["restaurant","food","point_of_interest","establishment"],"user_ratings_total":201},{"business_status":"OPERATIONAL","formatted_address":"55 Rue des Charmettes, 69100 Villeurbanne","geometry":{"location":{"lat":45.7685985,"lng":4.867378299999999},"viewport":{"northeast":{"lat":45.76994502989272,"lng":4.868691279892722},"southwest":{"lat":45.76724537010728,"lng":4.865991620107278}}},"icon":"https://maps.gstatic.com/mapfiles/place_api/icons/v1/png_71/restaurant-71.png","icon_background_color":"#FF9E67","icon_mask_base_uri":"https://maps.gstatic.com/mapfiles/place_api/icons/v2/restaurant_pinlet","name":"Greedy burger","opening_hours":{"open_now":false},"photos":[{"height":4160,"html_attributions":["<a href=\"https://maps.google.com/maps/contrib/103640972002593766851\">A Google User</a>"],"photo_reference":"AeJbb3d3xrD9a8Zjy_svIYshhC6L3zdwqsGseO4q32rwHyeBQ1PkwfNZM87QtlzTTnWeParFUZolNJCivDO6uqx4mf4WcGZ1tj6t1pzuLDUa4tAQW4fuxa_Pk3P5aZ1yE-_14zMCWEFRkx716gxCrUkJ1O39e9y-2gE_bOJtIN9FA5NNdcdz","width":3120}],"place_id":"ChIJkQGqAO7r9EcRQH3_VB76xsw","plus_code":{"compound_code":"QV98+CX Villeurbanne","global_code":"8FQ6QV98+CX"},"rating":4.5,"reference":"ChIJkQGqAO7r9EcRQH3_VB76xsw","types":["restaurant","food","point_of_interest","establishment"],"user_ratings_total":120},{"business_status":"OPERATIONAL","formatted_address":"984 N6, 69760 Limonest","geometry":{"location":{"lat":45.8147014,"lng":4.7760688},"viewport":{"northeast":{"lat":45.81604397989273,"lng":4.777399079892721},"southwest":{"lat":45.81334432010728,"lng":4.774699420107277}}},"icon":"https://maps.gstatic.com/mapfiles/place_api/icons/v1/png_71/restaurant-71.png","icon_background_color":"#FF9E67","icon_mask_base_uri":"https://maps.gstatic.com/mapfiles/place_api/icons/v2/restaurant_pinlet","name":"Les Burgers de Francois","opening_hours":{"open_now":false},"photos":[{"height":3780,"html_attributions":["<a href=\"https://maps.google.com/maps/contrib/105772757917475197631\">A Google User</a>"],"photo_reference":"AeJbb3fKpgCEul07UZqYS62CWw3SptaC3aYFaaz_-Fp7hCZ1S-uDdCCgT8DnTGuYlkb_u8cOzBmKLQ7w_Bfo-r0X4EIi_Jjm37FJgf-3-FBReKXC3-pshOXZUY7gQ8fgpPuxEUB9Ch74TpWgUqe1JcuF8kw2dUY79HDsZDp0az_KXEt0DSsQ","width":3024}],"place_id":"ChIJqXUdW06T9EcRXCCsWftsqNw","plus_code":{"compound_code":"RQ7G+VC Limonest","global_code":"8FQ6RQ7G+VC"},"rating":4.5,"reference":"ChIJqXUdW06T9EcRXCCsWftsqNw","types":["restaurant","point_of_interest","food","establishment"],"user_ratings_total":118},{"business_status":"OPERATIONAL","formatted_address":"36 Rue Ferrandière, 69002 Lyon","geometry":{"location":{"lat":45.7620929,"lng":4.8364308},"viewport":{"northeast":{"lat":45.76346712989272,"lng":4.837780179892722},"southwest":{"lat":45.76076747010728,"lng":4.835080520107279}}},"icon":"https://maps.gstatic.com/mapfiles/place_api/icons/v1/png_71/restaurant-71.png","icon_background_color":"#FF9E67","icon_mask_base_uri":"https://maps.gstatic.com/mapfiles/place_api/icons/v2/restaurant_pinlet","name":"Big Fernand","opening_hours":{"open_now":false},"photos":[{"height":1333,"html_attributions":["<a href=\"https://maps.google.com/maps/contrib/107711958246986984460\">Big Fernand</a>"],"photo_reference":"AeJbb3eJQkDg9RhXA0r1_m9Hhy-qh7yHL6W2Hfh_TwkrGPlmifNoofvB10SuJR2ABcf6Tiop3TYy5JsVXcXPpT1f8JLFbbk3kLEZyjYjJEUQHXxanfi7EmTAtW40-2hrYJgLGrZvA5GZZpHd3l3yEENtN73a4ET6nFiXTCCqnKMAsn8TmRxF","width":2000}],"place_id":"ChIJl9avTVbq9EcREJFFJKaBNXM","plus_code":{"compound_code":"QR6P+RH Lyon","global_code":"8FQ6QR6P+RH"},"price_level":2,"rating":4.4,"reference":"ChIJl9avTVbq9EcREJFFJKaBNXM","types":["meal_delivery","meal_takeaway","restaurant","food","point_of_interest","establishment"],"user_ratings_total":1348},{"business_status":"OPERATIONAL","formatted_address":"81 Cr Lafayette, 69006 Lyon","geometry":{"location":{"lat":45.7637235,"lng":4.8487816},"viewport":{"northeast":{"lat":45.76504462989273,"lng":4.850115879892722},"southwest":{"lat":45.76234497010729,"lng":4.847416220107278}}},"icon":"https://maps.gstatic.com/mapfiles/place_api/icons/v1/png_71/restaurant-71.png","icon_background_color":"#FF9E67","icon_mask_base_uri":"https://maps.gstatic.com/mapfiles/place_api/icons/v2/restaurant_pinlet","name":"Burgers & Bagels Lafayette","opening_hours":{"open_now":false},"photos":[{"height":3024,"html_attributions":["<a href=\"https://maps.google.com/maps/contrib/103736091340836365502\">nicole M</a>"],"photo_reference":"AeJbb3dq_kN2z50n-cnwWrrD24DnsZtlxr_j5zIILzKwf3x_GVR3Qw2GcQ42pMcuSWzxgEWJJKDqz29n57epoU7Bj_wuk13McyqO6kyiCQ68eRnjkvQkrzUTkTfBqME7lTXwadGB3xXG239UVT_Pg8Aw3YOOvD-J8cPoPlQ2JvChn8r3ieH-","width":4032}],"place_id":"ChIJcdFaevXq9EcRpZM1tnR0Op8","plus_code":{"compound_code":"QR7X+FG Lyon","global_code":"8FQ6QR7X+FG"},"price_level":2,"rating":4.4,"reference":"ChIJcdFaevXq9EcRpZM1tnR0Op8","types":["bakery","restaurant","food","point_of_interest","store","establishment"],"user_ratings_total":1002},{"business_status":"OPERATIONAL","formatted_address":"2 Pl. de la Gare, 69160 Tassin-la-Demi-Lune","geometry":{"location":{"lat":45.7654421,"lng":4.7794589},"viewport":{"northeast":{"lat":45.76680417989272,"lng":4.780806129892723},"southwest":{"lat":45.76410452010728,"lng":4.77810647010728}}},"icon":"https://maps.gstatic.com/mapfiles/place_api/icons/v1/png_71/restaurant-71.png","icon_background_color":"#FF9E67","icon_mask_base_uri":"https://maps.gstatic.com/mapfiles/place_api/icons/v2/restaurant_pinlet","name":"Les Burgers de Papa","opening_hours":{"open_now":false},"photos":[{"height":936,"html_attributions":["<a href=\"https://maps.google.com/maps/contrib/112750250717693462291\">A Google User</a>"],"photo_reference":"AeJbb3fhQ2NaiccwDJsZJMwvkdj0KL-kPhxKjVcUCHZ6HcuuEk4laMjfUCDm9tUiDnnY4PbkLT_XXULvqWsbKEOLjtB8D10AV3MiTfqed_bHdpwvj2IZ7XO5cUQXUliv4OhnQbizc0ax0q0DNXnVyqGn8EeDutPvSu250UboJGhPtWHohUs","width":1784}],"place_id":"ChIJZ2G5dx7t9EcRxRQfnsCJ7RU","plus_code":{"compound_code":"QQ8H+5R Tassin-la-Demi-Lune","global_code":"8FQ6QQ8H+5R"},"price_level":2,"rating":4.4,"reference":"ChIJZ2G5dx7t9EcRxRQfnsCJ7RU","types":["meal_delivery","meal_takeaway","restaurant","food","point_of_interest","establishment"],"user_ratings_total":519},{"business_status":"OPERATIONAL","formatted_address":"Niveau 3 \"Les Tables, Centre commercial de, 17 Rue Dr Bouchut, 69003 Lyon","geometry":{"location":{"lat":45.7621058,"lng":4.8557052},"viewport":{"northeast":{"lat":45.76342322989272,"lng":4.856782129892721},"southwest":{"lat":45.76072357010727,"lng":4.854082470107278}}},"icon":"https://maps.gstatic.com/mapfiles/place_api/icons/v1/png_71/restaurant-71.png","icon_background_color":"#FF9E67","icon_mask_base_uri":"https://maps.gstatic.com/mapfiles/place_api/icons/v2/restaurant_pinlet","name":"Bioburger Lyon Part Dieu","opening_hours":{"open_now":true},"photos":[{"height":6000,"html_attributions":["<a href=\"https://maps.google.com/maps/contrib/114897297193587748956\">A Google User</a>"],"photo_reference":"AeJbb3efzvdWAE_8R8oe4hyutn79CT9wt8Qxhfkt8VEsfqyto9zlVA9kZ-NgRiAb3PP8zvqhJ8SjEMjTDwOTfSpv9z-TYfZb86Dc-E8il1Ljvc3n0Np3O4PitFSS8BY0d_TADpQ4OkH4RZ132ZFk11Ev-NjnFhL-hof3_Twglj9tBjxeCNjv","width":4000}],"place_id":"ChIJc5-SmPjr9EcRE2497Xbjz-A","plus_code":{"compound_code":"QV64+R7 Lyon","global_code":"8FQ6QV64+R7"},"price_level":2,"rating":4.4,"reference":"ChIJc5-SmPjr9EcRE2497Xbjz-A","types":["restaurant","point_of_interest","food","establishment"],"user_ratings_total":222},{"business_status":"OPERATIONAL","formatted_address":"10 Rue de la République, 69001 Lyon","geometry":{"location":{"lat":45.7653675,"lng":4.8357278},"viewport":{"northeast":{"lat":45.76676732989273,"lng":4.837168679892722},"southwest":{"lat":45.76406767010729,"lng":4.834469020107278}}},"icon":"https://maps.gstatic.com/mapfiles/place_api/icons/v1/png_71/restaurant-71.png","icon_background_color":"#FF9E67","icon_mask_base_uri":"https://maps.gstatic.com/mapfiles/place_api/icons/v2/restaurant_pinlet","name":"Les Burgers de Papa","opening_hours":{"open_now":true},"photos":[{"height":1400,"html_attributions":["<a href=\"https://maps.google.com/maps/contrib/106298992017860040676\">A Google User</a>"],"photo_reference":"AeJbb3dMbRLzEHqbQ0qwR-KIFapUSj7T0v2wiQ2tF-u7DC6O8Py9MvEnMQwUoWxITcnIKnxr9o421zRGVSN2ualYwfby8SDW_Q4B69tqYgrdKNj_RV0-byjF6ht5Gv-tS_A9BfKTXhkvgdTv95WS5aiXmSLDu8ADuRAkawvCLpPsVZK5HdKy","width":1400}],"place_id":"ChIJa7PuiIzr9EcRKclT_lj329U","plus_code":{"compound_code":"QR8P+47 Lyon","global_code":"8FQ6QR8P+47"},"price_level":2,"rating":4.3,"reference":"ChIJa7PuiIzr9EcRKclT_lj329U","types":["meal_delivery","meal_takeaway","restaurant","food","point_of_interest","establishment"],"user_ratings_total":1801},{"business_status":"OPERATIONAL","formatted_address":"17 Rue Dr Bouchut, 69003 Lyon","geometry":{"location":{"lat":45.7600926,"lng":4.856105599999999},"viewport":{"northeast":{"lat":45.76116902989273,"lng":4.857536129892723},"southwest":{"lat":45.75846937010728,"lng":4.854836470107279}}},"icon":"https://maps.gstatic.com/mapfiles/place_api/icons/v1/png_71/restaurant-71.png","icon_background_color":"#FF9E67","icon_mask_base_uri":"https://maps.gstatic.com/mapfiles/place_api/icons/v2/restaurant_pinlet","name":"Les Burgers de Papa","opening_hours":{"open_now":true},"photos":[{"height":1080,"html_attributions":["<a href=\"https://maps.google.com/maps/contrib/111386017467582292192\">A Google User</a>"],"photo_reference":"AeJbb3dhqRph5bkzOr7GPo6at7Tzg3GOIYegi2ZQ9XTowCo5qzYiOw02nfMFTkKIYOdDr6fYwpYmZv9FtGLDto-hXVtNAVZHAzhAVWfPaOA_S7qDB8x_jUpuDFN8WVQAugJcTt9iBQq9nvLEAEj4DZ7aQ8gMEyElsRE1q_9q29f4rIhPlUl2","width":1920}],"place_id":"ChIJL7fu-X7r9EcRNqSJvP1FHH8","plus_code":{"compound_code":"QV64+2C Lyon","global_code":"8FQ6QV64+2C"},"price_level":2,"rating":4.3,"reference":"ChIJL7fu-X7r9EcRNqSJvP1FHH8","types":["meal_delivery","meal_takeaway","restaurant","food","point_of_interest","establishment"],"user_ratings_total":906},{"business_status":"OPERATIONAL","formatted_address":"59 Rue Mercière, 69002 Lyon","geometry":{"location":{"lat":45.761914,"lng":4.833053},"viewport":{"northeast":{"lat":45.76323402989272,"lng":4.834526379892722},"southwest":{"lat":45.76053437010728,"lng":4.831826720107278}}},"icon":"https://maps.gstatic.com/mapfiles/place_api/icons/v1/png_71/restaurant-71.png","icon_background_color":"#FF9E67","icon_mask_base_uri":"https://maps.gstatic.com/mapfiles/place_api/icons/v2/restaurant_pinlet","name":"PNY PRESQU'ÎLE","opening_hours":{"open_now":false},"photos":[{"height":800,"html_attributions":["<a href=\"https://maps.google.com/maps/contrib/105366046082317781884\">A Google User</a>"],"photo_reference":"AeJbb3djNDJYKJlyVjYnLmp_lFlVAKL2jTBObveKHpQ95V4qFk3nWfFazWK-TvmpDt_iDbJ8-fgatMYJPpV2-1VFf-rAkODVZgOa90qeRRk9h5a8PZs_fO5In6ViT3KbaobTK0DzCPOLxtGsDz5O0Aw2xyoj_I8I0kp9u3Qi8XFbiYtVHFB_","width":1200}],"place_id":"ChIJYRpKW2br9EcRjR9BgkzrM9c","plus_code":{"compound_code":"QR6M+Q6 Lyon","global_code":"8FQ6QR6M+Q6"},"rating":4.3,"reference":"ChIJYRpKW2br9EcRjR9BgkzrM9c","types":["restaurant","point_of_interest","food","establishment"],"user_ratings_total":359},{"business_status":"OPERATIONAL","formatted_address":"28 Rue du Sergent Michel Berthet, 69009 Lyon","geometry":{"location":{"lat":45.7713512,"lng":4.8052901},"viewport":{"northeast":{"lat":45.77269017989272,"lng":4.806741179892723},"southwest":{"lat":45.76999052010728,"lng":4.804041520107279}}},"icon":"https://maps.gstatic.com/mapfiles/place_api/icons/v1/png_71/restaurant-71.png","icon_background_color":"#FF9E67","icon_mask_base_uri":"https://maps.gstatic.com/mapfiles/place_api/icons/v2/restaurant_pinlet","name":"Big Fernand","opening_hours":{"open_now":true},"photos":[{"height":1333,"html_attributions":["<a href=\"https://maps.google.com/maps/contrib/102505757122206013969\">A Google User</a>"],"photo_reference":"AeJbb3f4ZawmbduQMYkMhosj94cnKMW7nkMEQ_YTxW0Ks6ZHzlG8C2L4bWeq6oI069cd9HhDwjuQHJSWktSyZ2mkFju5R4vnRcZvuIGpBrM1Sa1FiyGll9Iux9lKDsiHaTXwKZBEtfXhzNoXCSRHLnmbJMtEq0xdWW1VJQ4rQRG-IVtvg31Q","width":2000}],"place_id":"ChIJz5UCMWDr9EcRbYcL5KG2vPs","plus_code":{"compound_code":"QRC4+G4 Lyon","global_code":"8FQ6QRC4+G4"},"price_level":2,"rating":4.3,"reference":"ChIJz5UCMWDr9EcRbYcL5KG2vPs","types":["meal_delivery","meal_takeaway","restaurant","food","point_of_interest","establishment"],"user_ratings_total":284},{"business_status":"OPERATIONAL","formatted_address":"315 Rue Garibaldi, 69007 Lyon","geometry":{"location":{"lat":45.7486119,"lng":4.8531971},"viewport":{"northeast":{"lat":45.75000812989273,"lng":4.854465829892723},"southwest":{"lat":45.74730847010728,"lng":4.851766170107279}}},"icon":"https://maps.gstatic.com/mapfiles/place_api/icons/v1/png_71/restaurant-71.png","icon_background_color":"#FF9E67","icon_mask_base_uri":"https://maps.gstatic.com/mapfiles/place_api/icons/v2/restaurant_pinlet","name":"FOODIES","opening_hours":{"open_now":false},"photos":[{"height":3840,"html_attributions":["<a href=\"https://maps.google.com/maps/contrib/111777566883302167879\">A Google User</a>"],"photo_reference":"AeJbb3cN0L75_wLeyH0Ds-jDxL2KgZmp3u3wxdUzaU9-BPtTffFK01qL33xMWJ6OsrumEKaKE1TnoFVPfiJfFhDQBlGUhVyx1f5SwX6qu02m7lw5IolJayGng7PFMguoh6toCRPueASzZZUHpeifOef3D8-OOgtSI956VhoFyhiMcti5n9zv","width":5760}],"place_id":"ChIJrWUOe5Hr9EcR1TDXMVLigbc","plus_code":{"compound_code":"PVX3+C7 Lyon","global_code":"8FQ6PVX3+C7"},"rating":4.3,"reference":"ChIJrWUOe5Hr9EcR1TDXMVLigbc","types":["restaurant","point_of_interest","food","establishment"],"user_ratings_total":150},{"business_status":"OPERATIONAL","formatted_address":"53 Av. Jean Jaurès, 69200 Vénissieux","geometry":{"location":{"lat":45.7003435,"lng":4.8825765},"viewport":{"northeast":{"lat":45.70167122989272,"lng":4.883890079892721},"southwest":{"lat":45.69897157010728,"lng":4.881190420107277}}},"icon":"https://maps.gstatic.com/mapfiles/place_api/icons/v1/png_71/restaurant-71.png","icon_background_color":"#FF9E67","icon_mask_base_uri":"https://maps.gstatic.com/mapfiles/place_api/icons/v2/restaurant_pinlet","name":"Best Burger","opening_hours":{"open_now":true},"photos":[{"height":903,"html_attributions":["<a href=\"https://maps.google.com/maps/contrib/114972680188172568125\">A Google User</a>"],"photo_reference":"AeJbb3fnyKdz7ewFpweG1qqgxJLBf8nsZeGr_h0Gy5Ct8JMj57q4DxuDHjcGF8vhsA2ZOLMDo7ZPo9cC1OuYjxGimg-zBVI0c2fsGR3xSZ0umEtiPHgtiW5in61zuPbt5ZZdmZVO293qFxawlOfwU3GYuHDL3F_h1nxz8saAxvAWk4Srmnai","width":1600}],"place_id":"ChIJf1O1A2rC9EcRpnMUwQ5q6H4","plus_code":{"compound_code":"PV2M+42 Vénissieux","global_code":"8FQ6PV2M+42"},"rating":4.3,"reference":"ChIJf1O1A2rC9EcRpnMUwQ5q6H4","types":["restaurant","point_of_interest","food","establishment"],"user_ratings_total":106},{"business_status":"OPERATIONAL","formatted_address":"252 Cr Lafayette, 69003 Lyon","geometry":{"location":{"lat":45.7635414,"lng":4.864714},"viewport":{"northeast":{"lat":45.76496137989272,"lng":4.866026079892722},"southwest":{"lat":45.76226172010728,"lng":4.863326420107278}}},"icon":"https://maps.gstatic.com/mapfiles/place_api/icons/v1/png_71/restaurant-71.png","icon_background_color":"#FF9E67","icon_mask_base_uri":"https://maps.gstatic.com/mapfiles/place_api/icons/v2/restaurant_pinlet","name":"Ghost Burger Cours Lafayette","opening_hours":{"open_now":true},"photos":[{"height":3500,"html_attributions":["<a href=\"https://maps.google.com/maps/contrib/106278195326008144762\">A Google User</a>"],"photo_reference":"AeJbb3ewog4-be5h0gKcVR0DsNgQy7EMCSh2KmuMJKsbBuVwMG8YH68V2sYJsOdlhZ6c-ui_peNIDg__j9G2hQQBcziCBvNiqNvJe3Xxb0uJoZ4_1sCdq_y3m6Tj-9XdbUKTolllDR3rdzHv8x1M1a03zPPcdB2E_CRyRsY5P8bIcFrT3xH4","width":3500}],"place_id":"ChIJEWWwXHvr9EcR1Q3onE-XlAk","plus_code":{"compound_code":"QV77+CV Lyon","global_code":"8FQ6QV77+CV"},"rating":4.3,"reference":"ChIJEWWwXHvr9EcR1Q3onE-XlAk","types":["restaurant","food","point_of_interest","establishment"],"user_ratings_total":70},{"business_status":"OPERATIONAL","formatted_address":"119 Av. des Frères Lumière, 69008 Lyon","geometry":{"location":{"lat":45.74371259999999,"lng":4.872603499999999},"viewport":{"northeast":{"lat":45.74504672989272,"lng":4.873962279892722},"southwest":{"lat":45.74234707010728,"lng":4.871262620107278}}},"icon":"https://maps.gstatic.com/mapfiles/place_api/icons/v1/png_71/restaurant-71.png","icon_background_color":"#FF9E67","icon_mask_base_uri":"https://maps.gstatic.com/mapfiles/place_api/icons/v2/restaurant_pinlet","name":"Les Burgers De Papa","opening_hours":{"open_now":false},"photos":[{"height":1080,"html_attributions":["<a href=\"https://maps.google.com/maps/contrib/100390968061398703506\">Les Burgers De Papa</a>"],"photo_reference":"AeJbb3dQ4jOHfLZzKMTcM5cGP0JKLUGARtFvhP9BCufoEuIzD644tWkNw5jFuWpJ-98FbnF9RFMoCKQuuAOTz11P6f32rEnmUFmvoyj8IgYDh4huXTGaEo2BbEcoos16gfdJrA8I1TwzFkQOHcW4ua4yin86DIFGmmiKlSgdWLpf85hDHZ8-","width":1920}],"place_id":"ChIJPfykOt7B9EcRMQtqgGi5ews","plus_code":{"compound_code":"PVVF+G3 Lyon","global_code":"8FQ6PVVF+G3"},"price_level":2,"rating":4.2,"reference":"ChIJPfykOt7B9EcRMQtqgGi5ews","types":["meal_delivery","meal_takeaway","restaurant","point_of_interest","food","establishment"],"user_ratings_total":1692},{"business_status":"OPERATIONAL","formatted_address":"Centre commercial Saint Genis, 2 Av. Charles de Gaulle, 69230 Saint-Genis-Laval","geometry":{"location":{"lat":45.6805828,"lng":4.7925176},"viewport":{"northeast":{"lat":45.68168647989272,"lng":4.794285629892721},"southwest":{"lat":45.67898682010728,"lng":4.791585970107278}}},"icon":"https://maps.gstatic.com/mapfiles/place_api/icons/v1/png_71/restaurant-71.png","icon_background_color":"#FF9E67","icon_mask_base_uri":"https://maps.gstatic.com/mapfiles/place_api/icons/v2/restaurant_pinlet","name":"Les Burgers de Papa","opening_hours":{"open_now":true},"photos":[{"height":1400,"html_attributions":["<a href=\"https://maps.google.com/maps/contrib/106161731492267822824\">A Google User</a>"],"photo_reference":"AeJbb3cCrmtqWym0gl763PfXd8sX2iDcluTLKyBzJvfkukxbBNb3Phze78K0v9S8CtXgtsKE7qAsL-Jb0wGN5Sqcn2eMRCKNFqo3PF9I5cUZqQXSJjAC4S_4EjSNxyODvIhefX884WqtvF5dYGMudkr8M1l0sfGDbTZWkbhFtYapQdidOXj2","width":1400}],"place_id":"ChIJXfn89V3p9EcRoIb_iETMfLE","plus_code":{"compound_code":"MQJV+62 St-Genis-Laval","global_code":"8FQ6MQJV+62"},"price_level":2,"rating":4.2,"reference":"ChIJXfn89V3p9EcRoIb_iETMfLE","types":["meal_delivery","meal_takeaway","restaurant","point_of_interest","food","establishment"],"user_ratings_total":1316},{"business_status":"OPERATIONAL","formatted_address":"19 Rue Childebert, 69002 Lyon","geometry":{"location":{"lat":45.7602816,"lng":4.8363812},"viewport":{"northeast":{"lat":45.76159332989273,"lng":4.837729529892721},"southwest":{"lat":45.75889367010728,"lng":4.835029870107277}}},"icon":"https://maps.gstatic.com/mapfiles/place_api/icons/v1/png_71/restaurant-71.png","icon_background_color":"#FF9E67","icon_mask_base_uri":"https://maps.gstatic.com/mapfiles/place_api/icons/v2/restaurant_pinlet","name":"Le Zinc à burger - République","opening_hours":{"open_now":false},"photos":[{"height":999,"html_attributions":["<a href=\"https://maps.google.com/maps/contrib/105324306180385146907\">Le zinc à burger</a>"],"photo_reference":"AeJbb3depwdsdPPEb7Wa-7dZ58K8pT09QQB2pabfu7OlHrNddBeRb7SL48wUO0wOgoVWNyDBh8Rj93J1iVYbSp-UkeXelwpQ6ptcRTUJ1HArF7lGE2lbQHGom67LELEBSZPqbQl38iBLqtP_wZ-30FSAfBnoz-MyfgQQwrOAKZqF4TxFPjV-","width":1000}],"place_id":"ChIJk0rb51bq9EcRVv8-aTHlmR4","plus_code":{"compound_code":"QR6P+4H Lyon","global_code":"8FQ6QR6P+4H"},"price_level":2,"rating":4.2,"reference":"ChIJk0rb51bq9EcRVv8-aTHlmR4","types":["meal_takeaway","restaurant","food","point_of_interest","establishment"],"user_ratings_total":716},{"business_status":"OPERATIONAL","formatted_address":"14 Rue Tupin, 69002 Lyon","geometry":{"location":{"lat":45.76277779999999,"lng":4.8336111},"viewport":{"northeast":{"lat":45.76417867989272,"lng":4.834957279892722},"southwest":{"lat":45.76147902010727,"lng":4.832257620107278}}},"icon":"https://maps.gstatic.com/mapfiles/place_api/icons/v1/png_71/restaurant-71.png","icon_background_color":"#FF9E67","icon_mask_base_uri":"https://maps.gstatic.com/mapfiles/place_api/icons/v2/restaurant_pinlet","name":"Guy & Sons Cordeliers","opening_hours":{"open_now":false},"photos":[{"height":3024,"html_attributions":["<a href=\"https://maps.google.com/maps/contrib/111291887604076227853\">Guy &amp; Sons</a>"],"photo_reference":"AeJbb3cheOkbLQAtdKSACT8k7ubvZUUTiWKwgVGifDru6BDYYB3gAvFjk-jcHQNE9ONjG43FfuJ1eA3H7Bp0si3JaEQmJLw3TiGAjwBkVXTiVSDzq1eMdxRnOp20g2Zq7BcEbs84YQGFaJXMqJo1wdOQlCOI9jvAXUjqk-Q0sBP48JWa-wCf","width":3024}],"place_id":"ChIJW0yB6VXq9EcRmY-60RFP9DU","plus_code":{"compound_code":"QR7M+4C Lyon","global_code":"8FQ6QR7M+4C"},"price_level":2,"rating":4.2,"reference":"ChIJW0yB6VXq9EcRmY-60RFP9DU","types":["meal_delivery","meal_takeaway","restaurant","food","point_of_interest","establishment"],"user_ratings_total":539},{"business_status":"OPERATIONAL","formatted_address":"86 Rue Saint-Georges, 69005 Lyon","geometry":{"location":{"lat":45.7567296,"lng":4.8243179},"viewport":{"northeast":{"lat":45.75806617989272,"lng":4.825715229892722},"southwest":{"lat":45.75536652010728,"lng":4.823015570107278}}},"icon":"https://maps.gstatic.com/mapfiles/place_api/icons/v1/png_71/restaurant-71.png","icon_background_color":"#FF9E67","icon_mask_base_uri":"https://maps.gstatic.com/mapfiles/place_api/icons/v2/restaurant_pinlet","name":"Les Tontons Burgers","opening_hours":{"open_now":false},"photos":[{"height":1960,"html_attributions":["<a href=\"https://maps.google.com/maps/contrib/104538990120994003555\">mehdi - samy Chafaa</a>"],"photo_reference":"AeJbb3eSIiKOAzfjbTxcZVOilmNgoNqHLyikcywBFNfNYRmse-6qrKTr1lLFRpwP9qpmvonyyGZ047NjtqFn3lYB2cdvtQhgX0PrzBg8XxFp_b04gZS_wxFMAGY9lRCSC-TzB5-WM1XV2ElnuNwRNXD4M4tLOoIRsh20Zh2eXi7Scl8b5NkW","width":4032}],"place_id":"ChIJ0VWtya3r9EcRRSYjTjIX0mQ","plus_code":{"compound_code":"QR4F+MP Lyon","global_code":"8FQ6QR4F+MP"},"price_level":1,"rating":4.2,"reference":"ChIJ0VWtya3r9EcRRSYjTjIX0mQ","types":["restaurant","food","point_of_interest","establishment"],"user_ratings_total":433},{"business_status":"OPERATIONAL","formatted_address":"79 Av. Berthelot, 69007 Lyon","geometry":{"location":{"lat":45.744572,"lng":4.8443782},"viewport":{"northeast":{"lat":45.74584642989272,"lng":4.845680679892721},"southwest":{"lat":45.74314677010728,"lng":4.842981020107278}}},"icon":"https://maps.gstatic.com/mapfiles/place_api/icons/v1/png_71/restaurant-71.png","icon_background_color":"#FF9E67","icon_mask_base_uri":"https://maps.gstatic.com/mapfiles/place_api/icons/v2/restaurant_pinlet","name":"Night Burger","opening_hours":{"open_now":false},"photos":[{"height":335,"html_attributions":["<a href=\"https://maps.google.com/maps/contrib/112845576759556799790\">Audrey Clain</a>"],"photo_reference":"AeJbb3fiWNhjq3XjGMdynPXkTV1y2zaB92GLVpNqZC2fUzQo-UUa-x88JOjQ7UkVulROil-aKYTOX_7iRuXtjDX0szN0RgkRA6j0xLQJu-kKodRFnZT38JCHO52VBEE0MZT7prDs6BVKA9KaixziBYeq26Ys_Dq6OrjI9ZeEmQkvbJd77Q2O","width":586}],"place_id":"ChIJvxvJgkDq9EcRjE1XKgUeTxM","plus_code":{"compound_code":"PRVV+RQ Lyon","global_code":"8FQ6PRVV+RQ"},"rating":4.2,"reference":"ChIJvxvJgkDq9EcRjE1XKgUeTxM","types":["restaurant","point_of_interest","food","establishment"],"user_ratings_total":171},{"business_status":"OPERATIONAL","formatted_address":"162 Cr Tolstoï, 69100 Villeurbanne","geometry":{"location":{"lat":45.7602047,"lng":4.8872787},"viewport":{"northeast":{"lat":45.76158607989272,"lng":4.888645079892721},"southwest":{"lat":45.75888642010728,"lng":4.885945420107277}}},"icon":"https://maps.gstatic.com/mapfiles/place_api/icons/v1/png_71/restaurant-71.png","icon_background_color":"#FF9E67","icon_mask_base_uri":"https://maps.gstatic.com/mapfiles/place_api/icons/v2/restaurant_pinlet","name":"KRUSTY CLASSIC BURGER","opening_hours":{"open_now":false},"photos":[{"height":1370,"html_attributions":["<a href=\"https://maps.google.com/maps/contrib/106121717343879431981\">A Google User</a>"],"photo_reference":"AeJbb3cQOP8wGMZMHq4nzu1krZ-OeDgRBNZho27XM6i37CnQOt6SfU4FYA2tK9eaRhQ4_R4o2FxuA0YPb-V-T759T3r8AbK9mAsLjMA9I3PWwgH0d-mRGCQu6abzbIYj0QfHcuYK6ZxYblf8Q6avYdczkx_rH9pQktvYBtDe3HFmdu0SyLxl","width":2436}],"place_id":"ChIJzznsmczB9EcR-j8PK5iyNtg","plus_code":{"compound_code":"QV6P+3W Villeurbanne","global_code":"8FQ6QV6P+3W"},"rating":4.2,"reference":"ChIJzznsmczB9EcR-j8PK5iyNtg","types":["restaurant","point_of_interest","food","establishment"],"user_ratings_total":152},{"business_status":"OPERATIONAL","formatted_address":"Mail Claude Bernard, 69100 Villeurbanne","geometry":{"location":{"lat":45.7817196,"lng":4.8694033},"viewport":{"northeast":{"lat":45.78296287989272,"lng":4.871234179892721},"southwest":{"lat":45.78026322010728,"lng":4.868534520107278}}},"icon":"https://maps.gstatic.com/mapfiles/place_api/icons/v1/png_71/restaurant-71.png","icon_background_color":"#FF9E67","icon_mask_base_uri":"https://maps.gstatic.com/mapfiles/place_api/icons/v2/restaurant_pinlet","name":"Le Duke Burger (Foodtruck)","opening_hours":{"open_now":false},"photos":[{"height":424,"html_attributions":["<a href=\"https://maps.google.com/maps/contrib/115348752812253357605\">A Google User</a>"],"photo_reference":"AeJbb3dpN15pONLtIG6grjB6fZsbizbqqlzQ9r018ACUkpothz2NaR7i7Z9ce49ky2fWQJshBmlvLDXkGlWN5vEgzoCjUv5pBFVJtA5sXcO51pEWsmoohXfrvKgyPNM-K71057754aikNCl9SO30PrGOBLIyulCFTfydLt9OaGfd3B-ncJE6","width":720}],"place_id":"ChIJyVbGzKnr9EcRDT_LpxE793E","plus_code":{"compound_code":"QVJ9+MQ Villeurbanne","global_code":"8FQ6QVJ9+MQ"},"rating":4.2,"reference":"ChIJyVbGzKnr9EcRDT_LpxE793E","types":["restaurant","food","point_of_interest","establishment"],"user_ratings_total":37},{"business_status":"OPERATIONAL","formatted_address":"112 Cr Charlemagne, 69002 Lyon","geometry":{"location":{"lat":45.7413275,"lng":4.8174157},"viewport":{"northeast":{"lat":45.74266187989272,"lng":4.818802679892721},"southwest":{"lat":45.73996222010727,"lng":4.816103020107278}}},"icon":"https://maps.gstatic.com/mapfiles/place_api/icons/v1/png_71/restaurant-71.png","icon_background_color":"#FF9E67","icon_mask_base_uri":"https://maps.gstatic.com/mapfiles/place_api/icons/v2/restaurant_pinlet","name":"Daddy's Burgers","opening_hours":{"open_now":true},"photos":[{"height":1080,"html_attributions":["<a href=\"https://maps.google.com/maps/contrib/101280566833302369058\">A Google User</a>"],"photo_reference":"AeJbb3eyuI0x0_pdkImSwqchdiyo0Th-g-chInPxJJtsE8SL_mE-Pn65yHR5ncMgMTR_H1Ro6P7eAIpQOhrdUCm-FJsk0PL5F-toe__kZGuHLCW6HUws-DpnuS3NJ3XqnRyBtbrq1WRopkhqJUq5ocRclDRrL4MPEuY4KFAq5d6jt-9lVUM","width":1080}],"place_id":"ChIJf4np1QXr9EcRztr3jtWr8wY","plus_code":{"compound_code":"PRR8+GX Lyon","global_code":"8FQ6PRR8+GX"},"price_level":2,"rating":4.1,"reference":"ChIJf4np1QXr9EcRztr3jtWr8wY","types":["meal_delivery","meal_takeaway","restaurant","food","point_of_interest","establishment"],"user_ratings_total":2316},{"business_status":"OPERATIONAL","formatted_address":"42 bis Rue Henri Maréchal, 69800 Saint-Priest","geometry":{"location":{"lat":45.6933934,"lng":4.9410804},"viewport":{"northeast":{"lat":45.69492427989272,"lng":4.942440629892722},"southwest":{"lat":45.69222462010728,"lng":4.939740970107279}}},"icon":"https://maps.gstatic.com/mapfiles/place_api/icons/v1/png_71/restaurant-71.png","icon_background_color":"#FF9E67","icon_mask_base_uri":"https://maps.gstatic.com/mapfiles/place_api/icons/v2/restaurant_pinlet","name":"Burger's St Priest","opening_hours":{"open_now":true},"photos":[{"height":1819,"html_attributions":["<a href=\"https://maps.google.com/maps/contrib/106370075494552680848\">A Google User</a>"],"photo_reference":"AeJbb3fLKhk0eLP0TSlTXc1h_vkJvp4PZWbe826fECnnuWNfDk22gESTt6m3YyXdkNQu3o9SdQzJSVOlNkuU0-VCULFQ1lbUDcg4_DyPXwRuXUOVdj-ZeGRAs42al9zFET84JowR1c4tDf3iwykLUvndFLd3SLJEbTlVyjLizBo3GHuTcM_4","width":1228}],"place_id":"ChIJdQqOezzD9EcRcWJDhQ3PzGM","plus_code":{"compound_code":"MWVR+9C Saint-Priest","global_code":"8FQ6MWVR+9C"},"price_level":2,"rating":4.1,"reference":"ChIJdQqOezzD9EcRcWJDhQ3PzGM","types":["restaurant","food","point_of_interest","establishment"],"user_ratings_total":246},{"business_status":"OPERATIONAL","formatted_address":"107 Rue Jean Sarrazin, 69008 Lyon","geometry":{"location":{"lat":45.729229,"lng":4.8609284},"viewport":{"northeast":{"lat":45.73056787989272,"lng":4.862225679892722},"southwest":{"lat":45.72786822010728,"lng":4.859526020107278}}},"icon":"https://maps.gstatic.com/mapfiles/place_api/icons/v1/png_71/restaurant-71.png","icon_background_color":"#FF9E67","icon_mask_base_uri":"https://maps.gstatic.com/mapfiles/place_api/icons/v2/restaurant_pinlet","name":"Big & Burger","opening_hours":{"open_now":true},"photos":[{"height":2988,"html_attributions":["<a href=\"https://maps.google.com/maps/contrib/102468803747010986005\">mohamed-amir mandhouj</a>"],"photo_reference":"AeJbb3dSb9bAoYHBj_AOefcwnXgmmRPgP3Ao6YqA9Tslk8uYySm6BtS8j_xVSWlYiA9RMcjft1mvGZkZ9wTyc0gqXPDUDnyTdamquWn8VXC6bvuEO4T5VuN8Jngw-PO-tB10aLrUFvKfb5KHx92lzdHgvudu9Uepv7SILcwYlhuE_eLOOIcZ","width":5312}],"place_id":"ChIJX1Nt_APq9EcR3QtsellLkpg","plus_code":{"compound_code":"PVH6+M9 Lyon","global_code":"8FQ6PVH6+M9"},"rating":4.1,"reference":"ChIJX1Nt_APq9EcR3QtsellLkpg","types":["restaurant","point_of_interest","food","establishment"],"user_ratings_total":242},{"business_status":"OPERATIONAL","formatted_address":"19 Av. Franklin Roosevelt, 69150 Décines-Charpieu","geometry":{"location":{"lat":45.7658362,"lng":4.9374353},"viewport":{"northeast":{"lat":45.76721007989272,"lng":4.938780629892722},"southwest":{"lat":45.76451042010727,"lng":4.936080970107279}}},"icon":"https://maps.gstatic.com/mapfiles/place_api/icons/v1/png_71/restaurant-71.png","icon_background_color":"#FF9E67","icon_mask_base_uri":"https://maps.gstatic.com/mapfiles/place_api/icons/v2/restaurant_pinlet","name":"Burger's Décines","opening_hours":{"open_now":true},"photos":[{"height":500,"html_attributions":["<a href=\"https://maps.google.com/maps/contrib/110902389500641943817\">Burger&#39;s</a>"],"photo_reference":"AeJbb3chhEmU66sAa31oyFjYCN6epagDgzttz-6i_oZnuFmdVIrGrFdorRb1KWlMKxWnwfCcT_LcAYDes_xBYg8UOnqZYSun7XDcxksnsdrKkxUP_xCfxnBHsSrkMV1NKrAbFb4wioB0Vcr3fWkmznhOINd5hCJq5TQjok5Gosc09dX46ZLP","width":500}],"place_id":"ChIJT0q7j93A9EcREq8-Xi8qwUc","plus_code":{"compound_code":"QW8P+9X Décines-Charpieu","global_code":"8FQ6QW8P+9X"},"rating":4,"reference":"ChIJT0q7j93A9EcREq8-Xi8qwUc","types":["restaurant","food","point_of_interest","establishment"],"user_ratings_total":2183},{"business_status":"OPERATIONAL","formatted_address":"Restaurant Frite Alors! - Terreau, 20 Rue Terme, 69001 Lyon","geometry":{"location":{"lat":45.76788579999999,"lng":4.831942199999999},"viewport":{"northeast":{"lat":45.76929567989271,"lng":4.833328329892722},"southwest":{"lat":45.76659602010727,"lng":4.830628670107278}}},"icon":"https://maps.gstatic.com/mapfiles/place_api/icons/v1/png_71/restaurant-71.png","icon_background_color":"#FF9E67","icon_mask_base_uri":"https://maps.gstatic.com/mapfiles/place_api/icons/v2/restaurant_pinlet","name":"FRITE ALORS ! TERREAUX - Poutines québécoises - Frites belges - Burgers","opening_hours":{"open_now":false},"photos":[{"height":2304,"html_attributions":["<a href=\"https://maps.google.com/maps/contrib/111962866636988370106\">Eric Delforge</a>"],"photo_reference":"AeJbb3d77aOQTk9pWoWcFm7EELkCwZCbZ1edF5ZHv18GyAcncXSxZIznsw_85T2fmbXNrnA996hsWjAfxI3-R5xigGIMX47TzvVq1ek9cjMwEV6jGt6zc_msQGwFqCRMFe2XFAGZhqUx5cHr5DTqXuw2EeOS3DXy1MLqFAvwFl2QIaBexxPZ","width":4608}],"place_id":"ChIJTQHZaP7q9EcRp4qR1l5zdrk","plus_code":{"compound_code":"QR9J+5Q Lyon","global_code":"8FQ6QR9J+5Q"},"price_level":2,"rating":4,"reference":"ChIJTQHZaP7q9EcRp4qR1l5zdrk","types":["restaurant","food","point_of_interest","establishment"],"user_ratings_total":2127},{"business_status":"OPERATIONAL","formatted_address":"172 Cr Lafayette, 69003 Lyon","geometry":{"location":{"lat":45.7635746,"lng":4.8569619},"viewport":{"northeast":{"lat":45.76492422989272,"lng":4.858288379892723},"southwest":{"lat":45.76222457010728,"lng":4.855588720107279}}},"icon":"https://maps.gstatic.com/mapfiles/place_api/icons/v1/png_71/restaurant-71.png","icon_background_color":"#FF9E67","icon_mask_base_uri":"https://maps.gstatic.com/mapfiles/place_api/icons/v2/restaurant_pinlet","name":"Big Fernand","opening_hours":{"open_now":false},"photos":[{"height":1333,"html_attributions":["<a href=\"https://maps.google.com/maps/contrib/116268829260891854835\">A Google User</a>"],"photo_reference":"AeJbb3dJmYP8BTvUB7ud1ffacD0nm2stpO_tXN8LttGRzc6-C-a27ZQsvXBItcQO4y9hSQa3xRgERo-CWTBdoIXAMVQgpK_Yw3y9s4cMV_1Wz-ALZGqe9I3tLt4K5sS8_iDDbEBsxKwvJmMYU-hmR_FJHTTaccxeZz-fPWQU4r8MJseQJPyO","width":2000}],"place_id":"ChIJAQBU5Ynq9EcRQmkWkB3XBRI","plus_code":{"compound_code":"QV74+CQ Lyon","global_code":"8FQ6QV74+CQ"},"price_level":2,"rating":4,"reference":"ChIJAQBU5Ynq9EcRQmkWkB3XBRI","types":["meal_delivery","meal_takeaway","restaurant","food","point_of_interest","establishment"],"user_ratings_total":789},{"business_status":"OPERATIONAL","formatted_address":"27b Av. Jean Jaurès, 69200 Vénissieux","geometry":{"location":{"lat":45.702141,"lng":4.8810281},"viewport":{"northeast":{"lat":45.70346147989272,"lng":4.882303179892722},"southwest":{"lat":45.70076182010728,"lng":4.879603520107278}}},"icon":"https://maps.gstatic.com/mapfiles/place_api/icons/v1/png_71/restaurant-71.png","icon_background_color":"#FF9E67","icon_mask_base_uri":"https://maps.gstatic.com/mapfiles/place_api/icons/v2/restaurant_pinlet","name":"KRUSTY BURGERS 🍔","opening_hours":{"open_now":false},"photos":[{"height":2080,"html_attributions":["<a href=\"https://maps.google.com/maps/contrib/101692274610097659563\">A Google User</a>"],"photo_reference":"AeJbb3epdtOFNyijTEdnb9hm2PKsFPYp2uI22q22d8vUDXcbT3MBfnvWOSqLY4WU1Zh2ELUTbUI2WW3_SPykI3l2hNbEkUvSrKXyG1ZjDRzBM-rLvIj7NT86YlIxWWmCNjfj2hfL3nHA95KoNEpeBt0Y1-ji5Jl1gLAH0rpCf05-62mRrK07","width":1102}],"place_id":"ChIJj2qboIPD9EcRum60OC40GvU","plus_code":{"compound_code":"PV2J+VC Vénissieux","global_code":"8FQ6PV2J+VC"},"rating":4,"reference":"ChIJj2qboIPD9EcRum60OC40GvU","types":["restaurant","point_of_interest","food","establishment"],"user_ratings_total":159},{"business_status":"OPERATIONAL","formatted_address":"535 N6, 69760 Limonest","geometry":{"location":{"lat":45.8105324,"lng":4.7776662},"viewport":{"northeast":{"lat":45.81190192989272,"lng":4.779091829892722},"southwest":{"lat":45.80920227010728,"lng":4.776392170107278}}},"icon":"https://maps.gstatic.com/mapfiles/place_api/icons/v1/png_71/restaurant-71.png","icon_background_color":"#FF9E67","icon_mask_base_uri":"https://maps.gstatic.com/mapfiles/place_api/icons/v2/restaurant_pinlet","name":"kry's burgers","place_id":"ChIJyb5wLkmT9EcR1YtoV0H0C5Y","plus_code":{"compound_code":"RQ6H+63 Limonest","global_code":"8FQ6RQ6H+63"},"rating":4,"reference":"ChIJyb5wLkmT9EcR1YtoV0H0C5Y","types":["restaurant","food","point_of_interest","establishment"],"user_ratings_total":4},{"business_status":"OPERATIONAL","formatted_address":"63 Rue de la République, 69002 Lyon","geometry":{"location":{"lat":45.7597141,"lng":4.8355557},"viewport":{"northeast":{"lat":45.76087062989272,"lng":4.836624879892722},"southwest":{"lat":45.75817097010728,"lng":4.833925220107278}}},"icon":"https://maps.gstatic.com/mapfiles/place_api/icons/v1/png_71/restaurant-71.png","icon_background_color":"#FF9E67","icon_mask_base_uri":"https://maps.gstatic.com/mapfiles/place_api/icons/v2/restaurant_pinlet","name":"Five Guys Lyon République","opening_hours":{"open_now":true},"photos":[{"height":606,"html_attributions":["<a href=\"https://maps.google.com/maps/contrib/105580942481466388087\">A Google User</a>"],"photo_reference":"AeJbb3cyLM6-LGiObvtUT-Cad3D-1BRZJfPbaAQ3sH9BJUjSy38b3YnWJqWqnMXWbOpfd3f19_qCboz0-t9X74ZTbC-3zJLEmZordEp4paeedSU4lEsZqxBIc5-YUb5D3PCSOYzWRHXLrpetAO-QteN7z-CxiAe-wS-J6tzmTzhrsI9HwUJ-","width":1079}],"place_id":"ChIJOz9peg7r9EcR7vjqhlau7AA","plus_code":{"compound_code":"QR5P+V6 Lyon","global_code":"8FQ6QR5P+V6"},"price_level":2,"rating":3.9,"reference":"ChIJOz9peg7r9EcR7vjqhlau7AA","types":["meal_takeaway","restaurant","food","point_of_interest","establishment"],"user_ratings_total":1008},{"business_status":"OPERATIONAL","formatted_address":"27 Av. Jean Mermoz, 69008 Lyon","geometry":{"location":{"lat":45.7354699,"lng":4.872838799999999},"viewport":{"northeast":{"lat":45.73676147989273,"lng":4.874105529892722},"southwest":{"lat":45.73406182010729,"lng":4.871405870107278}}},"icon":"https://maps.gstatic.com/mapfiles/place_api/icons/v1/png_71/restaurant-71.png","icon_background_color":"#FF9E67","icon_mask_base_uri":"https://maps.gstatic.com/mapfiles/place_api/icons/v2/restaurant_pinlet","name":"Burger's Lyon 8","opening_hours":{"open_now":true},"photos":[{"height":2560,"html_attributions":["<a href=\"https://maps.google.com/maps/contrib/116287789479366766856\">Inès Tema</a>"],"photo_reference":"AeJbb3fxqlYpLthIVK8ElRtZppecfpKiuJXUSJMEs-XpZ98XxKayzDYPQD68ccPB7Lqs_4GzHI0vvQkberWt3F7K316ouHUsLVu-w72bw3AowAwjCWG6ytcTeGRrB-JL38eIDkNDbN4KBkYTnBJjj2rcw7d1TBDPFkUlH3WsTM9XJlWnhBAb","width":1440}],"place_id":"ChIJ21z7YuPB9EcR_bGoItUjTLk","plus_code":{"compound_code":"PVPF+54 Lyon","global_code":"8FQ6PVPF+54"},"price_level":1,"rating":3.9,"reference":"ChIJ21z7YuPB9EcR_bGoItUjTLk","types":["restaurant","food","point_of_interest","establishment"],"user_ratings_total":804},{"business_status":"OPERATIONAL","formatted_address":"1 Rue Claude Violet, 69008 Lyon","geometry":{"location":{"lat":45.7329281,"lng":4.8795544},"viewport":{"northeast":{"lat":45.73435062989272,"lng":4.880872429892722},"southwest":{"lat":45.73165097010727,"lng":4.878172770107279}}},"icon":"https://maps.gstatic.com/mapfiles/place_api/icons/v1/png_71/restaurant-71.png","icon_background_color":"#FF9E67","icon_mask_base_uri":"https://maps.gstatic.com/mapfiles/place_api/icons/v2/restaurant_pinlet","name":"Oh My Burger","opening_hours":{"open_now":false},"photos":[{"height":3024,"html_attributions":["<a href=\"https://maps.google.com/maps/contrib/104899272984822295191\">A Google User</a>"],"photo_reference":"AeJbb3d49Km0MNzNIPBIs5B534AZDnFfJtfpwSvBY0gt5FI-didvcSEzKxlV2Krl1AJvUNyjUuHrTCKa0cT0q7E6J-rLdaWEx6Fno89OMDfW2Nzi5LRnQQlV3uyJbQtZi2MLzpgLofqquMvGYTJm1kDQEXOayevusrHv_rOULpy78tjI_1aI","width":4032}],"place_id":"ChIJt7VQI_DB9EcROTtZhmvN0Lc","plus_code":{"compound_code":"PVMH+5R Lyon","global_code":"8FQ6PVMH+5R"},"rating":3.9,"reference":"ChIJt7VQI_DB9EcROTtZhmvN0Lc","types":["restaurant","food","point_of_interest","establishment"],"user_ratings_total":26},{"business_status":"OPERATIONAL","formatted_address":"34 Rue de l'Université, 69007 Lyon","geometry":{"location":{"lat":45.7492345,"lng":4.8417172},"viewport":{"northeast":{"lat":45.75058712989272,"lng":4.843094829892721},"southwest":{"lat":45.74788747010728,"lng":4.840395170107278}}},"icon":"https://maps.gstatic.com/mapfiles/place_api/icons/v1/png_71/restaurant-71.png","icon_background_color":"#FF9E67","icon_mask_base_uri":"https://maps.gstatic.com/mapfiles/place_api/icons/v2/restaurant_pinlet","name":"Greg & Jerry's","opening_hours":{"open_now":false},"photos":[{"height":3968,"html_attributions":["<a href=\"https://maps.google.com/maps/contrib/114023516386439720874\">L&#39;apaisé ASMR</a>"],"photo_reference":"AeJbb3chAJeMNivPURJ-PuD_n790hLfPX9gXxOCs6rPA5Du2sJo7UgbDb6qqpCcExiTCaP2NVFlKpsUDWC2nhndjtNfZXYjhH7idfpyaSag3mAm_n4u9EwNvZcOlLSup5bvOfwt3fZXiTqiQt6rLaOKlt-cKjT9P9nSo3h8PBqmysK4p4a9H","width":2976}],"place_id":"ChIJn1PUn0bq9EcRpEqN-k1A_nc","plus_code":{"compound_code":"PRXR+MM Lyon","global_code":"8FQ6PRXR+MM"},"rating":3.8,"reference":"ChIJn1PUn0bq9EcRpEqN-k1A_nc","types":["meal_takeaway","restaurant","food","point_of_interest","establishment"],"user_ratings_total":305},{"business_status":"OPERATIONAL","formatted_address":"112 Cr Charlemagne, 69002 Lyon","geometry":{"location":{"lat":45.741785,"lng":4.8159668},"viewport":{"northeast":{"lat":45.74313482989273,"lng":4.817316629892721},"southwest":{"lat":45.74043517010728,"lng":4.814616970107277}}},"icon":"https://maps.gstatic.com/mapfiles/place_api/icons/v1/png_71/restaurant-71.png","icon_background_color":"#FF9E67","icon_mask_base_uri":"https://maps.gstatic.com/mapfiles/place_api/icons/v2/restaurant_pinlet","name":"Steak 'n Shake","opening_hours":{"open_now":true},"photos":[{"height":1365,"html_attributions":["<a href=\"https://maps.google.com/maps/contrib/101539141116977683928\">A Google User</a>"],"photo_reference":"AeJbb3es7yCVpvudtusGNxjO6M1Cn866OHCtHzcRwqApevifs_vW7qY0cIYu_pHijNNdNYY3sR0nJ0FJKcgj86LtlgCcqc2sxz8NCZAkwrG_GtqXX-PqJCs-xFPTn4K8GoPShtxDuKomTjSBhmDDNuetTdKhwQ2XaZaq3SyqjgCUpjCEh7jJ","width":2048}],"place_id":"ChIJLW6iSsnr9EcR1UL3-U90Jow","plus_code":{"compound_code":"PRR8+P9 Lyon","global_code":"8FQ6PRR8+P9"},"price_level":2,"rating":3.7,"reference":"ChIJLW6iSsnr9EcR1UL3-U90Jow","types":["restaurant","food","point_of_interest","establishment"],"user_ratings_total":1540},{"business_status":"OPERATIONAL","formatted_address":"424 Cr Emile Zola, 69100 Villeurbanne","geometry":{"location":{"lat":45.7637618,"lng":4.910187},"viewport":{"northeast":{"lat":45.76514072989272,"lng":4.911557779892722},"southwest":{"lat":45.76244107010728,"lng":4.908858120107278}}},"icon":"https://maps.gstatic.com/mapfiles/place_api/icons/v1/png_71/restaurant-71.png","icon_background_color":"#FF9E67","icon_mask_base_uri":"https://maps.gstatic.com/mapfiles/place_api/icons/v2/restaurant_pinlet","name":"Le 424 - Burgers and Grill","opening_hours":{"open_now":false},"photos":[{"height":2304,"html_attributions":["<a href=\"https://maps.google.com/maps/contrib/101638655818950509742\">Steeve Mombrun</a>"],"photo_reference":"AeJbb3fdQOxMuT-WHrrmTYdTSvi_E5FCgnXENsY-lLhv-MVZxRYGoom2Gg2Zd4O8_5ODT0RFkZ9aJHn4TgJHIPI7-qfXm8E9NpxDGxiKfb7NpkDDKyb48dUf1BtGzR0EGrxqVpzC9IWeqHwD0fcVPD55yKD8tbfp3IBRs-LrFaZaUp9a7h2S","width":4096}],"place_id":"ChIJb76nd1TA9EcRhPk7vUDKHLM","plus_code":{"compound_code":"QW76+F3 Villeurbanne","global_code":"8FQ6QW76+F3"},"rating":3.7,"reference":"ChIJb76nd1TA9EcRhPk7vUDKHLM","types":["restaurant","food","point_of_interest","establishment"],"user_ratings_total":22},{"business_status":"OPERATIONAL","formatted_address":"11 Rue de la République, 69001 Lyon","geometry":{"location":{"lat":45.7659212,"lng":4.8361462},"viewport":{"northeast":{"lat":45.76718887989273,"lng":4.837386029892722},"southwest":{"lat":45.76448922010729,"lng":4.834686370107278}}},"icon":"https://maps.gstatic.com/mapfiles/place_api/icons/v1/png_71/restaurant-71.png","icon_background_color":"#FF9E67","icon_mask_base_uri":"https://maps.gstatic.com/mapfiles/place_api/icons/v2/restaurant_pinlet","name":"Hamburger","place_id":"ChIJnyBZaJbr9EcRAGvzFMXqgIg","plus_code":{"compound_code":"QR8P+9F Lyon","global_code":"8FQ6QR8P+9F"},"rating":0,"reference":"ChIJnyBZaJbr9EcRAGvzFMXqgIg","types":["restaurant","food","point_of_interest","establishment"],"user_ratings_total":0},{"business_status":"OPERATIONAL","formatted_address":"145 Rue Sébastien Gryphe, 69007 Lyon","geometry":{"location":{"lat":45.7473086,"lng":4.838462499999999},"viewport":{"northeast":{"lat":45.74869347989272,"lng":4.839727879892721},"southwest":{"lat":45.74599382010728,"lng":4.837028220107277}}},"icon":"https://maps.gstatic.com/mapfiles/place_api/icons/v1/png_71/restaurant-71.png","icon_background_color":"#FF9E67","icon_mask_base_uri":"https://maps.gstatic.com/mapfiles/place_api/icons/v2/restaurant_pinlet","name":"Meat hamburger","place_id":"ChIJLe36MYPr9EcR9O0tReeMvxQ","plus_code":{"compound_code":"PRWQ+W9 Lyon","global_code":"8FQ6PRWQ+W9"},"rating":0,"reference":"ChIJLe36MYPr9EcR9O0tReeMvxQ","types":["restaurant","food","point_of_interest","establishment"],"user_ratings_total":0}]