[{"business_status":"OPERATIONAL","formatted_address":"13 Imp. Secret, 69005 Lyon","geometry":{"location":{"lat":45.7550152,"lng":4.7947768},"viewport":{"northeast":{"lat":45.75637517989272,"lng":4.796093979892722},"southwest":{"lat":45.75367552010728,"lng":4.793394320107278}}},"icon":"https://maps.gstatic.com/mapfiles/place_api/icons/v1/png_71/restaurant-71.png","icon_background_color":"#FF9E67","icon_mask_base_uri":"https://maps.gstatic.com/mapfiles/place_api/icons/v2/restaurant_pinlet","name":"Papapizz","opening_hours":{"open_now":true},"photos":[{"height":3096,"html_attributions":["<a href=\"https://maps.google.com/maps/contrib/105655856366899939592\">A Google User</a>"],"photo_reference":"AeJbb3cXykuLZVi9aQZv__SD6401bV7naUS5x4YryQSuN7ttM0gjrO-y-ZiKgwr_QUyYVP_CRiCMmbspAitCDkfVl-Ze_SRjeutkzXCq4LJarbvnQaromPApNHKgTFGg2jGPqA5-6PyvYlnz-PETY_ZxwNksX0myaFRw0WT-uvRrmfo4fAIQ","width":4128}],"place_id":"ChIJI1p1NA7r9EcRtOFUissHKnI","plus_code":{"compound_code":"QQ4V+2W Lyon","global_code":"8FQ6QQ4V+2W"},"rating":5,"reference":"ChIJI1p1NA7r9EcRtOFUissHKnI","types":["restaurant","food","point_of_interest","establishment"],"user_ratings_total":161},{"business_status":"OPERATIONAL","formatted_address":"149 Rue Francis de Pressensé, 69100 Villeurbanne","geometry":{"location":{"lat":45.7716343,"lng":4.8823513},"viewport":{"northeast":{"lat":45.77291347989271,"lng":4.883686829892723},"southwest":{"lat":45.77021382010727,"lng":4.880987170107279}}},"icon":"https://maps.gstatic.com/mapfiles/place_api/icons/v1/png_71/restaurant-71.png","icon_background_color":"#FF9E67","icon_mask_base_uri":"https://maps.gstatic.com/mapfiles/place_api/icons/v2/restaurant_pinlet","name":"Net Pizza Lyon","opening_hours":{"open_now":false},"photos":[{"height":1562,"html_attributions":["<a href=\"https://maps.google.com/maps/contrib/102351970299045230913\">A Google User</a>"],"photo_reference":"AeJbb3dZRANxh46vnF6GM9tJe2cXjGdHzWvaxOhXvENMF70ntn7hTk9mjTF_i1vtaFiKc6RxAJhH6AodYxtI1omCYDj_yIhn8iTg6-uchrd1K0S7Owp7mPyWj7Jjv-8VbZ6g0fjMBt75HHlqbN4sUrXdYM8RLNiSdULKzKuYe5WXiOm6WpU7","width":1194}],"place_id":"ChIJc5aeHjPB9EcRV5AyeA5lCz8","plus_code":{"compound_code":"QVCJ+MW Villeurbanne","global_code":"8FQ6QVCJ+MW"},"rating":5,"reference":"ChIJc5aeHjPB9EcRV5AyeA5lCz8","types":["restaurant","food","point_of_interest","establishment"],"user_ratings_total":30},{"business_status":"OPERATIONAL","formatted_address":"140 Rue Pré Magné, 69126 Brindas","geometry":{"location":{"lat":45.7193165,"lng":4.6976882},"viewport":{"northeast":{"lat":45.72064637989273,"lng":4.699178929892723},"southwest":{"lat":45.71794672010728,"lng":4.696479270107279}}},"icon":"https://maps.gstatic.com/mapfiles/place_api/icons/v1/png_71/restaurant-71.png","icon_background_color":"#FF9E67","icon_mask_base_uri":"https://maps.gstatic.com/mapfiles/place_api/icons/v2/restaurant_pinlet","name":"Pizza Verone","opening_hours":{"open_now":true},"photos":[{"height":3024,"html_attributions":["<a href=\"https://maps.google.com/maps/contrib/103145337319177199603\">A Google User</a>"],"photo_reference":"AeJbb3edu7DvKG5dAarSr25dsbvE-gPPQuW0lYw_-F9TPGzmjzVdSY2f1BDY6U8SDcSLtm_c3HmUrDcx8WRdNTISimcP-u-o3uWVaGWis01v7vTG_XwPKLTqo1H4ceceBVZSiQN1se3VrKqkmX29vpMyLL71pGZx2xdeoqW1a8-GJ6GzhQpn","width":4032}],"place_id":"ChIJ3YDiaBzu9EcR2unpR2N7DVM","plus_code":{"compound_code":"PM9X+P3 Brindas","global_code":"8FQ6PM9X+P3"},"rating":4.8,"reference":"ChIJ3YDiaBzu9EcR2unpR2N7DVM","types":["restaurant","food","point_of_interest","establishment"],"user_ratings_total":235},{"business_status":"OPERATIONAL","formatted_address":"23 Rue Pailleron, 69004 Lyon","geometry":{"location":{"lat":45.7795214,"lng":4.834369199999999},"viewport":{"northeast":{"lat":45.78087917989271,"lng":4.835717679892722},"southwest":{"lat":45.77817952010727,"lng":4.833018020107279}}},"icon":"https://maps.gstatic.com/mapfiles/place_api/icons/v1/png_71/restaurant-71.png","icon_background_color":"#FF9E67","icon_mask_base_uri":"https://maps.gstatic.com/mapfiles/place_api/icons/v2/restaurant_pinlet","name":"Pizzeria Bocca Di Rosa","opening_hours":{"open_now":false},"photos":[{"height":3840,"html_attributions":["<a href=\"https://maps.google.com/maps/contrib/117277618357734800523\">double pressure</a>"],"photo_reference":"AeJbb3fa0wMN-lslu35k0Vx2hR0FQUWROR9THudCPdQqc4aKNGzXBjuH8Eg9ZwTLzbRIFxVu_w9gTyuLVDAiioc0CJjAnOpUFoZJRRnNjDi7jG8ZGWh_heFXc7GF1fJpP_UvLxBgCgUA9oj-BAHClNojQOaAhrntiGa4Eh1Zqd00u-U-W_o1","width":2160}],"place_id":"ChIJ6dW5o-Hq9EcRTfL-PG7RZoA","plus_code":{"compound_code":"QRHM+RP Lyon","global_code":"8FQ6QRHM+RP"},"price_level":2,"rating":4.8,"reference":"ChIJ6dW5o-Hq9EcRTfL-PG7RZoA","types":["liquor_store","restaurant","food","point_of_interest","store","establishment"],"user_ratings_total":165},{"business_status":"OPERATIONAL","formatted_address":"129 Rue Vauban, 69006 Lyon","geometry":{"location":{"lat":45.76609209999999,"lng":4.8548747},"viewport":{"northeast":{"lat":45.76744127989272,"lng":4.856261429892722},"southwest":{"lat":45.76474162010728,"lng":4.853561770107278}}},"icon":"https://maps.gstatic.com/mapfiles/place_api/icons/v1/png_71/restaurant-71.png","icon_background_color":"#FF9E67","icon_mask_base_uri":"https://maps.gstatic.com/mapfiles/place_api/icons/v2/restaurant_pinlet","name":"Pepe Pizza","opening_hours":{"open_now":false},"photos":[{"height":1439,"html_attributions":["<a href=\"https://maps.google.com/maps/contrib/100402945202414595939\">A Google User</a>"],"photo_reference":"AeJbb3fXdrTUNkLO5tQRVD59RpAQnh5sG-m3JuEx68EN1z1nO2hdDKg42mVfEA_K9jQWtyrUBfKeLmCRr6LWWKPj16hFHzL0g82_R8Ei0u9XnbeMJUsJBx4AmL8e_TNcipLnoEYfWky4mm81uyKF8jqeA7kElrgmlb3TLgotWhOX8WVn0x8d","width":1078}],"place_id":"ChIJT1Xp8UPr9EcRD-oeuZ1W31k","plus_code":{"compound_code":"QV84+C2 Lyon","global_code":"8FQ6QV84+C2"},"rating":4.8,"reference":"ChIJT1Xp8UPr9EcRD-oeuZ1W31k","types":["restaurant","food","point_of_interest","establishment"],"user_ratings_total":93},{"business_status":"OPERATIONAL","formatted_address":"18 Rue Louis Goux, 69100 Villeurbanne","geometry":{"location":{"lat":45.7660007,"lng":4.8915856},"viewport":{"northeast":{"lat":45.76736187989272,"lng":4.892979379892722},"southwest":{"lat":45.76466222010728,"lng":4.890279720107278}}},"icon":"https://maps.gstatic.com/mapfiles/place_api/icons/v1/png_71/restaurant-71.png","icon_background_color":"#FF9E67","icon_mask_base_uri":"https://maps.gstatic.com/mapfiles/place_api/icons/v2/restaurant_pinlet","name":"MAKE PIZZA","opening_hours":{"open_now":true},"photos":[{"height":3648,"html_attributions":["<a href=\"https://maps.google.com/maps/contrib/117777127647535773500\">Bree Law</a>"],"photo_reference":"AeJbb3f6XKDxHunZwzs9rgCz73oOFWqf3X5EbgCSQIpdXq5ps-xZcxou0j4V2GFHRsGi2dfxl_Bjv7owZqJwAq2yJ6GITRMXxhL4Ks1T47nEfUXso3cxTioHUQDgtETKVoDsBqxhOA54nEJ1LtgTl3OWcXdRv3Ndi86TtWdrjBX41Uus7wN6","width":2736}],"place_id":"ChIJb9w1KzTA9EcRq9gLZwD4flI","plus_code":{"compound_code":"QV8R+CJ Villeurbanne","global_code":"8FQ6QV8R+CJ"},"rating":4.8,"reference":"ChIJb9w1KzTA9EcRq9gLZwD4flI","types":["restaurant","food","point_of_interest","store","establishment"],"user_ratings_total":30},{"business_status":"OPERATIONAL","formatted_address":"61 Cr Albert Thomas, 69003 Lyon","geometry":{"location":{"lat":45.7474546,"lng":4.866406100000001},"viewport":{"northeast":{"lat":45.74870947989272,"lng":4.867701329892723},"southwest":{"lat":45.74600982010728,"lng":4.865001670107278}}},"icon":"https://maps.gstatic.com/mapfiles/place_api/icons/v1/png_71/restaurant-71.png","icon_background_color":"#FF9E67","icon_mask_base_uri":"https://maps.gstatic.com/mapfiles/place_api/icons/v2/restaurant_pinlet","name":"Pizza Cosy","opening_hours":{"open_now":false},"photos":[{"height":3000,"html_attributions":["<a href=\"https://maps.google.com/maps/contrib/116247046909451735376\">zonekey8 zonekey8</a>"],"photo_reference":"AeJbb3dTT2KjaL_9a1h2zL6PTRr_VEeZMG4jE52IuIQh6Qae-hjIQFHTHKaZGKeJVMsEQ2p-4P9xQQ2NcWFt45QxxIkrPKKw_wSD1lHsvlOXvNti1gaOkigWOqRjXyhiX8WpRk5VaE9XM28-BXILdT60u72BC9qlz3qj08KIGo796VzPA_7p","width":4000}],"place_id":"ChIJw67y7n3r9EcR1kUWxz0BZrc","plus_code":{"compound_code":"PVW8+XH Lyon","global_code":"8FQ6PVW8+XH"},"price_level":2,"rating":4.7,"reference":"ChIJw67y7n3r9EcR1kUWxz0BZrc","types":["meal_takeaway","meal_delivery","restaurant","food","point_of_interest","establishment"],"user_ratings_total":1146},{"business_status":"OPERATIONAL","formatted_address":"69 Av. de Verdun, 69330 Meyzieu","geometry":{"location":{"lat":45.7777039,"lng":4.9932313},"viewport":{"northeast":{"lat":45.77901767989272,"lng":4.994619629892722},"southwest":{"lat":45.77631802010728,"lng":4.991919970107278}}},"icon":"https://maps.gstatic.com/mapfiles/place_api/icons/v1/png_71/restaurant-71.png","icon_background_color":"#FF9E67","icon_mask_base_uri":"https://maps.gstatic.com/mapfiles/place_api/icons/v2/restaurant_pinlet","name":"Pizza Max - Meyzieu","opening_hours":{"open_now":false},"photos":[{"height":1368,"html_attributions":["<a href=\"https://maps.google.com/maps/contrib/102623943438107795543\">Romano Sarah</a>"],"photo_reference":"AeJbb3cT6L7o0BObxrPTNlPSRHaO-jJWkyZVlzfMn64oiH5psbJVSTPJjEPQh0x1-4YRSZX0n7FHqcTbBYbI4aOFWpOXUjaU8hDIfPu6lvFdCYAOEDS1RLjGhOMvjEc9sIaYy_vjDOevT7qskiOBPBVmV4qYaB4mwvXhRquvSJzOQQtP-gGK","width":1824}],"place_id":"ChIJ244nnnLH9EcRNgvF-cGR7uY","plus_code":{"compound_code":"QXHV+37 Meyzieu","global_code":"8FQ6QXHV+37"},"rating":4.7,"reference":"ChIJ244nnnLH9EcRNgvF-cGR7uY","types":["meal_takeaway","restaurant","food","point_of_interest","establishment"],"user_ratings_total":547},{"business_status":"OPERATIONAL","formatted_address":"39 Av. Marc Sangnier, 69100 Villeurbanne","geometry":{"location":{"lat":45.76017,"lng":4.8754979},"viewport":{"northeast":{"lat":45.76150572989272,"lng":4.876807729892722},"southwest":{"lat":45.75880607010728,"lng":4.874108070107278}}},"icon":"https://maps.gstatic.com/mapfiles/place_api/icons/v1/png_71/restaurant-71.png","icon_background_color":"#FF9E67","icon_mask_base_uri":"https://maps.gstatic.com/mapfiles/place_api/icons/v2/restaurant_pinlet","name":"Pizza Rosa","opening_hours":{"open_now":false},"photos":[{"height":886,"html_attributions":["<a href=\"https://maps.google.com/maps/contrib/106579243610301393201\">Pizza Rosa</a>"],"photo_reference":"AeJbb3dKHCMaVqGW9dJqFSxpGran6cjMkeFGyfJ_CfWjq0til1vmLEplVni58RTePudtINN2h4luJO2ph9p8NBUqISoS5642PrgO0Z8iyED5ndrIYSbzjqvIpyBwVuUSxNORIV926NusoAgiKufu-tEx8U76uQcuPLvH8ZGg4w8QwSLFfvpg","width":1600}],"place_id":"ChIJDRV99dTB9EcRwoh8vpYT8m0","plus_code":{"compound_code":"QV6G+36 Villeurbanne","global_code":"8FQ6QV6G+36"},"price_level":1,"rating":4.7,"reference":"ChIJDRV99dTB9EcRwoh8vpYT8m0","types":["meal_takeaway","restaurant","food","point_of_interest","establishment"],"user_ratings_total":188},{"business_status":"OPERATIONAL","formatted_address":"14 Rue Nazareth, 69003 Lyon","geometry":{"location":{"lat":45.7593867,"lng":4.8719288},"viewport":{"northeast":{"lat":45.76078602989271,"lng":4.873279429892722},"southwest":{"lat":45.75808637010726,"lng":4.870579770107279}}},"icon":"https://maps.gstatic.com/mapfiles/place_api/icons/v1/png_71/restaurant-71.png","icon_background_color":"#FF9E67","icon_mask_base_uri":"https://maps.gstatic.com/mapfiles/place_api/icons/v2/restaurant_pinlet","name":"Pizzeria Zampano","opening_hours":{"open_now":false},"photos":[{"height":2368,"html_attributions":["<a href=\"https://maps.google.com/maps/contrib/111460927271790031847\">A B</a>"],"photo_reference":"AeJbb3dBfYqrzOpnPVSEaE7fET6lwRif2nbovSB7sI10Y-_T1WZHRoaCr7rNYslqiomtq8B9q0At8rdsHF6wF3aKv04oJ6EV6aDvcII0GlairA2mx0LgatCbXNfnYbqmimMeGI7N3DCpIBTxS2Xs8Zzg19b3gA5s0yhR4oAm8qk32Gicml_-","width":4208}],"place_id":"ChIJ64w4j9XB9EcRtxLeWT43wRg","plus_code":{"compound_code":"QV5C+PQ Lyon","global_code":"8FQ6QV5C+PQ"},"price_level":1,"rating":4.7,"reference":"ChIJ64w4j9XB9EcRtxLeWT43wRg","types":["restaurant","food","point_of_interest","establishment"],"user_ratings_total":133},{"business_status":"OPERATIONAL","formatted_address":"8 Rue Condorcet, 69960 Corbas","geometry":{"location":{"lat":45.66057439999999,"lng":4.9014095},"viewport":{"northeast":{"lat":45.66184367989272,"lng":4.902753979892723},"southwest":{"lat":45.65914402010727,"lng":4.900054320107279}}},"icon":"https://maps.gstatic.com/mapfiles/place_api/icons/v1/png_71/restaurant-71.png","icon_background_color":"#FF9E67","icon_mask_base_uri":"https://maps.gstatic.com/mapfiles/place_api/icons/v2/restaurant_pinlet","name":"Pizza Florio","opening_hours":{"open_now":false},"photos":[{"height":720,"html_attributions":["<a href=\"https://maps.google.com/maps/contrib/110632953834075401487\">Nathalie Juglaret</a>"],"photo_reference":"AeJbb3c0Bwfuq1rfx2XXaMJ8IEs6vmryzXip9W4pss31-0kB0cL6xveRaWYiSZK5npsHU23HzQI_RXsoisDDowPEOD3LWBuGMxhH62VMGfLIE-Ky93PkwwnNRk3hWPBQBIx_5T_MJzvpY6Oizqq0EmXWBa18wKK9Lc68_G-CON40y6ABMelf","width":960}],"place_id":"ChIJuWXJxibD9EcRpPQCppOxnBM","plus_code":{"compound_code":"MW62+6H Corbas","global_code":"8FQ6MW62+6H"},"price_level":2,"rating":4.7,"reference":"ChIJuWXJxibD9EcRpPQCppOxnBM","types":["restaurant","food","point_of_interest","establishment"],"user_ratings_total":117},{"business_status":"OPERATIONAL","formatted_address":"11 Av. de Limburg, 69110 Sainte-Foy-lès-Lyon","geometry":{"location":{"lat":45.7335067,"lng":4.7800908},"viewport":{"northeast":{"lat":45.73478332989272,"lng":4.781357829892722},"southwest":{"lat":45.73208367010728,"lng":4.778658170107279}}},"icon":"https://maps.gstatic.com/mapfiles/place_api/icons/v1/png_71/restaurant-71.png","icon_background_color":"#FF9E67","icon_mask_base_uri":"https://maps.gstatic.com/mapfiles/place_api/icons/v2/restaurant_pinlet","name":"Pizzeria Bella Luna","opening_hours":{"open_now":false},"photos":[{"height":3000,"html_attributions":["<a href=\"https://maps.google.com/maps/contrib/103681640337328104463\">Charly Maillefaud</a>"],"photo_reference":"AeJbb3eCWn-KyFN49F7FQNb8DU--rNHYfwuHHJmeZl3-NuIoydMWxlFTzkYctSoz0IodgCpgywgW1hHTPkKyVqAFCCe-TXAbWMTpZiJqJJflpuhHU_MfUZ20Xgf2-kxBx75eluo3rZ1KKuUozdrPJbq0YWkcn3n6c7FiVhsDFElfWSkIkP7J","width":4000}],"place_id":"ChIJ_3mDNwfs9EcRgiHiItBbnak","plus_code":{"compound_code":"PQMJ+C2 Sainte-Foy-lès-Lyon","global_code":"8FQ6PQMJ+C2"},"price_level":1,"rating":4.7,"reference":"ChIJ_3mDNwfs9EcRgiHiItBbnak","types":["restaurant","food","point_of_interest","establishment"],"user_ratings_total":114},{"business_status":"OPERATIONAL","formatted_address":"Pl. du Chanoine Boursier, 69100 Villeurbanne","geometry":{"location":{"lat":45.76798669999999,"lng":4.8780638},"viewport":{"northeast":{"lat":45.76933647989272,"lng":4.879365879892722},"southwest":{"lat":45.76663682010728,"lng":4.876666220107278}}},"icon":"https://maps.gstatic.com/mapfiles/place_api/icons/v1/png_71/restaurant-71.png","icon_background_color":"#FF9E67","icon_mask_base_uri":"https://maps.gstatic.com/mapfiles/place_api/icons/v2/restaurant_pinlet","name":"La Pizza Italienne","opening_hours":{"open_now":true},"photos":[{"height":4032,"html_attributions":["<a href=\"https://maps.google.com/maps/contrib/102213235255365229549\">Sandrine LVL</a>"],"photo_reference":"AeJbb3fJhLoouIL7C8HW3-7s9o__azgahUOoaE_Fs1gkl16o0HzusL4VttDN_4ac_zUkz-BqTpokWNe3OuSstybRjUbFmez_9T8sDU8sNyq3Yqs4G4a0nIqKZFwkhXlpmblq9Bu7-_SiygcvQZmNUCY7HF9byu-1WFb6nqU3Co_iHSeNVkJG","width":3024}],"place_id":"ChIJo89jwfLB9EcRUlxEr_FR7-s","plus_code":{"compound_code":"QV9H+56 Villeurbanne","global_code":"8FQ6QV9H+56"},"rating":4.7,"reference":"ChIJo89jwfLB9EcRUlxEr_FR7-s","types":["meal_takeaway","restaurant","food","point_of_interest","establishment"],"user_ratings_total":51},{"business_status":"OPERATIONAL","formatted_address":"10 Pl. du Général de Gaulle, 69330 Jonage","geometry":{"location":{"lat":45.79643979999999,"lng":5.0467621},"viewport":{"northeast":{"lat":45.79773947989273,"lng":5.048168529892722},"southwest":{"lat":45.79503982010728,"lng":5.045468870107278}}},"icon":"https://maps.gstatic.com/mapfiles/place_api/icons/v1/png_71/restaurant-71.png","icon_background_color":"#FF9E67","icon_mask_base_uri":"https://maps.gstatic.com/mapfiles/place_api/icons/v2/restaurant_pinlet","name":"Stadium Pizza","opening_hours":{"open_now":false},"photos":[{"height":4032,"html_attributions":["<a href=\"https://maps.google.com/maps/contrib/111875224372608972345\">A Google User</a>"],"photo_reference":"AeJbb3d3lAzq_x6CGXQH-_gtLvRLjCXtNN0M32hRxXPtnOw34pgNefy46l8mzyQapydOV0EsJTX-09E7ID_oISIhn1qpIKTigaqdJhdIoom4liY7uf3_2fcAx0WWq2FKPOaIkVgsBQ6K4OO-DoU8AhTx9oLHrU5b4aUNK3wg-1TTba98v_JM","width":3024}],"place_id":"ChIJAbj6wcu39EcRsZl8fEdPXbE","plus_code":{"compound_code":"Q2WW+HP Jonage","global_code":"8FQ7Q2WW+HP"},"rating":4.7,"reference":"ChIJAbj6wcu39EcRsZl8fEdPXbE","types":["restaurant","food","point_of_interest","establishment"],"user_ratings_total":19},{"business_status":"OPERATIONAL","formatted_address":"68 Rue de Gerland, 69007 Lyon","geometry":{"location":{"lat":45.7383842,"lng":4.8398614},"viewport":{"northeast":{"lat":45.73967767989273,"lng":4.841167879892722},"southwest":{"lat":45.73697802010729,"lng":4.838468220107278}}},"icon":"https://maps.gstatic.com/mapfiles/place_api/icons/v1/png_71/restaurant-71.png","icon_background_color":"#FF9E67","icon_mask_base_uri":"https://maps.gstatic.com/mapfiles/place_api/icons/v2/restaurant_pinlet","name":"Jordan Tomas - Pizza Mamamia Lyon Gerland","opening_hours":{"open_now":false},"photos":[{"height":3480,"html_attributions":["<a href=\"https://maps.google.com/maps/contrib/114347123307033134386\">Tristan Morala</a>"],"photo_reference":"AeJbb3f-dX-MU-ISQ5GxeaW_q_sjW2N5_tqLtPXdFZAETZh_v_s68nUVXZQdm8dGw9ytxyEFil6xAogfXtQPVkm7gSnVZ7mV6xLD1XXlYltL2Qge3YFK32HST6k4oP2eGmOJzXUMObU1etWeGh1UNDAtyG4taIpjGf1XbT4df_4aEGhvK7RS","width":4640}],"place_id":"ChIJCdiWlzvq9EcRojgbuRH7oOQ","plus_code":{"compound_code":"PRQQ+9W Lyon","global_code":"8FQ6PRQQ+9W"},"price_level":2,"rating":4.6,"reference":"ChIJCdiWlzvq9EcRojgbuRH7oOQ","types":["restaurant","food","point_of_interest","establishment"],"user_ratings_total":1600},{"business_status":"OPERATIONAL","formatted_address":"196 Cr Emile Zola, 69100 Villeurbanne","geometry":{"location":{"lat":45.76875769999999,"lng":4.883170799999999},"viewport":{"northeast":{"lat":45.77015057989272,"lng":4.884483079892722},"southwest":{"lat":45.76745092010728,"lng":4.881783420107278}}},"icon":"https://maps.gstatic.com/mapfiles/place_api/icons/v1/png_71/restaurant-71.png","icon_background_color":"#FF9E67","icon_mask_base_uri":"https://maps.gstatic.com/mapfiles/place_api/icons/v2/restaurant_pinlet","name":"Pizza Cosy","opening_hours":{"open_now":false},"photos":[{"height":2976,"html_attributions":["<a href=\"https://maps.google.com/maps/contrib/109915570128279164270\">A Google User</a>"],"photo_reference":"AeJbb3diGE53H5WufXNAnkfUITkkiKsIRd5eBtwab9lr-jei4C8gsefCXsGh0p259k6E9Dgi939RPA7JWjM6uFZcxS6ReNpVv8Vx9A-N5p06xol6S78oJbcI1yGv9kCKpqFShUdy81izJ6CisbQwvu7XbhqrhsckRRkIf5rSu9Pq_gbed8Xo","width":3968}],"place_id":"ChIJma7uEEzB9EcRKts_NC9LBM8","plus_code":{"compound_code":"QV9M+G7 Villeurbanne","global_code":"8FQ6QV9M+G7"},"price_level":2,"rating":4.6,"reference":"ChIJma7uEEzB9EcRKts_NC9LBM8","types":["meal_takeaway","meal_delivery","restaurant","food","point_of_interest","establishment"],"user_ratings_total":815},{"business_status":"OPERATIONAL","formatted_address":"16 Pl. de la Croix-Rousse, 69004 Lyon","geometry":{"location":{"lat":45.7758319,"lng":4.8330214},"viewport":{"northeast":{"lat":45.77720597989273,"lng":4.834270479892722},"southwest":{"lat":45.77450632010729,"lng":4.831570820107278}}},"icon":"https://maps.gstatic.com/mapfiles/place_api/icons/v1/png_71/restaurant-71.png","icon_background_color":"#FF9E67","icon_mask_base_uri":"https://maps.gstatic.com/mapfiles/place_api/icons/v2/restaurant_pinlet","name":"Pizza Cosy","opening_hours":{"open_now":true},"photos":[{"height":3648,"html_attributions":["<a href=\"https://maps.google.com/maps/contrib/109015974782086160353\">Michael B.</a>"],"photo_reference":"AeJbb3dJdk_c9-ecq51QSzB66CX33Ik_sAfuGo_7S7ry4CNMHUK_MTwy9a1pHwJh686r-V9mWAoYyTHKk7YT0QmuTIEI1yxvAUhsot20-IW40NTZIFtG0EfcxZ6F9cJjBHwIMDNCBo9B1ldxOpAK8qF-37QUlR1tklmd9sM7P6200HexxgcX","width":2736}],"place_id":"ChIJ_0Mkggjr9EcRt3sEjKhLO6U","plus_code":{"compound_code":"QRGM+86 Lyon","global_code":"8FQ6QRGM+86"},"price_level":2,"rating":4.6,"reference":"ChIJ_0Mkggjr9EcRt3sEjKhLO6U","types":["meal_takeaway","meal_delivery","restaurant","food","point_of_interest","establishment"],"user_ratings_total":764},{"business_status":"OPERATIONAL","formatted_address":"13 Rue de la Fraternité, 69150 Décines-Charpieu","geometry":{"location":{"lat":45.77172729999999,"lng":4.9572959},"viewport":{"northeast":{"lat":45.77312127989273,"lng":4.958686529892721},"southwest":{"lat":45.77042162010729,"lng":4.955986870107277}}},"icon":"https://maps.gstatic.com/mapfiles/place_api/icons/v1/png_71/restaurant-71.png","icon_background_color":"#FF9E67","icon_mask_base_uri":"https://maps.gstatic.com/mapfiles/place_api/icons/v2/restaurant_pinlet","name":"Pizza Cosy","opening_hours":{"open_now":false},"photos":[{"height":1063,"html_attributions":["<a href=\"https://maps.google.com/maps/contrib/105066888616282254788\">Florian L</a>"],"photo_reference":"AeJbb3eQ6-bVwtlU_84xQRGmHcRO7IW0iWwrGXZHi8c7iNWV8jDwV3AwU8Htl5JaG9aY-4RldpFSCTA5Yok7mvwZcEKfhdc_btDJh-xD2NfwFJWdI7y34CrVN11EKPipb0oErfeF3FvxoU7wpd1yva6YRCQnLppF9B6eV-zPzszTeBxI4E5n","width":1063}],"place_id":"ChIJnVs6uTTB9EcRsRg0_p1PUpw","plus_code":{"compound_code":"QXC4+MW Décines-Charpieu","global_code":"8FQ6QXC4+MW"},"price_level":2,"rating":4.6,"reference":"ChIJnVs6uTTB9EcRsRg0_p1PUpw","types":["meal_takeaway","meal_delivery","restaurant","food","point_of_interest","establishment"],"user_ratings_total":603},{"business_status":"OPERATIONAL","formatted_address":"79 Rue Garibaldi, 69006 Lyon","geometry":{"location":{"lat":45.7676857,"lng":4.8509607},"viewport":{"northeast":{"lat":45.76903157989273,"lng":4.852259679892722},"southwest":{"lat":45.76633192010728,"lng":4.849560020107278}}},"icon":"https://maps.gstatic.com/mapfiles/place_api/icons/v1/png_71/restaurant-71.png","icon_background_color":"#FF9E67","icon_mask_base_uri":"https://maps.gstatic.com/mapfiles/place_api/icons/v2/restaurant_pinlet","name":"Pizza Cosy","opening_hours":{"open_now":false},"photos":[{"height":1450,"html_attributions":["<a href=\"https://maps.google.com/maps/contrib/111717795274646778017\">A Google User</a>"],"photo_reference":"AeJbb3ftcptrcNjf-adiGOZhMr9bKC88hIgW5ZtVg3_n6N6LE3GrKWq2Q-Rqyb0ddB-vYqz1j53WZiuGmwmqb1nfUh4fqSfFDn9ZeBUHtmSwd-yplwLI7VaJp1-oMiMyr86vmZFwWeIHOKk5A1o42d81m18HdcYLjtyRsCX0xlE2wqz3hpMN","width":2186}],"place_id":"ChIJedalEmDr9EcRSmPqmfHlOgM","plus_code":{"compound_code":"QV92+39 Lyon","global_code":"8FQ6QV92+39"},"price_level":2,"rating":4.6,"reference":"ChIJedalEmDr9EcRSmPqmfHlOgM","types":["meal_takeaway","meal_delivery","restaurant","food","point_of_interest","establishment"],"user_ratings_total":533},{"business_status":"OPERATIONAL","formatted_address":"88 Rue Vendôme, 69006 Lyon","geometry":{"location":{"lat":45.768116,"lng":4.8450565},"viewport":{"northeast":{"lat":45.76947432989272,"lng":4.846441079892721},"southwest":{"lat":45.76677467010728,"lng":4.843741420107277}}},"icon":"https://maps.gstatic.com/mapfiles/place_api/icons/v1/png_71/restaurant-71.png","icon_background_color":"#FF9E67","icon_mask_base_uri":"https://maps.gstatic.com/mapfiles/place_api/icons/v2/restaurant_pinlet","name":"ITALIA E SAPORE PIZZERIA","opening_hours":{"open_now":false},"photos":[{"height":928,"html_attributions":["<a href=\"https://maps.google.com/maps/contrib/113407350082732691511\">Italia e Sapore LYON</a>"],"photo_reference":"AeJbb3cJ_B01wwJbtKpo9VVwZJF0CybCt_FO-eXkbvl9rU7lrASo6sC7RuDfe9iHv7XJVvR0LhKjXZpIyEI1Uqe9R5ZZ6IxbboWaDC_p0e7mAxbJTawpI7cAlLQOoT3XJR3zEWQ_aBDxZyLuS1jdUNScEwjZvbuVjoqPgu8fbXHlzAUMLmqY","width":750}],"place_id":"ChIJJUWayvbq9EcRgetl8m-GsFk","plus_code":{"compound_code":"QR9W+62 Lyon","global_code":"8FQ6QR9W+62"},"price_level":2,"rating":4.6,"reference":"ChIJJUWayvbq9EcRgetl8m-GsFk","types":["meal_delivery","grocery_or_supermarket","meal_takeaway","restaurant","food","point_of_interest","store","establishment"],"user_ratings_total":442},{"business_status":"OPERATIONAL","formatted_address":"53 Rue de Bourgogne, 69009 Lyon","geometry":{"location":{"lat":45.7795369,"lng":4.8014926},"viewport":{"northeast":{"lat":45.78090637989272,"lng":4.802882479892722},"southwest":{"lat":45.77820672010728,"lng":4.800182820107278}}},"icon":"https://maps.gstatic.com/mapfiles/place_api/icons/v1/png_71/restaurant-71.png","icon_background_color":"#FF9E67","icon_mask_base_uri":"https://maps.gstatic.com/mapfiles/place_api/icons/v2/restaurant_pinlet","name":"Mont D'Or Pizza","opening_hours":{"open_now":false},"photos":[{"height":1520,"html_attributions":["<a href=\"https://maps.google.com/maps/contrib/117922684297083439222\">Danae JG</a>"],"photo_reference":"AeJbb3f0GQINm-M-l6h7XxxCAe6mFJRTHj0AZg5GSYSDFOc_BtKMCI_qU1nD55rWCHnJUEZqKr9imRJPvRzUB27h7XwDtGEHpBFXgZzHVatH65eS9d9BVM4I4cE4bQVZync60P_eT8WuTWADwn4zDY28TtAUuJjbjsacyT8ZTI9fybWVsJBP","width":1520}],"place_id":"ChIJ9U4ty2jr9EcRobmISUvEQ8I","plus_code":{"compound_code":"QRH2+RH Lyon","global_code":"8FQ6QRH2+RH"},"price_level":1,"rating":4.6,"reference":"ChIJ9U4ty2jr9EcRobmISUvEQ8I","types":["restaurant","food","point_of_interest","establishment"],"user_ratings_total":433},{"business_status":"OPERATIONAL","formatted_address":"49 Rue de la Feyssine, 69100 Villeurbanne","geometry":{"location":{"lat":45.7839848,"lng":4.8900162},"viewport":{"northeast":{"lat":45.78531802989272,"lng":4.891305429892721},"southwest":{"lat":45.78261837010728,"lng":4.888605770107277}}},"icon":"https://maps.gstatic.com/mapfiles/place_api/icons/v1/png_71/restaurant-71.png","icon_background_color":"#FF9E67","icon_mask_base_uri":"https://maps.gstatic.com/mapfiles/place_api/icons/v2/restaurant_pinlet","name":"Pizza Carloni","opening_hours":{"open_now":false},"photos":[{"height":1824,"html_attributions":["<a href=\"https://maps.google.com/maps/contrib/114897030172438963837\">A Google User</a>"],"photo_reference":"AeJbb3f7HaJ8nivLS1isvn5efp_IbvX_fgJJChhETFT307cdOa9YsPKVU8x5HhjOX-3dbgiDr6Yb4rRgIenp3IpivO-L_RGuao05FlQuqm-_zOf0o4nHmUb21YAGEsH3d9rw5EbKrplNMv4InfIMWJqNdNaJdNi0WmIabc1Y-t2AIf8q85Rp","width":2736}],"place_id":"ChIJDWGd6RbA9EcRCUqQl3HqI-Q","plus_code":{"compound_code":"QVMR+H2 Villeurbanne","global_code":"8FQ6QVMR+H2"},"price_level":1,"rating":4.6,"reference":"ChIJDWGd6RbA9EcRCUqQl3HqI-Q","types":["restaurant","food","point_of_interest","establishment"],"user_ratings_total":342},{"business_status":"OPERATIONAL","formatted_address":"Rue André Citroën, 69740 Genas","geometry":{"location":{"lat":45.7344993,"lng":4.9823019},"viewport":{"northeast":{"lat":45.73586522989272,"lng":4.983707329892721},"southwest":{"lat":45.73316557010727,"lng":4.981007670107277}}},"icon":"https://maps.gstatic.com/mapfiles/place_api/icons/v1/png_71/restaurant-71.png","icon_background_color":"#FF9E67","icon_mask_base_uri":"https://maps.gstatic.com/mapfiles/place_api/icons/v2/restaurant_pinlet","name":"GENAS PIZZA - Pizzeria Genas - Pizzeria Chassieu","opening_hours":{"open_now":false},"photos":[{"height":1200,"html_attributions":["<a href=\"https://maps.google.com/maps/contrib/102307685594283966655\">Detlef Steinmüller</a>"],"photo_reference":"AeJbb3c7zri0jknyv5c1dAJdaoZEMVkCJYE3pwNhgdP5QE990Ty5fvxP3up03Sgoo2LcWLfeF97kEVbbzysIHDYwky-rb7GEq9WG4bp5_Z0h6qVMZu77-vx8qhM8JDUtvLKVoICxFEkbM5SBU06yk2NaNLFErGE-1gcguo5kLZT2VhfkjiTl","width":1600}],"place_id":"ChIJc2HWUpDG9EcRSVRoU05WRZ8","plus_code":{"compound_code":"PXMJ+QW Genas","global_code":"8FQ6PXMJ+QW"},"price_level":2,"rating":4.6,"reference":"ChIJc2HWUpDG9EcRSVRoU05WRZ8","types":["meal_takeaway","meal_delivery","restaurant","food","point_of_interest","establishment"],"user_ratings_total":306},{"business_status":"OPERATIONAL","formatted_address":"2 Rue Duhamel, 69002 Lyon","geometry":{"location":{"lat":45.7503817,"lng":4.828949499999999},"viewport":{"northeast":{"lat":45.75177752989271,"lng":4.830153329892721},"southwest":{"lat":45.74907787010727,"lng":4.827453670107277}}},"icon":"https://maps.gstatic.com/mapfiles/place_api/icons/v1/png_71/restaurant-71.png","icon_background_color":"#FF9E67","icon_mask_base_uri":"https://maps.gstatic.com/mapfiles/place_api/icons/v2/restaurant_pinlet","name":"Il Palio","opening_hours":{"open_now":false},"photos":[{"height":3024,"html_attributions":["<a href=\"https://maps.google.com/maps/contrib/117914527646402425316\">paul scott-griffiths</a>"],"photo_reference":"AeJbb3fOd6Zb6Qbzg9rzf7cibWEEfC742kRLQzgIj4R3A77wMzFad1NVxGOmnJpgdWZax_XkGIH_9xgJ_RS5xML4GiKl3kD-xoqsFrncUd2u78f8d0d4LX2kuXTEvSGmLnc7h_nHI1ofL_C75K2RUmqt_rSpSaUsYVZzWl_SEI6nBlmM2-ps","width":3024}],"place_id":"ChIJU8n5mUzq9EcRYM2aLNID1JU","plus_code":{"compound_code":"QR2H+5H Lyon","global_code":"8FQ6QR2H+5H"},"price_level":2,"rating":4.6,"reference":"ChIJU8n5mUzq9EcRYM2aLNID1JU","types":["restaurant","liquor_store","bakery","food","point_of_interest","store","establishment"],"user_ratings_total":302},{"business_status":"OPERATIONAL","formatted_address":"83 – 85 Cr de la République, 69100 Villeurbanne","geometry":{"location":{"lat":45.763989,"lng":4.8744341},"viewport":{"northeast":{"lat":45.76535472989272,"lng":4.875678879892722},"southwest":{"lat":45.76265507010727,"lng":4.872979220107278}}},"icon":"https://maps.gstatic.com/mapfiles/place_api/icons/v1/png_71/restaurant-71.png","icon_background_color":"#FF9E67","icon_mask_base_uri":"https://maps.gstatic.com/mapfiles/place_api/icons/v2/restaurant_pinlet","name":"JET PIZZA","opening_hours":{"open_now":false},"photos":[{"height":3024,"html_attributions":["<a href=\"https://maps.google.com/maps/contrib/117914527646402425316\">paul scott-griffiths</a>"],"photo_reference":"AeJbb3fOyDzbtSvnZsbaoq36hM2AskKozkTqPH2bBRpIk84df9lEl8e9lPTgPDYiB6olXCW4Dvtb8So0WzT1hdo6uXZK5eY_bkG91P3bAg0EOnrw6_8ru1igwR8Ol6rPfqQNJA0KV6coeSpqCAp-VrNoCSt2EIwPF753sQpRqRaGG2B6sXCu","width":3024}],"place_id":"ChIJg3AX8CrA9EcRb1cD8NjTF-A","plus_code":{"compound_code":"QV7F+HQ Villeurbanne","global_code":"8FQ6QV7F+HQ"},"price_level":1,"rating":4.6,"reference":"ChIJg3AX8CrA9EcRb1cD8NjTF-A","types":["meal_delivery","restaurant","food","point_of_interest","establishment"],"user_ratings_total":192},{"business_status":"OPERATIONAL","formatted_address":"26 Pl. du Dr Joseph Cinelli, 69360 Saint-Symphorien-d'Ozon","geometry":{"location":{"lat":45.6317652,"lng":4.8562648},"viewport":{"northeast":{"lat":45.63307132989272,"lng":4.857619779892722},"southwest":{"lat":45.63037167010728,"lng":4.854920120107278}}},"icon":"https://maps.gstatic.com/mapfiles/place_api/icons/v1/png_71/restaurant-71.png","icon_background_color":"#FF9E67","icon_mask_base_uri":"https://maps.gstatic.com/mapfiles/place_api/icons/v2/restaurant_pinlet","name":"mia pizza","opening_hours":{"open_now":false},"photos":[{"height":3024,"html_attributions":["<a href=\"https://maps.google.com/maps/contrib/113620773403977537363\">Martin ROY</a>"],"photo_reference":"AeJbb3fpSlXARR6KrtX728BGLSBjtuwNnRTtTC0T9mOX4scI7ao45EiPOEAimefz5kgSRod6FCppHtryNY35bwwbmiMOD5r7LKjFhtivQH5wQhDLr4paApmqQCJFWlhgXFnGlbyY6Hy_uTggCSEc44Xbkcot05TvPJmTKJ-dq7AAmV77AJ6L","width":3022}],"place_id":"ChIJfeJuxF3d9EcR98QYD8vfP1U","plus_code":{"compound_code":"JVJ4+PG Saint-Symphorien-d'Ozon","global_code":"8FQ6JVJ4+PG"},"price_level":2,"rating":4.6,"reference":"ChIJfeJuxF3d9EcR98QYD8vfP1U","types":["restaurant","food","point_of_interest","establishment"],"user_ratings_total":182},{"business_status":"OPERATIONAL","formatted_address":"177 Rue du Cèdre, 69730 Genay","geometry":{"location":{"lat":45.89083489999999,"lng":4.8325955},"viewport":{"northeast":{"lat":45.89232112989272,"lng":4.833959779892721},"southwest":{"lat":45.88962147010728,"lng":4.831260120107277}}},"icon":"https://maps.gstatic.com/mapfiles/place_api/icons/v1/png_71/restaurant-71.png","icon_background_color":"#FF9E67","icon_mask_base_uri":"https://maps.gstatic.com/mapfiles/place_api/icons/v2/restaurant_pinlet","name":"Pizza du Cèdre","opening_hours":{"open_now":false},"photos":[{"height":3024,"html_attributions":["<a href=\"https://maps.google.com/maps/contrib/102145001155104864170\">redfieuw</a>"],"photo_reference":"AeJbb3e0jF7Nwhn2U-Q6cItWSa3wcRr6DbuYCXxTb2eSx9ErDurelnZ5baOTSUA4CiYmiPBKxx6UyeFHLZD2I8ftau-xymUgVu73BR_gSDQgtsS2hVOavG9ahMVJpe5vPAzmr52Igv5sa_hnGKuYGDRXURCXm3dzdmhQklDWNatyVHzOlF6P","width":4032}],"place_id":"ChIJCVec9JaW9EcR0zJSHwcbUmY","plus_code":{"compound_code":"VRRM+82 Genay","global_code":"8FQ6VRRM+82"},"price_level":2,"rating":4.6,"reference":"ChIJCVec9JaW9EcR0zJSHwcbUmY","types":["restaurant","food","point_of_interest","establishment"],"user_ratings_total":151},{"business_status":"OPERATIONAL","formatted_address":"43 Rue de la Mairie, 69210 Lentilly","geometry":{"location":{"lat":45.8176431,"lng":4.6629493},"viewport":{"northeast":{"lat":45.81898767989272,"lng":4.66428497989272},"southwest":{"lat":45.81628802010728,"lng":4.661585320107276}}},"icon":"https://maps.gstatic.com/mapfiles/place_api/icons/v1/png_71/restaurant-71.png","icon_background_color":"#FF9E67","icon_mask_base_uri":"https://maps.gstatic.com/mapfiles/place_api/icons/v2/restaurant_pinlet","name":"Pizza 43","opening_hours":{"open_now":false},"photos":[{"height":1920,"html_attributions":["<a href=\"https://maps.google.com/maps/contrib/104507930017176888986\">Valérian Lepeule</a>"],"photo_reference":"AeJbb3c7dqjijeeFFSbrokPafIdrpyewf3iwm2S2uY-cwKWQgZmigEuYYwQa4WfaLiv1B41DVL8g_MdgPEd70CwkneyJRynz8hy8Fiq6w6MrvD24AvzXJkeVW9eVw77GGP535H85NKcLICAFBdNCHWA_uAmANdk1ZQLZ2p2X_A1-Wt7cz3h2","width":1080}],"place_id":"ChIJHWyJadeM9EcR-ioyY_nWe_A","plus_code":{"compound_code":"RM97+35 Lentilly","global_code":"8FQ6RM97+35"},"price_level":1,"rating":4.6,"reference":"ChIJHWyJadeM9EcR-ioyY_nWe_A","types":["restaurant","food","point_of_interest","establishment"],"user_ratings_total":139},{"business_status":"OPERATIONAL","formatted_address":"9 Grande Rue, 69800 Saint-Priest","geometry":{"location":{"lat":45.6984946,"lng":4.943235800000001},"viewport":{"northeast":{"lat":45.69983147989273,"lng":4.944606229892722},"southwest":{"lat":45.69713182010728,"lng":4.941906570107278}}},"icon":"https://maps.gstatic.com/mapfiles/place_api/icons/v1/png_71/restaurant-71.png","icon_background_color":"#FF9E67","icon_mask_base_uri":"https://maps.gstatic.com/mapfiles/place_api/icons/v2/restaurant_pinlet","name":"Entre 2 Pizza","opening_hours":{"open_now":false},"photos":[{"height":1920,"html_attributions":["<a href=\"https://maps.google.com/maps/contrib/114088792898514288627\">Hakim Belghazi</a>"],"photo_reference":"AeJbb3e-80vXLKMjZIHHkzFLh_2xWjmZAVb32U-DCbhV4zEP5rLqa8d3STtONtseCF1hBxJ-xKJ7xIbHV6wIbu5m50kqXjsk5r7bCVrYg3uiOOwOXEuq8_T_4e7bgfAQYqgEHpDuavFTVBaHhvqBebLknHTtw9PBpNc8zFBMOUG63YSRnXbf","width":1080}],"place_id":"ChIJaYrZw4vD9EcR4KGpuxWHRRw","plus_code":{"compound_code":"MWXV+97 Saint-Priest","global_code":"8FQ6MWXV+97"},"rating":4.6,"reference":"ChIJaYrZw4vD9EcR4KGpuxWHRRw","types":["restaurant","food","point_of_interest","establishment"],"user_ratings_total":82},{"business_status":"OPERATIONAL","formatted_address":"22 Av. Carnot, 69250 Neuville-sur-Saône","geometry":{"location":{"lat":45.8815824,"lng":4.8351642},"viewport":{"northeast":{"lat":45.88285682989273,"lng":4.836296729892722},"southwest":{"lat":45.88015717010728,"lng":4.833597070107278}}},"icon":"https://maps.gstatic.com/mapfiles/place_api/icons/v1/png_71/restaurant-71.png","icon_background_color":"#FF9E67","icon_mask_base_uri":"https://maps.gstatic.com/mapfiles/place_api/icons/v2/restaurant_pinlet","name":"Pizza Olio","photos":[{"height":1632,"html_attributions":["<a href=\"https://maps.google.com/maps/contrib/112125728069880078865\">Jean-Raphaël Meyer</a>"],"photo_reference":"AeJbb3cX--0yH0DA5M1eRKyNy6I7l1s2wFpoEN51mcsULf0xfyWXZQy2Dnq1LsNt5Ou--xPhYiF75FIirTazBFdotMCDG6DkFDqx7YUjCVkw-WhSn8aEzWdW5bYc-Qa6V45X2KJelbBQVbVoT2M4vGeFNMzAPKt_BuCI-E_dIHS3qHUV3D4N","width":918}],"place_id":"ChIJT2NO9puW9EcRvTwgPH--IVg","plus_code":{"compound_code":"VRJP+J3 Neuville-sur-Saône","global_code":"8FQ6VRJP+J3"},"rating":4.6,"reference":"ChIJT2NO9puW9EcRvTwgPH--IVg","types":["restaurant","food","point_of_interest","establishment"],"user_ratings_total":41},{"business_status":"OPERATIONAL","formatted_address":"10 Rue des Marronniers, 69002 Lyon","geometry":{"location":{"lat":45.756691,"lng":4.8343706},"viewport":{"northeast":{"lat":45.75776567989272,"lng":4.835692329892722},"southwest":{"lat":45.75506602010728,"lng":4.832992670107278}}},"icon":"https://maps.gstatic.com/mapfiles/place_api/icons/v1/png_71/restaurant-71.png","icon_background_color":"#FF9E67","icon_mask_base_uri":"https://maps.gstatic.com/mapfiles/place_api/icons/v2/restaurant_pinlet","name":"Pizza Cosy","opening_hours":{"open_now":true},"photos":[{"height":1450,"html_attributions":["<a href=\"https://maps.google.com/maps/contrib/118018710266121988638\">A Google User</a>"],"photo_reference":"AeJbb3cjunQVNV7LCvx4v7jN4Trf69ujC65gW8RqXdYVuHWcwf_8L4z-rfr2CG9aTK5hXVbzx3yWvSPt1qaMMWKSENjNopGY2NqLrFJPEqi80fzZoLPM512VPtLGYFc2NpwS7vFK2O7CThNJ2dChmqfeq-aGEzsfgskuqWXInx_BQP33vkIp","width":2186}],"place_id":"ChIJfYfG-Err9EcRIjX91N5JrdU","plus_code":{"compound_code":"QR4M+MP Lyon","global_code":"8FQ6QR4M+MP"},"price_level":2,"rating":4.5,"reference":"ChIJfYfG-Err9EcRIjX91N5JrdU","types":["meal_takeaway","meal_delivery","restaurant","food","point_of_interest","establishment"],"user_ratings_total":1660},{"business_status":"OPERATIONAL","formatted_address":"13 Cr Suchet, 69002 Lyon","geometry":{"location":{"lat":45.7472202,"lng":4.8234498},"viewport":{"northeast":{"lat":45.74853067989272,"lng":4.824767529892722},"southwest":{"lat":45.74583102010727,"lng":4.822067870107278}}},"icon":"https://maps.gstatic.com/mapfiles/place_api/icons/v1/png_71/restaurant-71.png","icon_background_color":"#FF9E67","icon_mask_base_uri":"https://maps.gstatic.com/mapfiles/place_api/icons/v2/restaurant_pinlet","name":"Pizzeria Avarello","opening_hours":{"open_now":false},"photos":[{"height":4032,"html_attributions":["<a href=\"https://maps.google.com/maps/contrib/118416045023395112206\">Chafik Mouram</a>"],"photo_reference":"AeJbb3cRqa3LWPZrneXXZg_F8VWrDtXMEb-Thp5IoqlpiTiftteWYy09RVJ3XT_r4PFIbLhGsapcFUG2oOg0W8tBVOFtWLsoIx9SaLZNo9R8O3P_bdonrrcOGYFY_jZxLbmpBxiOurkAfyEw5KmFTundrDedZHY2jOLycDuH8sHomZ4gPvw8","width":3024}],"place_id":"ChIJWfK8pbXr9EcRNmJfUHJQ5gE","plus_code":{"compound_code":"PRWF+W9 Lyon","global_code":"8FQ6PRWF+W9"},"price_level":2,"rating":4.5,"reference":"ChIJWfK8pbXr9EcRNmJfUHJQ5gE","types":["restaurant","food","point_of_interest","establishment"],"user_ratings_total":479},{"business_status":"OPERATIONAL","formatted_address":"43 Rue du Puits Vieux, 69800 Saint-Priest","geometry":{"location":{"lat":45.6992419,"lng":4.950142899999999},"viewport":{"northeast":{"lat":45.70051422989272,"lng":4.951488229892721},"southwest":{"lat":45.69781457010727,"lng":4.948788570107277}}},"icon":"https://maps.gstatic.com/mapfiles/place_api/icons/v1/png_71/restaurant-71.png","icon_background_color":"#FF9E67","icon_mask_base_uri":"https://maps.gstatic.com/mapfiles/place_api/icons/v2/restaurant_pinlet","name":"Les Pizzas du Puits Vieux","opening_hours":{"open_now":false},"photos":[{"height":1067,"html_attributions":["<a href=\"https://maps.google.com/maps/contrib/108678859233649147849\">Les Pizzas du Puits Vieux</a>"],"photo_reference":"AeJbb3dktT-tyA4GPfx_BtCDR6271zoioVHW_Oo8vTpVCz4fL-Dh2tv-PnX-XzAW_WOFbdbbIE3FmrIxodHaGQfsdIffoXojKu_l6SaQdaBBTo9fUfzg038-sde3CMykN083Tvm2akZwT7eN0W5apqNpDLhj6ImKT2pVqlRGOLY27mTkAnKe","width":1600}],"place_id":"ChIJNRfKU3TE9EcRPQC7gA-ssH0","plus_code":{"compound_code":"MXX2+M3 Saint-Priest","global_code":"8FQ6MXX2+M3"},"rating":4.5,"reference":"ChIJNRfKU3TE9EcRPQC7gA-ssH0","types":["meal_takeaway","restaurant","food","point_of_interest","establishment"],"user_ratings_total":376},{"business_status":"OPERATIONAL","formatted_address":"111 Rte de Strasbourg, 69300 Caluire-et-Cuire","geometry":{"location":{"lat":45.8000075,"lng":4.8767231},"viewport":{"northeast":{"lat":45.80136292989273,"lng":4.878173979892722},"southwest":{"lat":45.79866327010728,"lng":4.875474320107278}}},"icon":"https://maps.gstatic.com/mapfiles/place_api/icons/v1/png_71/restaurant-71.png","icon_background_color":"#FF9E67","icon_mask_base_uri":"https://maps.gstatic.com/mapfiles/place_api/icons/v2/restaurant_pinlet","name":"Pizza Cosy","opening_hours":{"open_now":false},"photos":[{"height":4024,"html_attributions":["<a href=\"https://maps.google.com/maps/contrib/103008056902915231336\">A Google User</a>"],"photo_reference":"AeJbb3f5LcM3TrHphSl6meBCgRVTd_FoAqUC5IIK3qx3CJ9_cgUkrWdmCT0jFZJch6dh-8hqVoxgnU3RyzcaD7EM8T8A74T39Ov-DdZsSDDErpNV1anqok4Jg8bDQm1FiMXjyWEcncuJEf01l6k62KB21H21Q0gnj_J6sVGhfBbxY8WZKwcj","width":6048}],"place_id":"ChIJfS8K5f7r9EcRFQYWVwkuxDA","plus_code":{"compound_code":"RV2G+2M Caluire-et-Cuire","global_code":"8FQ6RV2G+2M"},"price_level":2,"rating":4.5,"reference":"ChIJfS8K5f7r9EcRFQYWVwkuxDA","types":["meal_delivery","meal_takeaway","restaurant","food","point_of_interest","establishment"],"user_ratings_total":273},{"business_status":"OPERATIONAL","formatted_address":"3 Grande Rue, 69600 Oullins","geometry":{"location":{"lat":45.720633,"lng":4.811274399999999},"viewport":{"northeast":{"lat":45.72201702989272,"lng":4.812520179892721},"southwest":{"lat":45.71931737010728,"lng":4.809820520107277}}},"icon":"https://maps.gstatic.com/mapfiles/place_api/icons/v1/png_71/restaurant-71.png","icon_background_color":"#FF9E67","icon_mask_base_uri":"https://maps.gstatic.com/mapfiles/place_api/icons/v2/restaurant_pinlet","name":"Pizzeria Capobianco","opening_hours":{"open_now":false},"photos":[{"height":960,"html_attributions":["<a href=\"https://maps.google.com/maps/contrib/105349588180042974235\">Leon Florian</a>"],"photo_reference":"AeJbb3c6p3k2b1G-9f5aREtn-_wmSOCDoEF4OgRc1bcXjlcQOE2bCRKnIf98P5R0AF4a7mNCFMdZrpRQaGn_izPLTU5B5pTaVj2-X8kDq3ziqwXWD-uS0R5vBmCEScU3aCA-DYqyi8zf96tsafhu6L0bi1S44Ufu0YG9Dy_970L4dYAE6pR3","width":540}],"place_id":"ChIJW7IHJmXp9EcR-K-c9Gi2ECc","plus_code":{"compound_code":"PRC6+7G Oullins","global_code":"8FQ6PRC6+7G"},"price_level":1,"rating":4.5,"reference":"ChIJW7IHJmXp9EcR-K-c9Gi2ECc","types":["meal_takeaway","bar","restaurant","food","point_of_interest","establishment"],"user_ratings_total":230},{"business_status":"OPERATIONAL","formatted_address":"104 Rte d'Heyrieux, 69800 Saint-Priest","geometry":{"location":{"lat":45.6844443,"lng":4.9495377},"viewport":{"northeast":{"lat":45.68587262989272,"lng":4.950960479892722},"southwest":{"lat":45.68317297010727,"lng":4.948260820107278}}},"icon":"https://maps.gstatic.com/mapfiles/place_api/icons/v1/png_71/restaurant-71.png","icon_background_color":"#FF9E67","icon_mask_base_uri":"https://maps.gstatic.com/mapfiles/place_api/icons/v2/restaurant_pinlet","name":"La Pizzell ' Restaurant","opening_hours":{"open_now":false},"photos":[{"height":1920,"html_attributions":["<a href=\"https://maps.google.com/maps/contrib/113636911766378739253\">Bidzounette</a>"],"photo_reference":"AeJbb3c-B78R6kQCoxiesC5YSbBXtDeBH9IH0mUTWtvdlri5eIGcUiQlZRHrEoyizl83TV8KejW0VAGlvyOmUHLjhpsGbci4SWBbrpd8H3OJ_ZmLNLJ16u_eMWa9QrR2UDB5fYBHDExTRJKuuGzg5qvI7UHi5wPvmr3WS_mrV2pTQVTe5Jwa","width":990}],"place_id":"ChIJw8gR333E9EcR4DCR53-uxJA","plus_code":{"compound_code":"MWMX+QR Saint-Priest","global_code":"8FQ6MWMX+QR"},"rating":4.5,"reference":"ChIJw8gR333E9EcR4DCR53-uxJA","types":["meal_takeaway","restaurant","food","point_of_interest","establishment"],"user_ratings_total":164},{"business_status":"OPERATIONAL","formatted_address":"4 Rue Jouffroy d'Abbans, 69009 Lyon","geometry":{"location":{"lat":45.7751537,"lng":4.803783699999999},"viewport":{"northeast":{"lat":45.77655122989272,"lng":4.805164679892722},"southwest":{"lat":45.77385157010727,"lng":4.802465020107278}}},"icon":"https://maps.gstatic.com/mapfiles/place_api/icons/v1/png_71/restaurant-71.png","icon_background_color":"#FF9E67","icon_mask_base_uri":"https://maps.gstatic.com/mapfiles/place_api/icons/v2/restaurant_pinlet","name":"La Dolce Pizza","opening_hours":{"open_now":true},"photos":[{"height":2560,"html_attributions":["<a href=\"https://maps.google.com/maps/contrib/108343349392620343918\">Aurore Binet</a>"],"photo_reference":"AeJbb3cDfi_gYxXoUpdgn_FFBn84J7Ifc5cvqolhhw312i83N5XDLW9wlCfwqGPX4xDyrR_Zb8QDsq0Tm1jIg2fgz1veQwa0DIbbOyx42NUC07vu6fvGNqYH9eLl4-BXWmF3UROfrd_3MQDRHOhAfkwwbHucwtpLhVyB1IR79GqSJMMFWA79","width":1268}],"place_id":"ChIJT_BQGm7r9EcRFvVREXpUPeM","plus_code":{"compound_code":"QRG3+3F Lyon","global_code":"8FQ6QRG3+3F"},"price_level":1,"rating":4.5,"reference":"ChIJT_BQGm7r9EcRFvVREXpUPeM","types":["restaurant","food","point_of_interest","establishment"],"user_ratings_total":149},{"business_status":"OPERATIONAL","formatted_address":"130 Av. Jean Jaurès, 69150 Décines-Charpieu","geometry":{"location":{"lat":45.7694875,"lng":4.948231499999999},"viewport":{"northeast":{"lat":45.77086697989272,"lng":4.949572479892723},"southwest":{"lat":45.76816732010728,"lng":4.946872820107279}}},"icon":"https://maps.gstatic.com/mapfiles/place_api/icons/v1/png_71/restaurant-71.png","icon_background_color":"#FF9E67","icon_mask_base_uri":"https://maps.gstatic.com/mapfiles/place_api/icons/v2/restaurant_pinlet","name":"Pronto Pizzas Décines ( Rhône)","opening_hours":{"open_now":false},"photos":[{"height":809,"html_attributions":["<a href=\"https://maps.google.com/maps/contrib/109472270578204362126\">A Google User</a>"],"photo_reference":"AeJbb3doD-10vWl-ovEOpg3oOWPCZ_b2ulGmzvkVjnZNTm0-qQAf0uO6Y7HUITG_ik1VCdDQ1HK_RYRwD-mrwexd3-QT3dUcApDpQuxhLy4bVbyZN8BE3NrE9BenpuEqkYMUGmcM9jkG2nm8aflMYLSDZ6Fw5Lrw0RemM7dhds40D0rpQ_5m","width":1440}],"place_id":"ChIJmSoVXMXA9EcRWGTJHHem8yE","plus_code":{"compound_code":"QW9X+Q7 Décines-Charpieu","global_code":"8FQ6QW9X+Q7"},"price_level":1,"rating":4.5,"reference":"ChIJmSoVXMXA9EcRWGTJHHem8yE","types":["restaurant","food","point_of_interest","establishment"],"user_ratings_total":112},{"business_status":"OPERATIONAL","formatted_address":"17 Rue Claudia, 69002 Lyon","geometry":{"location":{"lat":45.764211,"lng":4.8376353},"viewport":{"northeast":{"lat":45.76556097989272,"lng":4.838963579892722},"southwest":{"lat":45.76286132010728,"lng":4.836263920107278}}},"icon":"https://maps.gstatic.com/mapfiles/place_api/icons/v1/png_71/restaurant-71.png","icon_background_color":"#FF9E67","icon_mask_base_uri":"https://maps.gstatic.com/mapfiles/place_api/icons/v2/restaurant_pinlet","name":"Roma Capitale - Pizzeria - Restaurant Italien Lyon 2 à cordeliers","opening_hours":{"open_now":false},"photos":[{"height":1024,"html_attributions":["<a href=\"https://maps.google.com/maps/contrib/109018769422671128413\">A Google User</a>"],"photo_reference":"AeJbb3ePZhsEqyKtX6OFvblhjo--6asQz0a0rH8F0kKKj5EyQiZN5Ej3HWoGEVlVmg2jZvcYHBoSqK8E92yIM0-k5cUyMrvneB1VkMmW2U_Qz9GhcmchNQt3NKFqZ563Ot7XKTglERqf9zgL4wZcR6UTPZhWCUXjjw_QTHp5CqVtcLNcb4qJ","width":768}],"place_id":"ChIJuUUmp4Dr9EcRzcF_yZrjhBA","plus_code":{"compound_code":"QR7Q+M3 Lyon","global_code":"8FQ6QR7Q+M3"},"rating":4.5,"reference":"ChIJuUUmp4Dr9EcRzcF_yZrjhBA","types":["restaurant","food","point_of_interest","establishment"],"user_ratings_total":56},{"business_status":"OPERATIONAL","formatted_address":"8 Rue Saint-Maurice, 69008 Lyon","geometry":{"location":{"lat":45.7440308,"lng":4.8679194},"viewport":{"northeast":{"lat":45.74537042989272,"lng":4.869311329892722},"southwest":{"lat":45.74267077010727,"lng":4.866611670107278}}},"icon":"https://maps.gstatic.com/mapfiles/place_api/icons/v1/png_71/restaurant-71.png","icon_background_color":"#FF9E67","icon_mask_base_uri":"https://maps.gstatic.com/mapfiles/place_api/icons/v2/restaurant_pinlet","name":"Pizza Lina","opening_hours":{"open_now":false},"photos":[{"height":3024,"html_attributions":["<a href=\"https://maps.google.com/maps/contrib/106229352584592576019\">A Google User</a>"],"photo_reference":"AeJbb3dV_nfMgne235zWBKQmAIBjgIkrv8GKTJrX_Lgn7GFFefo34pKEGG-t9H5nFgDoQnPnpTXZZJ8DbFGSUqTxbTcYteihkwLIIhc-O-KKX2NRsXAfluHg1bjvyfpYsO-tbjRzeywzZO6ax4lWVHb2hVUfPIfYDT7WGWJis7_bj7V6MtmH","width":4032}],"place_id":"ChIJpU6GSHXq9EcRm0yGO3oYhqU","plus_code":{"compound_code":"PVV9+J5 Lyon","global_code":"8FQ6PVV9+J5"},"price_level":1,"rating":4.4,"reference":"ChIJpU6GSHXq9EcRm0yGO3oYhqU","types":["meal_takeaway","restaurant","food","point_of_interest","establishment"],"user_ratings_total":289},{"business_status":"OPERATIONAL","formatted_address":"5 Quai Antoine Riboud, 69002 Lyon","geometry":{"location":{"lat":45.742843,"lng":4.8166617},"viewport":{"northeast":{"lat":45.74431367989273,"lng":4.817466129892722},"southwest":{"lat":45.74161402010728,"lng":4.814766470107278}}},"icon":"https://maps.gstatic.com/mapfiles/place_api/icons/v1/png_71/restaurant-71.png","icon_background_color":"#FF9E67","icon_mask_base_uri":"https://maps.gstatic.com/mapfiles/place_api/icons/v2/restaurant_pinlet","name":"L'atelier du Pizzaiolo","opening_hours":{"open_now":false},"photos":[{"height":1530,"html_attributions":["<a href=\"https://maps.google.com/maps/contrib/105255924751288709522\">L&#39;atelier du Pizzaiolo</a>"],"photo_reference":"AeJbb3e4_tl-W0Reo3J6qfPRZFKzfK1uVj0o7Kw8gdi7oEuedNmAua55Cr60KNZ0jsMzs-pf0lR4TcgQtAJtI_jPjYsDDw11Jh_Z-7vgnq1CGMgP378I55fNpQ1XN0I9pUHdH9HgkvAk7lryFC0-M65823YQ8px7ftj4uL9ToynOaWXYZEpM","width":2048}],"place_id":"ChIJFQjp8sjr9EcRnm0KMF868hk","plus_code":{"compound_code":"PRV8+4M Lyon","global_code":"8FQ6PRV8+4M"},"price_level":2,"rating":4.4,"reference":"ChIJFQjp8sjr9EcRnm0KMF868hk","types":["meal_takeaway","restaurant","food","point_of_interest","establishment"],"user_ratings_total":285},{"business_status":"OPERATIONAL","formatted_address":"269 Bis Rte de Genas, 69100 Villeurbanne","geometry":{"location":{"lat":45.7504634,"lng":4.9110507},"viewport":{"northeast":{"lat":45.75175897989272,"lng":4.912378579892722},"southwest":{"lat":45.74905932010727,"lng":4.909678920107278}}},"icon":"https://maps.gstatic.com/mapfiles/place_api/icons/v1/png_71/restaurant-71.png","icon_background_color":"#FF9E67","icon_mask_base_uri":"https://maps.gstatic.com/mapfiles/place_api/icons/v2/restaurant_pinlet","name":"Station pizza Route de Genas","opening_hours":{"open_now":true},"photos":[{"height":4032,"html_attributions":["<a href=\"https://maps.google.com/maps/contrib/105195098534322924838\">A Google User</a>"],"photo_reference":"AeJbb3cy633vpfVznhyuWdwEftxMUHiPDXF4NKf-Xa0JpGbGQkxHXM_aQod7lRi2XQMOttp9lit0YF4MsNhwOhMW0rbxJn0Bkj5do65dx29W-CAgbX07W3E5TW-QXIM-64V0yEZe4DxLvHS3QVc-rfj8dxplf2cUQkre1q0sXp2jLUFKbc-c","width":3024}],"place_id":"ChIJmf7vcUzB9EcRpNiF0Oizaro","plus_code":{"compound_code":"QW26+5C Villeurbanne","global_code":"8FQ6QW26+5C"},"price_level":2,"rating":4.4,"reference":"ChIJmf7vcUzB9EcRpNiF0Oizaro","types":["restaurant","food","point_of_interest","establishment"],"user_ratings_total":232},{"business_status":"OPERATIONAL","formatted_address":"35 Rue Léon Jouhaux, 69003 Lyon","geometry":{"location":{"lat":45.7566196,"lng":4.8539769},"viewport":{"northeast":{"lat":45.75796557989272,"lng":4.855290479892721},"southwest":{"lat":45.75526592010728,"lng":4.852590820107277}}},"icon":"https://maps.gstatic.com/mapfiles/place_api/icons/v1/png_71/restaurant-71.png","icon_background_color":"#FF9E67","icon_mask_base_uri":"https://maps.gstatic.com/mapfiles/place_api/icons/v2/restaurant_pinlet","name":"Uno Pizza Lyon","opening_hours":{"open_now":false},"photos":[{"height":1080,"html_attributions":["<a href=\"https://maps.google.com/maps/contrib/115932045906907412696\">A Google User</a>"],"photo_reference":"AeJbb3e1NDGrTIpVJJAOL_ucxpQh5GTCbe_mrl_dhyv-vaK4ZwlVuOZ2bq1IP-c07v3xKMAW6KxsoqZP1JJsvL3rBFbyFLf44jd3VXOi-vYkZ8Ko5YjCXQksCF9VmAXQjgC-7007d_SxP1Ys5MWkBXC0z-OJD3DQG8SatBCJVWdp-4nZZWZh","width":1620}],"place_id":"ChIJ8WFqkmbq9EcR_z1pFRvM7cs","plus_code":{"compound_code":"QV43+JH Lyon","global_code":"8FQ6QV43+JH"},"price_level":2,"rating":4.4,"reference":"ChIJ8WFqkmbq9EcR_z1pFRvM7cs","types":["meal_delivery","meal_takeaway","restaurant","food","point_of_interest","establishment"],"user_ratings_total":224},{"business_status":"OPERATIONAL","formatted_address":"159 Rue Challemel-Lacour, 69008 Lyon","geometry":{"location":{"lat":45.7297518,"lng":4.8533251},"viewport":{"northeast":{"lat":45.73109727989272,"lng":4.854792579892722},"southwest":{"lat":45.72839762010728,"lng":4.852092920107278}}},"icon":"https://maps.gstatic.com/mapfiles/place_api/icons/v1/png_71/restaurant-71.png","icon_background_color":"#FF9E67","icon_mask_base_uri":"https://maps.gstatic.com/mapfiles/place_api/icons/v2/restaurant_pinlet","name":"L'atelier Pizza","opening_hours":{"open_now":true},"photos":[{"height":1024,"html_attributions":["<a href=\"https://maps.google.com/maps/contrib/111923066216460987702\">A Google User</a>"],"photo_reference":"AeJbb3cQBwLNxOqai5NjwNIJfh5ROcU80Un0CZ-SGETvdYlVNV5myE0MPrxsLsO1J9hT5ijPWZ5zPkumq81U6wi4Dq-oWcm4WygwLtr5fIv5rNIKwyNNONk7e3qpTcmkATAmusYevvA9so6O8hD46KWmcs8OPGlU6bePNH57CXVywiEMSUxC","width":768}],"place_id":"ChIJO0FNgBzq9EcRs1QmZ8P_yHg","plus_code":{"compound_code":"PVH3+W8 Lyon","global_code":"8FQ6PVH3+W8"},"rating":4.4,"reference":"ChIJO0FNgBzq9EcRs1QmZ8P_yHg","types":["meal_delivery","restaurant","food","point_of_interest","establishment"],"user_ratings_total":189},{"business_status":"OPERATIONAL","formatted_address":"15 Rue de Boutras, 69520 Grigny","geometry":{"location":{"lat":45.60764229999999,"lng":4.7730282},"viewport":{"northeast":{"lat":45.60892767989272,"lng":4.774181679892722},"southwest":{"lat":45.60622802010728,"lng":4.771482020107278}}},"icon":"https://maps.gstatic.com/mapfiles/place_api/icons/v1/png_71/restaurant-71.png","icon_background_color":"#FF9E67","icon_mask_base_uri":"https://maps.gstatic.com/mapfiles/place_api/icons/v2/restaurant_pinlet","name":"Pizza Giro","opening_hours":{"open_now":true},"photos":[{"height":1152,"html_attributions":["<a href=\"https://maps.google.com/maps/contrib/109506363421460646764\">Pizza Giro</a>"],"photo_reference":"AeJbb3d4fYJ0Yhx5iHUHls3NNfZFoL7ZPkKFrPkRQEEpTlodAxce3J2PWuBoJv7nINZg11Pemz5qq5Lqk2E2p30i1LSY6mv3-xbYPuN2eIAQKo3ShBdsQSq8nFsdjtRsyduTo4NtdYCcOqjtRRCS49GPJbJfGOMQAEa4bjbfL-U0fU7xpQeZ","width":1536}],"place_id":"ChIJdbqgDI_m9EcR6H3-1YG4Egw","plus_code":{"compound_code":"JQ5F+36 Grigny","global_code":"8FQ6JQ5F+36"},"price_level":1,"rating":4.4,"reference":"ChIJdbqgDI_m9EcR6H3-1YG4Egw","types":["restaurant","food","point_of_interest","establishment"],"user_ratings_total":189},{"business_status":"OPERATIONAL","formatted_address":"24 Rue de Bourgogne, 69009 Lyon","geometry":{"location":{"lat":45.77686200000001,"lng":4.80413},"viewport":{"northeast":{"lat":45.77825127989273,"lng":4.805395579892722},"southwest":{"lat":45.77555162010728,"lng":4.802695920107278}}},"icon":"https://maps.gstatic.com/mapfiles/place_api/icons/v1/png_71/restaurant-71.png","icon_background_color":"#FF9E67","icon_mask_base_uri":"https://maps.gstatic.com/mapfiles/place_api/icons/v2/restaurant_pinlet","name":"Domeva Restaurant Et Pizzeria","opening_hours":{"open_now":false},"photos":[{"height":3024,"html_attributions":["<a href=\"https://maps.google.com/maps/contrib/107354071899189728712\">Restaurant italien Domeva Caffé Lyon Vaise</a>"],"photo_reference":"AeJbb3f8KM5JplZ0vpNyWQdgKw0oixvNpmy4ORx0FNacUSAblypyffv1y8ote-xEy99bw4cR1pJUokU-GPxvIxfFfDobTOyzu69tBlSYQZX8PLFrWlHgW-S3hjskpoExWu7S1C3Evhu-r6dxnLZ-EeqgEpwxPZgoIwQGXHD_eO6Sll-d2hgM","width":4032}],"place_id":"ChIJWV09Y27r9EcR30eI_ku7R8g","plus_code":{"compound_code":"QRG3+PM Lyon","global_code":"8FQ6QRG3+PM"},"price_level":2,"rating":4.3,"reference":"ChIJWV09Y27r9EcR30eI_ku7R8g","types":["cafe","meal_delivery","meal_takeaway","bar","restaurant","food","point_of_interest","establishment"],"user_ratings_total":857},{"business_status":"OPERATIONAL","formatted_address":"87 Grande Rue, 69600 Oullins","geometry":{"location":{"lat":45.7156703,"lng":4.809303799999999},"viewport":{"northeast":{"lat":45.71705577989272,"lng":4.810579679892721},"southwest":{"lat":45.71435612010728,"lng":4.807880020107278}}},"icon":"https://maps.gstatic.com/mapfiles/place_api/icons/v1/png_71/restaurant-71.png","icon_background_color":"#FF9E67","icon_mask_base_uri":"https://maps.gstatic.com/mapfiles/place_api/icons/v2/restaurant_pinlet","name":"Pizza Cosy","opening_hours":{"open_now":true},"photos":[{"height":4160,"html_attributions":["<a href=\"https://maps.google.com/maps/contrib/101682927897748887693\">Karim B.</a>"],"photo_reference":"AeJbb3d4tTbuwHp4IMdfBVuscAKWFkcUpuPGYh2Trs2O8KF6oPQhxOsZ_PiaJQ3frh3IUkLKWeCA_6746gq6X05xxCZ2BmImr6sWLSkYIRXr7gI3H7DZdE-c3rioCzNu-SczEezxOEF884Jr0THEXQ4mlG9d0HAVGSjn8E8KVDVXtHUe6SW4","width":3120}],"place_id":"ChIJQeFHljfp9EcRqb-PsyXemvU","plus_code":{"compound_code":"PR85+7P Oullins","global_code":"8FQ6PR85+7P"},"price_level":2,"rating":4.3,"reference":"ChIJQeFHljfp9EcRqb-PsyXemvU","types":["meal_delivery","meal_takeaway","restaurant","food","point_of_interest","establishment"],"user_ratings_total":536},{"business_status":"OPERATIONAL","formatted_address":"3 Rue Jacques Stella, 69002 Lyon","geometry":{"location":{"lat":45.7607323,"lng":4.836419999999999},"viewport":{"northeast":{"lat":45.76205437989272,"lng":4.837752679892724},"southwest":{"lat":45.75935472010728,"lng":4.83505302010728}}},"icon":"https://maps.gstatic.com/mapfiles/place_api/icons/v1/png_71/restaurant-71.png","icon_background_color":"#FF9E67","icon_mask_base_uri":"https://maps.gstatic.com/mapfiles/place_api/icons/v2/restaurant_pinlet","name":"Pizzéria La Stella d'Oro","opening_hours":{"open_now":false},"photos":[{"height":2620,"html_attributions":["<a href=\"https://maps.google.com/maps/contrib/111268053743481755986\">Insoola</a>"],"photo_reference":"AeJbb3dHor-qLYJTDoUq4u0-shAyeGwNuDE6rJhY3io_eVI-BsVIEheUH7kkk5nnvMH90K_tSV0qUG6LcxBU1-VDIr8ZDipJbL4K7l4H6kZvdG6dbPg9M1qC_jfi_2W6WW37bB8g8lpv31Y_f5IMSftUg2885FyXs3M9EKDWCVezgFZ_4hxx","width":4656}],"place_id":"ChIJ5XxT5Fbq9EcRugnVEjrxo4Q","plus_code":{"compound_code":"QR6P+7H Lyon","global_code":"8FQ6QR6P+7H"},"price_level":2,"rating":4.3,"reference":"ChIJ5XxT5Fbq9EcRugnVEjrxo4Q","types":["meal_takeaway","restaurant","food","point_of_interest","establishment"],"user_ratings_total":410},{"business_status":"OPERATIONAL","formatted_address":"19 Av. Jean Jaurès, 69007 Lyon","geometry":{"location":{"lat":45.7523183,"lng":4.8464756},"viewport":{"northeast":{"lat":45.75373297989272,"lng":4.847659129892722},"southwest":{"lat":45.75103332010728,"lng":4.844959470107278}}},"icon":"https://maps.gstatic.com/mapfiles/place_api/icons/v1/png_71/restaurant-71.png","icon_background_color":"#FF9E67","icon_mask_base_uri":"https://maps.gstatic.com/mapfiles/place_api/icons/v2/restaurant_pinlet","name":"Lyon Pizza","opening_hours":{"open_now":true},"photos":[{"height":1846,"html_attributions":["<a href=\"https://maps.google.com/maps/contrib/114626468906804582371\">A Google User</a>"],"photo_reference":"AeJbb3d1BXk-gPKYYjjRI6b9eEJLjwZHM3jid4o71-AsLV-qmYcNUU26UYW99DuWfy6XvhXZ0LfjAnuwG2XSZX-Jlybkqv8d-ldOG916vQqFglcmD2BnnI6z9BMaZ5M9e97xs8KhqsRtwEkSq_lTm1Y93E9cqDwy-aDdcqVyM60vCGgLIBBx","width":4000}],"place_id":"ChIJzwV-HkPq9EcR8AjeCdH-Pi8","plus_code":{"compound_code":"QR2W+WH Lyon","global_code":"8FQ6QR2W+WH"},"price_level":1,"rating":4.3,"reference":"ChIJzwV-HkPq9EcR8AjeCdH-Pi8","types":["meal_takeaway","meal_delivery","bar","restaurant","food","point_of_interest","establishment"],"user_ratings_total":158},{"business_status":"OPERATIONAL","formatted_address":"35 Grande Rue, 69110 Sainte-Foy-lès-Lyon","geometry":{"location":{"lat":45.7341676,"lng":4.8039201},"viewport":{"northeast":{"lat":45.73550282989272,"lng":4.805250629892721},"southwest":{"lat":45.73280317010727,"lng":4.802550970107277}}},"icon":"https://maps.gstatic.com/mapfiles/place_api/icons/v1/png_71/restaurant-71.png","icon_background_color":"#FF9E67","icon_mask_base_uri":"https://maps.gstatic.com/mapfiles/place_api/icons/v2/restaurant_pinlet","name":"Pizza Baron","opening_hours":{"open_now":true},"photos":[{"height":814,"html_attributions":["<a href=\"https://maps.google.com/maps/contrib/107095544034138716146\">A Google User</a>"],"photo_reference":"AeJbb3fa6E9CE57R5OBgLXYZH_JzDNoAwfIQ9I8FomnK1nr5zoMQ4k_eYEe-xGxUfraUCgzjOxzagprN0wseGxatqEbGV9lmZJlD8v-jn7RYO_SaXKIKCVvVgrRiJuhGKbno2rVX05YeCXCRaJJd1TB06CoeUhtbq2AtARNrvMPiXrE5pcVR","width":828}],"place_id":"ChIJvTx2XFPr9EcRht5-ilAfgLE","plus_code":{"compound_code":"PRM3+MH Sainte-Foy-lès-Lyon","global_code":"8FQ6PRM3+MH"},"rating":4.3,"reference":"ChIJvTx2XFPr9EcRht5-ilAfgLE","types":["restaurant","food","point_of_interest","establishment"],"user_ratings_total":46},{"business_status":"OPERATIONAL","formatted_address":"302 Av. Jean Jaurès, 69150 Décines-Charpieu","geometry":{"location":{"lat":45.7713001,"lng":4.9666256},"viewport":{"northeast":{"lat":45.77266937989272,"lng":4.967963379892723},"southwest":{"lat":45.76996972010728,"lng":4.965263720107279}}},"icon":"https://maps.gstatic.com/mapfiles/place_api/icons/v1/png_71/restaurant-71.png","icon_background_color":"#FF9E67","icon_mask_base_uri":"https://maps.gstatic.com/mapfiles/place_api/icons/v2/restaurant_pinlet","name":"Restaurant Et Pizza Au Feu De Bois","place_id":"ChIJv3XaQTHH9EcRl-PWR74GGqg","plus_code":{"compound_code":"QXC8+GM Décines-Charpieu","global_code":"8FQ6QXC8+GM"},"rating":4.3,"reference":"ChIJv3XaQTHH9EcRl-PWR74GGqg","types":["restaurant","food","point_of_interest","establishment"],"user_ratings_total":10},{"business_status":"OPERATIONAL","formatted_address":"49 Av. Berthelot, 69007 Lyon","geometry":{"location":{"lat":45.745936,"lng":4.8400721},"viewport":{"northeast":{"lat":45.74724792989272,"lng":4.841395879892722},"southwest":{"lat":45.74454827010727,"lng":4.838696220107278}}},"icon":"https://maps.gstatic.com/mapfiles/place_api/icons/v1/png_71/restaurant-71.png","icon_background_color":"#FF9E67","icon_mask_base_uri":"https://maps.gstatic.com/mapfiles/place_api/icons/v2/restaurant_pinlet","name":"Le Vivaldi - Nicolò e Maria - Pizzeria - Restaurant Italien Lyon 7","opening_hours":{"open_now":false},"photos":[{"height":2976,"html_attributions":["<a href=\"https://maps.google.com/maps/contrib/106493180835331242572\">G. advjo²</a>"],"photo_reference":"AeJbb3f2bG64F_8pIRuItHejBoSHBreQe65BqhQooK8vgLd0qO3ykaVTvApHSrSa3Yiv1k3p5XfcIwnJZCKn8aa9cSEnpFioNApnV58Fbf6DKDAc5AKUSm0tJr5ShxlO0DKdC547SUBeEg_U7UaVyf8vGG4VfpgvSh6x7T8zQb2L6vYc5cc9","width":3968}],"place_id":"ChIJRVZsC0fq9EcRa40nQcWs9gs","plus_code":{"compound_code":"PRWR+92 Lyon","global_code":"8FQ6PRWR+92"},"price_level":2,"rating":4.2,"reference":"ChIJRVZsC0fq9EcRa40nQcWs9gs","types":["meal_takeaway","restaurant","food","point_of_interest","establishment"],"user_ratings_total":504},{"business_status":"OPERATIONAL","formatted_address":"14bis Rue Marietton, 69009 Lyon","geometry":{"location":{"lat":45.7753042,"lng":4.806297499999999},"viewport":{"northeast":{"lat":45.77658407989272,"lng":4.807645229892722},"southwest":{"lat":45.77388442010728,"lng":4.804945570107278}}},"icon":"https://maps.gstatic.com/mapfiles/place_api/icons/v1/png_71/restaurant-71.png","icon_background_color":"#FF9E67","icon_mask_base_uri":"https://maps.gstatic.com/mapfiles/place_api/icons/v2/restaurant_pinlet","name":"Pizza Pasta","opening_hours":{"open_now":false},"photos":[{"height":6944,"html_attributions":["<a href=\"https://maps.google.com/maps/contrib/116879518522385561528\">Mafia Street</a>"],"photo_reference":"AeJbb3fZuhEethYbPbB8gi4uB0HM79Ipp5uTUiOkb5eLoMMjivCDFsvby_v5t6KXQ7UToSESVo0RDaUdb8n3LM5WrMnz-7A_Wy4qsmUYsH5WqftkTaFIi0DmFx4Jz5tSAdTIxQ3S9FvwkBOtMJeBEuZM-cI1a8lDJTWDIIof6dvEccUShzYm","width":9248}],"place_id":"ChIJU9IYjm3r9EcRHyTwTpNmPNA","plus_code":{"compound_code":"QRG4+4G Lyon","global_code":"8FQ6QRG4+4G"},"rating":4.2,"reference":"ChIJU9IYjm3r9EcRHyTwTpNmPNA","types":["meal_takeaway","restaurant","food","point_of_interest","establishment"],"user_ratings_total":288},{"business_status":"OPERATIONAL","formatted_address":"21 Quai Romain Rolland, 69005 Lyon","geometry":{"location":{"lat":45.7624057,"lng":4.8287454},"viewport":{"northeast":{"lat":45.76376627989272,"lng":4.830168729892723},"southwest":{"lat":45.76106662010728,"lng":4.827469070107279}}},"icon":"https://maps.gstatic.com/mapfiles/place_api/icons/v1/png_71/restaurant-71.png","icon_background_color":"#FF9E67","icon_mask_base_uri":"https://maps.gstatic.com/mapfiles/place_api/icons/v2/restaurant_pinlet","name":"L’AS de PIZZ - Pizzeria du Vieux-Lyon","opening_hours":{"open_now":false},"photos":[{"height":3024,"html_attributions":["<a href=\"https://maps.google.com/maps/contrib/117846492294045415756\">Joannick Azama</a>"],"photo_reference":"AeJbb3fZ5oXqFRgEfF61tYxU1eDqTcTumTzG7be6gsdS_qE1I7lgDZajtZWYB2WwNyFjJOdgJoGuf3db3VsPJKcgEY7ZgrrUvXJZFQxaaHSuEjtt7BaLsspZQ43I0YLEZtIfsxHx4c3U-b9yh-FF6ZHNryF8_DT2Co5UZFnVuQJdRQpCeRg","width":4032}],"place_id":"ChIJob7xxKrr9EcR31aIgDQvv9s","plus_code":{"compound_code":"QR6H+XF Lyon","global_code":"8FQ6QR6H+XF"},"price_level":1,"rating":4.2,"reference":"ChIJob7xxKrr9EcR31aIgDQvv9s","types":["meal_takeaway","meal_delivery","restaurant","food","point_of_interest","establishment"],"user_ratings_total":73},{"business_status":"OPERATIONAL","formatted_address":"6 Rue Désirée, 69001 Lyon","geometry":{"location":{"lat":45.7684124,"lng":4.835088799999999},"viewport":{"northeast":{"lat":45.76978742989273,"lng":4.836145179892723},"southwest":{"lat":45.76708777010728,"lng":4.833445520107278}}},"icon":"https://maps.gstatic.com/mapfiles/place_api/icons/v1/png_71/restaurant-71.png","icon_background_color":"#FF9E67","icon_mask_base_uri":"https://maps.gstatic.com/mapfiles/place_api/icons/v2/restaurant_pinlet","name":"Pizzeria La Focaccia","opening_hours":{"open_now":false},"photos":[{"height":4032,"html_attributions":["<a href=\"https://maps.google.com/maps/contrib/114740526093004067010\">Bilal El Hachmioui</a>"],"photo_reference":"AeJbb3d6VYD-HKO78sFUXTDANrYOWzzZQy_hKhcWWgbIJYeFxtBi7l_hpJ1S6Uj8DvLe8X8jRfZwpN-16BeoZSCFSp6mQBZ-Irl25TT9VHjgNEHoO4H8B8oodlOHo0AXp7iQmId6GHYyH_jT3k7vC_yESifuuehjjrkmTj00gxPcMiF3sjCm","width":3024}],"place_id":"ChIJydqlq_7q9EcRm52kdjaf7Ro","plus_code":{"compound_code":"QR9P+92 Lyon","global_code":"8FQ6QR9P+92"},"price_level":2,"rating":3.9,"reference":"ChIJydqlq_7q9EcRm52kdjaf7Ro","types":["meal_takeaway","restaurant","food","point_of_interest","establishment"],"user_ratings_total":334},{"business_status":"OPERATIONAL","formatted_address":"RN 86 D386, Les Sept Chemins, 69390 Vourles","geometry":{"location":{"lat":45.654374,"lng":4.750738},"viewport":{"northeast":{"lat":45.65574472989272,"lng":4.752024929892723},"southwest":{"lat":45.65304507010728,"lng":4.749325270107279}}},"icon":"https://maps.gstatic.com/mapfiles/place_api/icons/v1/png_71/restaurant-71.png","icon_background_color":"#FF9E67","icon_mask_base_uri":"https://maps.gstatic.com/mapfiles/place_api/icons/v2/restaurant_pinlet","name":"Pizzamore Pizzeria Trattoria","opening_hours":{"open_now":false},"photos":[{"height":460,"html_attributions":["<a href=\"https://maps.google.com/maps/contrib/118003622646916169099\">PizzaMore</a>"],"photo_reference":"AeJbb3cvEkXdyCE_AOzyiv2BdazFWY02_saTRhSpQ8QhAQzBLKsUgFyfUoYWS_fwd46gjSd_lSPXlMcZ_wf0hguKBLsyMYGPt70b-W3qUw89MidiFWsgoFh7xTaKVZSeJxa_CL8fCcbDx23xDcjxp51nImZ4zemvcyeFHmUbQCHwiy3hV4Jv","width":840}],"place_id":"ChIJRZRuaV_v9EcRxWfo8VzraaU","plus_code":{"compound_code":"MQ32+P7 Vourles","global_code":"8FQ6MQ32+P7"},"rating":3.9,"reference":"ChIJRZRuaV_v9EcRxWfo8VzraaU","types":["lodging","meal_takeaway","restaurant","food","point_of_interest","establishment"],"user_ratings_total":238},{"business_status":"OPERATIONAL","formatted_address":"34 Rue Tupin, 69002 Lyon","geometry":{"location":{"lat":45.762865,"lng":4.8352409},"viewport":{"northeast":{"lat":45.76419442989273,"lng":4.836597429892721},"southwest":{"lat":45.76149477010728,"lng":4.833897770107277}}},"icon":"https://maps.gstatic.com/mapfiles/place_api/icons/v1/png_71/restaurant-71.png","icon_background_color":"#FF9E67","icon_mask_base_uri":"https://maps.gstatic.com/mapfiles/place_api/icons/v2/restaurant_pinlet","name":"Pizza Papa","opening_hours":{"open_now":false},"photos":[{"height":2268,"html_attributions":["<a href=\"https://maps.google.com/maps/contrib/116045817185804470813\">עפרי</a>"],"photo_reference":"AeJbb3eO3Q5-YxjuXXrAwS32vBf5L0QfAwYje3dPl3a80ZxwgGM09KxoowhxJf1BFY_NMZi1MHzwT8vgoHPtiXdp0Zr-N_MPuvvmW4w2jKcCR64LDR6tky4Z_cNSQ8mkylU2GNCo95atTIysNPZ6BhAEvVZSehyGLn_Wkcgs27VRJbAgHCI5","width":4032}],"place_id":"ChIJC2clDFbq9EcRLNEh4B3fXoc","plus_code":{"compound_code":"QR7P+44 Lyon","global_code":"8FQ6QR7P+44"},"price_level":2,"rating":3.8,"reference":"ChIJC2clDFbq9EcRLNEh4B3fXoc","types":["meal_takeaway","restaurant","food","point_of_interest","establishment"],"user_ratings_total":1012},{"business_status":"OPERATIONAL","formatted_address":"20 Pl. des Maisons Neuves, 69100 Villeurbanne","geometry":{"location":{"lat":45.7554311,"lng":4.8765546},"viewport":{"northeast":{"lat":45.75679007989272,"lng":4.877974129892721},"southwest":{"lat":45.75409042010727,"lng":4.875274470107278}}},"icon":"https://maps.gstatic.com/mapfiles/place_api/icons/v1/png_71/restaurant-71.png","icon_background_color":"#FF9E67","icon_mask_base_uri":"https://maps.gstatic.com/mapfiles/place_api/icons/v2/restaurant_pinlet","name":"Marinelo Pizza","opening_hours":{"open_now":false},"photos":[{"height":2884,"html_attributions":["<a href=\"https://maps.google.com/maps/contrib/103486633977453720085\">Marine Prost</a>"],"photo_reference":"AeJbb3cl5eU76VU6rDytBigFuufmqH2bkQH49dyYCt0uaYqgH3m7zDlTWzdWiaiYZQZB3WIUjY8YEe04NtNtvF1sQPKt4ZOfNJ5WwXlxX0y3JSeEvp2x3AD0deE0VKzZ5tlah_eNGPRCh6X48ODb7EfKIt7KMnUUaKdPsloYIFtLZHhwQoke","width":2831}],"place_id":"ChIJyXtSHtHB9EcRfB4UkVL0kSg","plus_code":{"compound_code":"QV4G+5J Villeurbanne","global_code":"8FQ6QV4G+5J"},"rating":3.8,"reference":"ChIJyXtSHtHB9EcRfB4UkVL0kSg","types":["meal_takeaway","restaurant","food","point_of_interest","establishment"],"user_ratings_total":71},{"business_status":"OPERATIONAL","formatted_address":"106 Rue du Président Édouard Herriot, 69002 Lyon","geometry":{"location":{"lat":45.7581375,"lng":4.833671},"viewport":{"northeast":{"lat":45.75946897989272,"lng":4.835047179892722},"southwest":{"lat":45.75676932010727,"lng":4.832347520107279}}},"icon":"https://maps.gstatic.com/mapfiles/place_api/icons/v1/png_71/restaurant-71.png","icon_background_color":"#FF9E67","icon_mask_base_uri":"https://maps.gstatic.com/mapfiles/place_api/icons/v2/restaurant_pinlet","name":"Pizza Pino","opening_hours":{"open_now":true},"photos":[{"height":2896,"html_attributions":["<a href=\"https://maps.google.com/maps/contrib/107393917201564556530\">Alok Soni</a>"],"photo_reference":"AeJbb3dHIEBiRQAPt8-kWK2MMXBgNLZSja1PwYy8HAco8MiANCW9R5wzxAiM0TitrWH-QNiCsQY3g8dAM4ndvc5jtUBoTMF4MBPzvBHcD2PRV73ndUmIO3aORfE95AZtBeNovDf9IMEvKSSPJnf1NY9GrXdl_EqLSFwakE2LOZEQailsW76T","width":5152}],"place_id":"ChIJPxtQ4FPq9EcRE2rVPqDecCQ","plus_code":{"compound_code":"QR5M+7F Lyon","global_code":"8FQ6QR5M+7F"},"price_level":2,"rating":3.6,"reference":"ChIJPxtQ4FPq9EcRE2rVPqDecCQ","types":["meal_takeaway","restaurant","food","point_of_interest","establishment"],"user_ratings_total":3902}]