[{"business_status":"OPERATIONAL","formatted_address":"13 Imp. Secret, 69005 Lyon","geometry":{"location":{"lat":45.7550152,"lng":4.7947768},"viewport":{"northeast":{"lat":45.75637517989272,"lng":4.796093979892722},"southwest":{"lat":45.75367552010728,"lng":4.793394320107278}}},"icon":"https://maps.gstatic.com/mapfiles/place_api/icons/v1/png_71/restaurant-71.png","icon_background_color":"#FF9E67","icon_mask_base_uri":"https://maps.gstatic.com/mapfiles/place_api/icons/v2/restaurant_pinlet","name":"Papapizz","opening_hours":{"open_now":false},"photos":[{"height":3096,"html_attributions":["<a href=\"https://maps.google.com/maps/contrib/105655856366899939592\">A Google User</a>"],"photo_reference":"AeJbb3cLEUSOzMOjVaQOaPll8eqTnp9oe63ziK3-aZvCCqzfBBjSbXPs4KzrlX25i32eS1tYSjHYzrmC4iw6r3FNl9XEC1cH54-oafs461lo7jlrRXjYa-WzTbXBJaqmq-9EVAmKqbGQpUzP7lISD_VxP9t_zR7ZrNxNQFOKGlw8xLAAAOIx","width":4128}],"place_id":"ChIJI1p1NA7r9EcRtOFUissHKnI","plus_code":{"compound_code":"QQ4V+2W Lyon","global_code":"8FQ6QQ4V+2W"},"rating":5,"reference":"ChIJI1p1NA7r9EcRtOFUissHKnI","types":["restaurant","food","point_of_interest","establishment"],"user_ratings_total":161},{"business_status":"OPERATIONAL","formatted_address":"149 Rue Francis de Pressensé, 69100 Villeurbanne","geometry":{"location":{"lat":45.7716343,"lng":4.8823513},"viewport":{"northeast":{"lat":45.77291347989271,"lng":4.883686829892723},"southwest":{"lat":45.77021382010727,"lng":4.880987170107279}}},"icon":"https://maps.gstatic.com/mapfiles/place_api/icons/v1/png_71/restaurant-71.png","icon_background_color":"#FF9E67","icon_mask_base_uri":"https://maps.gstatic.com/mapfiles/place_api/icons/v2/restaurant_pinlet","name":"Net Pizza Lyon","opening_hours":{"open_now":false},"photos":[{"height":1562,"html_attributions":["<a href=\"https://maps.google.com/maps/contrib/102351970299045230913\">A Google User</a>"],"photo_reference":"AeJbb3fA6x932A6Pdfgz1O2jT-FpuHYoYi_2muc_liCQMStU_wNQsHnDWvwqr4hVlfHuza0Q7JedScnupmsnDEB2IWTr3mSw0iHqIjKMraTWb1TABwTASv9y42UsP0Ze_bz8RHf1xpad1YsqfmKsjXzwQVy2niumyn7ddWfHP7Rh3CoHllpz","width":1194}],"place_id":"ChIJc5aeHjPB9EcRV5AyeA5lCz8","plus_code":{"compound_code":"QVCJ+MW Villeurbanne","global_code":"8FQ6QVCJ+MW"},"rating":5,"reference":"ChIJc5aeHjPB9EcRV5AyeA5lCz8","types":["restaurant","food","point_of_interest","establishment"],"user_ratings_total":30},{"business_status":"OPERATIONAL","formatted_address":"65 Rte du Pont Chabrol, 69126 Brindas","geometry":{"location":{"lat":45.7325788,"lng":4.7078222},"viewport":{"northeast":{"lat":45.73389872989272,"lng":4.709197379892721},"southwest":{"lat":45.73119907010727,"lng":4.706497720107278}}},"icon":"https://maps.gstatic.com/mapfiles/place_api/icons/v1/png_71/restaurant-71.png","icon_background_color":"#FF9E67","icon_mask_base_uri":"https://maps.gstatic.com/mapfiles/place_api/icons/v2/restaurant_pinlet","name":"Casa Mia Pizza BRINDAS","opening_hours":{"open_now":false},"photos":[{"height":1721,"html_attributions":["<a href=\"https://maps.google.com/maps/contrib/107257915359234994808\">Casa Mia</a>"],"photo_reference":"AeJbb3cwJc_QyAE5exUzJJqAJiJLIPFkJDwOj3c8w31ZJ3NHhhHaT1RR-7jmTygE0B7XFF6XWIcC-CE-YtrlkQIf-pKKp84rE3_DZDzfXKXWI88smZyYLwKBvbZQiKl0fXo-rgMIMc5-6UqXWdCyDtEsfKdb6HGXTxS6YmrxjRGAU61c2rRS","width":2598}],"place_id":"ChIJl_9jweLt9EcRzYSiYf79OiY","plus_code":{"compound_code":"PPM5+24 Brindas","global_code":"8FQ6PPM5+24"},"price_level":1,"rating":4.9,"reference":"ChIJl_9jweLt9EcRzYSiYf79OiY","types":["restaurant","food","point_of_interest","establishment"],"user_ratings_total":407},{"business_status":"OPERATIONAL","formatted_address":"424 Cr Emile Zola, 69100 Villeurbanne","geometry":{"location":{"lat":45.7637019,"lng":4.910493},"viewport":{"northeast":{"lat":45.76508982989272,"lng":4.911858179892722},"southwest":{"lat":45.76239017010728,"lng":4.909158520107278}}},"icon":"https://maps.gstatic.com/mapfiles/place_api/icons/v1/png_71/restaurant-71.png","icon_background_color":"#FF9E67","icon_mask_base_uri":"https://maps.gstatic.com/mapfiles/place_api/icons/v2/restaurant_pinlet","name":"Pizza Leo","opening_hours":{"open_now":false},"photos":[{"height":673,"html_attributions":["<a href=\"https://maps.google.com/maps/contrib/100900654485080995617\">A Google User</a>"],"photo_reference":"AeJbb3ekKgpOMQ4WdDukCdd374H3QcR85QorBrNROOqEIsFSKOg62ZBJjz4idlgMn8naAgy572Mnf9CH5NqkC1lDRKbASfHRfoCymoi33Ax_gER8aLZtoopznHwzKn3Mo6ePFygyilSf5FgAvEdYm7wmrT91WDetcgpMta5quPQZ3WSpjy83","width":1200}],"place_id":"ChIJ3cRIdiXA9EcRYVjihwowGOE","plus_code":{"compound_code":"QW76+F5 Villeurbanne","global_code":"8FQ6QW76+F5"},"price_level":1,"rating":4.9,"reference":"ChIJ3cRIdiXA9EcRYVjihwowGOE","types":["restaurant","food","point_of_interest","establishment"],"user_ratings_total":112},{"business_status":"OPERATIONAL","formatted_address":"127 Rue des Charmettes, 69006 Lyon","geometry":{"location":{"lat":45.7646037,"lng":4.8672227},"viewport":{"northeast":{"lat":45.76595502989272,"lng":4.868498329892722},"southwest":{"lat":45.76325537010727,"lng":4.865798670107278}}},"icon":"https://maps.gstatic.com/mapfiles/place_api/icons/v1/png_71/restaurant-71.png","icon_background_color":"#FF9E67","icon_mask_base_uri":"https://maps.gstatic.com/mapfiles/place_api/icons/v2/restaurant_pinlet","name":"Villa Pizza","opening_hours":{"open_now":false},"photos":[{"height":2048,"html_attributions":["<a href=\"https://maps.google.com/maps/contrib/110949238708686376496\">A Google User</a>"],"photo_reference":"AeJbb3dbCbPPzaaR8ReGHkgYpF0L83jjTdJ0Fzpr6hJNau038Tsm325WMiZT9FY1tlXrHTlv4twLFT0QPIrPzdtE_zeIoZPUlzHpY72mQB2D4MhtXjpB8RcN_x7KDtC4kcLDvqEzwTsndVr7m1lZgKVaO5O73KfmzvbqB1fCLtU0r2lA3xDL","width":1536}],"place_id":"ChIJ33cywSrr9EcRdfa7PHPV79w","plus_code":{"compound_code":"QV78+RV Lyon","global_code":"8FQ6QV78+RV"},"rating":4.9,"reference":"ChIJ33cywSrr9EcRdfa7PHPV79w","types":["meal_takeaway","meal_delivery","restaurant","food","point_of_interest","establishment"],"user_ratings_total":31},{"business_status":"OPERATIONAL","formatted_address":"14 Av. Jean Jaurès, 69600 Oullins","geometry":{"location":{"lat":45.7171964,"lng":4.8186478},"viewport":{"northeast":{"lat":45.71855182989272,"lng":4.820042879892723},"southwest":{"lat":45.71585217010728,"lng":4.817343220107279}}},"icon":"https://maps.gstatic.com/mapfiles/place_api/icons/v1/png_71/restaurant-71.png","icon_background_color":"#FF9E67","icon_mask_base_uri":"https://maps.gstatic.com/mapfiles/place_api/icons/v2/restaurant_pinlet","name":"Pizz’Ô Bois","opening_hours":{"open_now":false},"photos":[{"height":3024,"html_attributions":["<a href=\"https://maps.google.com/maps/contrib/102795422784009393925\">A Google User</a>"],"photo_reference":"AeJbb3eEkWvQC4Xpbs6okOEifGiuqK3DJEwVc3QUNrshIr4ww7ra_ROkYhsu3I97OwlrUQC5YzLOkCrYLQNX6-7IvxfzkBfwTIU3uW0rYbVK9Wm_VKcTbRR1miZskgABEWvgoxdTDnbQ23hJ9q55oVOASXfaw5y8iHNf4cb4NqOFaOrzIaBy","width":3024}],"place_id":"ChIJKbHxJtjp9EcRft4Ig6EtfmM","plus_code":{"compound_code":"PR89+VF Oullins","global_code":"8FQ6PR89+VF"},"rating":4.8,"reference":"ChIJKbHxJtjp9EcRft4Ig6EtfmM","types":["restaurant","food","point_of_interest","establishment"],"user_ratings_total":368},{"business_status":"OPERATIONAL","formatted_address":"140 Rue Pré Magné, 69126 Brindas","geometry":{"location":{"lat":45.7193165,"lng":4.6976882},"viewport":{"northeast":{"lat":45.72064637989273,"lng":4.699178929892723},"southwest":{"lat":45.71794672010728,"lng":4.696479270107279}}},"icon":"https://maps.gstatic.com/mapfiles/place_api/icons/v1/png_71/restaurant-71.png","icon_background_color":"#FF9E67","icon_mask_base_uri":"https://maps.gstatic.com/mapfiles/place_api/icons/v2/restaurant_pinlet","name":"Pizza Verone","opening_hours":{"open_now":false},"photos":[{"height":3024,"html_attributions":["<a href=\"https://maps.google.com/maps/contrib/103145337319177199603\">A Google User</a>"],"photo_reference":"AeJbb3fD0bUqW-j3DD44aQi4ePcWyAIAJQ5eiXiIUgpumPOr_ftGSknU-SuhbU7fCXG68Ji-iMuXbmvsrCTcWKdxYXji1BX-U0MgCy2Q4_CJEf_Uyf1TXjXTO4n61I5ji8LBxnM-YyZEn7I48IsDroaj3AZ5vbp1xVmegisMW0dgvsv-FEr-","width":4032}],"place_id":"ChIJ3YDiaBzu9EcR2unpR2N7DVM","plus_code":{"compound_code":"PM9X+P3 Brindas","global_code":"8FQ6PM9X+P3"},"rating":4.8,"reference":"ChIJ3YDiaBzu9EcR2unpR2N7DVM","types":["restaurant","food","point_of_interest","establishment"],"user_ratings_total":235},{"business_status":"OPERATIONAL","formatted_address":"23 Rue Pailleron, 69004 Lyon","geometry":{"location":{"lat":45.7795214,"lng":4.834369199999999},"viewport":{"northeast":{"lat":45.78087917989271,"lng":4.835717679892722},"southwest":{"lat":45.77817952010727,"lng":4.833018020107279}}},"icon":"https://maps.gstatic.com/mapfiles/place_api/icons/v1/png_71/restaurant-71.png","icon_background_color":"#FF9E67","icon_mask_base_uri":"https://maps.gstatic.com/mapfiles/place_api/icons/v2/restaurant_pinlet","name":"Pizzeria Bocca Di Rosa","opening_hours":{"open_now":false},"photos":[{"height":3840,"html_attributions":["<a href=\"https://maps.google.com/maps/contrib/117277618357734800523\">double pressure</a>"],"photo_reference":"AeJbb3foxFYuRT3Y040L8TRaWKF5cCYGa7FpQzD1p13OP2YYKwfjJ_uhZIcKtmLOZrdJc29hREMNZu9OwFWHaheJPC3rbgw9hjPjfm5u4E1km8NbRs0jlwjvpELy9RK2Pq2gxsMY2KaXVSVJmegcLlGiuOY54F3XpwwTvkPLOdtfr7ECwrMX","width":2160}],"place_id":"ChIJ6dW5o-Hq9EcRTfL-PG7RZoA","plus_code":{"compound_code":"QRHM+RP Lyon","global_code":"8FQ6QRHM+RP"},"price_level":2,"rating":4.8,"reference":"ChIJ6dW5o-Hq9EcRTfL-PG7RZoA","types":["liquor_store","restaurant","food","point_of_interest","store","establishment"],"user_ratings_total":165},{"business_status":"OPERATIONAL","formatted_address":"7 Rue Léon Blum, 69100 Villeurbanne","geometry":{"location":{"lat":45.7596104,"lng":4.891716499999999},"viewport":{"northeast":{"lat":45.76092737989272,"lng":4.893110879892721},"southwest":{"lat":45.75822772010728,"lng":4.890411220107278}}},"icon":"https://maps.gstatic.com/mapfiles/place_api/icons/v1/png_71/restaurant-71.png","icon_background_color":"#FF9E67","icon_mask_base_uri":"https://maps.gstatic.com/mapfiles/place_api/icons/v2/restaurant_pinlet","name":"Pizza Panozzo","opening_hours":{"open_now":false},"photos":[{"height":4480,"html_attributions":["<a href=\"https://maps.google.com/maps/contrib/104860972834995268704\">A Google User</a>"],"photo_reference":"AeJbb3c_53MMR3xsL4LwE9HOpVdeFKT23Jb1paP4n8wtx29hFgzwCdxBbNEYUVVuTk3vsI4EBbDnVDT9BIcWd-Pv31R1XNa2a_xg9qtxMKcrRFqJ_t1J9LNti_23JKQDCGxEv4IY21cQ-rTIguUsPMM94Chez2NeHvbZH_s-gNs8wS101jlN","width":6720}],"place_id":"ChIJH5pq3YLB9EcRIFdYZN1gRQc","plus_code":{"compound_code":"QV5R+RM Villeurbanne","global_code":"8FQ6QV5R+RM"},"rating":4.8,"reference":"ChIJH5pq3YLB9EcRIFdYZN1gRQc","types":["restaurant","food","point_of_interest","establishment"],"user_ratings_total":102},{"business_status":"OPERATIONAL","formatted_address":"18 Rue Louis Goux, 69100 Villeurbanne","geometry":{"location":{"lat":45.7660007,"lng":4.8915856},"viewport":{"northeast":{"lat":45.76736187989272,"lng":4.892979379892722},"southwest":{"lat":45.76466222010728,"lng":4.890279720107278}}},"icon":"https://maps.gstatic.com/mapfiles/place_api/icons/v1/png_71/restaurant-71.png","icon_background_color":"#FF9E67","icon_mask_base_uri":"https://maps.gstatic.com/mapfiles/place_api/icons/v2/restaurant_pinlet","name":"MAKE PIZZA","opening_hours":{"open_now":false},"photos":[{"height":3648,"html_attributions":["<a href=\"https://maps.google.com/maps/contrib/117777127647535773500\">Bree Law</a>"],"photo_reference":"AeJbb3cmkCwN7OZqUqHdDC_nsoq_Aiu2NmNeY_eeM5EXSn2CP5ItNc4TqGqW2uz1GWtiEaUvRX-_YnQTkY2imxaupiQEAORmYKjgATZU65AJrroODQMlOA2NpRkZlrULKvAljhspvRG9FM9OIbC2m_rnljSlvP7ZpJJnqWsA3OtPZTnZfMbq","width":2736}],"place_id":"ChIJb9w1KzTA9EcRq9gLZwD4flI","plus_code":{"compound_code":"QV8R+CJ Villeurbanne","global_code":"8FQ6QV8R+CJ"},"rating":4.8,"reference":"ChIJb9w1KzTA9EcRq9gLZwD4flI","types":["restaurant","food","point_of_interest","establishment"],"user_ratings_total":30},{"business_status":"OPERATIONAL","formatted_address":"61 Cr Albert Thomas, 69003 Lyon","geometry":{"location":{"lat":45.7474546,"lng":4.866406100000001},"viewport":{"northeast":{"lat":45.74870947989272,"lng":4.867701329892723},"southwest":{"lat":45.74600982010728,"lng":4.865001670107278}}},"icon":"https://maps.gstatic.com/mapfiles/place_api/icons/v1/png_71/restaurant-71.png","icon_background_color":"#FF9E67","icon_mask_base_uri":"https://maps.gstatic.com/mapfiles/place_api/icons/v2/restaurant_pinlet","name":"Pizza Cosy","opening_hours":{"open_now":false},"photos":[{"height":3000,"html_attributions":["<a href=\"https://maps.google.com/maps/contrib/116247046909451735376\">zonekey8 zonekey8</a>"],"photo_reference":"AeJbb3ecQf0Hh16Cb7DpdigS2z4TIysXW-C3-X8LyRtNX4DMWiZBjqPs4pfm1BgS9it4yLlSXZE-r4UfwJ_q90fTMtpK9SupoW7oKU2i_8KaW4OP2sHqidMWtEOVSSCYBeq8uEH-BlFyeOIiMA2I7T4-5g7UDKm4AfMADVGM2ECLrjthwBUR","width":4000}],"place_id":"ChIJw67y7n3r9EcR1kUWxz0BZrc","plus_code":{"compound_code":"PVW8+XH Lyon","global_code":"8FQ6PVW8+XH"},"price_level":2,"rating":4.7,"reference":"ChIJw67y7n3r9EcR1kUWxz0BZrc","types":["meal_delivery","meal_takeaway","restaurant","food","point_of_interest","establishment"],"user_ratings_total":1113},{"business_status":"OPERATIONAL","formatted_address":"88 Rue Vendôme, 69006 Lyon","geometry":{"location":{"lat":45.768116,"lng":4.8450565},"viewport":{"northeast":{"lat":45.76947432989272,"lng":4.846441079892721},"southwest":{"lat":45.76677467010728,"lng":4.843741420107277}}},"icon":"https://maps.gstatic.com/mapfiles/place_api/icons/v1/png_71/restaurant-71.png","icon_background_color":"#FF9E67","icon_mask_base_uri":"https://maps.gstatic.com/mapfiles/place_api/icons/v2/restaurant_pinlet","name":"ITALIA E SAPORE PIZZERIA","opening_hours":{"open_now":false},"photos":[{"height":928,"html_attributions":["<a href=\"https://maps.google.com/maps/contrib/113407350082732691511\">Italia e Sapore LYON</a>"],"photo_reference":"AeJbb3eW7OJ8za7P8SO3sFbsDTFgXOGHJ1ErZBVGSzdO75tZBQhZXqvL5a2RD_ZMco4XUBdx0nJECPv4WRxh4J9kB4pH7Lmky6Cd_nW9rIMLkyGd1ITO5uJ7NTHDGK4tx2ju_pILtPOHWrnJ0dGrnTJ84-UrTy5_PHfyUqY_VacZgHlPAN0-","width":750}],"place_id":"ChIJJUWayvbq9EcRgetl8m-GsFk","plus_code":{"compound_code":"QR9W+62 Lyon","global_code":"8FQ6QR9W+62"},"price_level":2,"rating":4.7,"reference":"ChIJJUWayvbq9EcRgetl8m-GsFk","types":["meal_takeaway","grocery_or_supermarket","meal_delivery","restaurant","food","point_of_interest","store","establishment"],"user_ratings_total":441},{"business_status":"OPERATIONAL","formatted_address":"55 Cours Dr Long, 69003 Lyon","geometry":{"location":{"lat":45.749771,"lng":4.885000799999999},"viewport":{"northeast":{"lat":45.75108997989272,"lng":4.88637122989272},"southwest":{"lat":45.74839032010728,"lng":4.883671570107277}}},"icon":"https://maps.gstatic.com/mapfiles/place_api/icons/v1/png_71/restaurant-71.png","icon_background_color":"#FF9E67","icon_mask_base_uri":"https://maps.gstatic.com/mapfiles/place_api/icons/v2/restaurant_pinlet","name":"Jordan Tomas - Pizza Mamamia Lyon Montchat","opening_hours":{"open_now":false},"photos":[{"height":1275,"html_attributions":["<a href=\"https://maps.google.com/maps/contrib/103925896974690359697\">A Google User</a>"],"photo_reference":"AeJbb3fD4Mwh1Xjfieb7giECU2HvgbojEXqlGxWCtxbZ55q0PCEqyqKWAVpAxiG__tsoKGbMrzrRIBnI0PE_VoJvQK8Oa-6Z-bBykl5gBlowgIlOAddIHkM_Ubgce_xtX3xKZ0vEJEK-b4_RCqIq3j2EzI7dO5mrwo-99kmaVD-kg9ub03Bz","width":2121}],"place_id":"ChIJo93-kP3B9EcR6dt4GvypiZ4","plus_code":{"compound_code":"PVXM+WX Lyon","global_code":"8FQ6PVXM+WX"},"rating":4.7,"reference":"ChIJo93-kP3B9EcR6dt4GvypiZ4","types":["restaurant","food","point_of_interest","establishment"],"user_ratings_total":230},{"business_status":"OPERATIONAL","formatted_address":"39 Av. Marc Sangnier, 69100 Villeurbanne","geometry":{"location":{"lat":45.76017,"lng":4.8754979},"viewport":{"northeast":{"lat":45.76150572989272,"lng":4.876807729892722},"southwest":{"lat":45.75880607010728,"lng":4.874108070107278}}},"icon":"https://maps.gstatic.com/mapfiles/place_api/icons/v1/png_71/restaurant-71.png","icon_background_color":"#FF9E67","icon_mask_base_uri":"https://maps.gstatic.com/mapfiles/place_api/icons/v2/restaurant_pinlet","name":"Pizza Rosa","opening_hours":{"open_now":false},"photos":[{"height":886,"html_attributions":["<a href=\"https://maps.google.com/maps/contrib/106579243610301393201\">Pizza Rosa</a>"],"photo_reference":"AeJbb3d2ia1l-mgFFiZfXdJIG3L3JBDPbWz4TP2bw1INC2Ov4WS8hSMMNLgIgoEdEzKiUztaaLNkNCR9dw_NsG_WPh8jqKrY5583zSYZA6sBGnmUhFvZbs1Chyhgmnqno96HmSzUGy8MoK_Y2vXwmFAcZ3D7tTbXxCJKFzlD4uRvslBnrL2k","width":1600}],"place_id":"ChIJDRV99dTB9EcRwoh8vpYT8m0","plus_code":{"compound_code":"QV6G+36 Villeurbanne","global_code":"8FQ6QV6G+36"},"price_level":1,"rating":4.7,"reference":"ChIJDRV99dTB9EcRwoh8vpYT8m0","types":["meal_takeaway","restaurant","food","point_of_interest","establishment"],"user_ratings_total":188},{"business_status":"OPERATIONAL","formatted_address":"8 Rue Condorcet, 69960 Corbas","geometry":{"location":{"lat":45.66057439999999,"lng":4.9014095},"viewport":{"northeast":{"lat":45.66184367989272,"lng":4.902753979892723},"southwest":{"lat":45.65914402010727,"lng":4.900054320107279}}},"icon":"https://maps.gstatic.com/mapfiles/place_api/icons/v1/png_71/restaurant-71.png","icon_background_color":"#FF9E67","icon_mask_base_uri":"https://maps.gstatic.com/mapfiles/place_api/icons/v2/restaurant_pinlet","name":"Pizza Florio","opening_hours":{"open_now":false},"photos":[{"height":720,"html_attributions":["<a href=\"https://maps.google.com/maps/contrib/110632953834075401487\">Nathalie Juglaret</a>"],"photo_reference":"AeJbb3eE5eBJ9nSpw3ZH28dWPCQaFmClTXLy8Vsq9LQ3l68BOcBcHvz4rQFIceNrHqER9XeSoliSOOyVV3mV4mm4kH1ihvQr1biJPJLUkJcI3A8M7CK9-2TB8YcMlpw9UAvpsZbDp3tqD9E7mL6DDvroxPO9LyajifjTGIU9xr1rG5Z9Xehj","width":960}],"place_id":"ChIJuWXJxibD9EcRpPQCppOxnBM","plus_code":{"compound_code":"MW62+6H Corbas","global_code":"8FQ6MW62+6H"},"price_level":2,"rating":4.7,"reference":"ChIJuWXJxibD9EcRpPQCppOxnBM","types":["restaurant","food","point_of_interest","establishment"],"user_ratings_total":116},{"business_status":"OPERATIONAL","formatted_address":"11 Av. de Limburg, 69110 Sainte-Foy-lès-Lyon","geometry":{"location":{"lat":45.7335067,"lng":4.7800908},"viewport":{"northeast":{"lat":45.73478332989272,"lng":4.781357829892722},"southwest":{"lat":45.73208367010728,"lng":4.778658170107279}}},"icon":"https://maps.gstatic.com/mapfiles/place_api/icons/v1/png_71/restaurant-71.png","icon_background_color":"#FF9E67","icon_mask_base_uri":"https://maps.gstatic.com/mapfiles/place_api/icons/v2/restaurant_pinlet","name":"Pizzeria Bella Luna","opening_hours":{"open_now":false},"photos":[{"height":3000,"html_attributions":["<a href=\"https://maps.google.com/maps/contrib/103681640337328104463\">Charly Maillefaud</a>"],"photo_reference":"AeJbb3dcuSUQCohaBNhUNohFL8JauL_kWmBwtUWSv5ZAg6CYE40q8u_dWlkTfF98wqAnfJSOsL3sQ-pMQTCpQ_FRWNXuRaHA6sHROfPjJABfsT4zPNlSp95QoJ3bek1pYOg-w_0xQisY_EYsvngJDcfcPHgUgKpjJgFL_e4efdAxZIUtoqqB","width":4000}],"place_id":"ChIJ_3mDNwfs9EcRgiHiItBbnak","plus_code":{"compound_code":"PQMJ+C2 Sainte-Foy-lès-Lyon","global_code":"8FQ6PQMJ+C2"},"price_level":1,"rating":4.7,"reference":"ChIJ_3mDNwfs9EcRgiHiItBbnak","types":["restaurant","food","point_of_interest","establishment"],"user_ratings_total":114},{"business_status":"OPERATIONAL","formatted_address":"Pl. du Chanoine Boursier, 69100 Villeurbanne","geometry":{"location":{"lat":45.76798669999999,"lng":4.8780638},"viewport":{"northeast":{"lat":45.76933647989272,"lng":4.879365879892722},"southwest":{"lat":45.76663682010728,"lng":4.876666220107278}}},"icon":"https://maps.gstatic.com/mapfiles/place_api/icons/v1/png_71/restaurant-71.png","icon_background_color":"#FF9E67","icon_mask_base_uri":"https://maps.gstatic.com/mapfiles/place_api/icons/v2/restaurant_pinlet","name":"La Pizza Italienne","opening_hours":{"open_now":false},"photos":[{"height":4032,"html_attributions":["<a href=\"https://maps.google.com/maps/contrib/102213235255365229549\">Sandrine LVL</a>"],"photo_reference":"AeJbb3frxM9pRQ3uO391uZUPe2z3VgaitVWW3eMbOiGqT4GODatdVp7hOcaGY8S-E0WNn26ELzWUYgKzWReGiSw15dfZ0DC7aGDX8CYpglWTpFa64aDi6RHUSHPKmOWg9NUxkgq8uek2HV0gJgjj5TQC0qtP26xYS-6LBsqsXFxx-MF1_YeK","width":3024}],"place_id":"ChIJo89jwfLB9EcRUlxEr_FR7-s","plus_code":{"compound_code":"QV9H+56 Villeurbanne","global_code":"8FQ6QV9H+56"},"rating":4.7,"reference":"ChIJo89jwfLB9EcRUlxEr_FR7-s","types":["meal_takeaway","restaurant","food","point_of_interest","establishment"],"user_ratings_total":52},{"business_status":"OPERATIONAL","formatted_address":"68 Rue de Gerland, 69007 Lyon","geometry":{"location":{"lat":45.7383842,"lng":4.8398614},"viewport":{"northeast":{"lat":45.73967767989273,"lng":4.841167879892722},"southwest":{"lat":45.73697802010729,"lng":4.838468220107278}}},"icon":"https://maps.gstatic.com/mapfiles/place_api/icons/v1/png_71/restaurant-71.png","icon_background_color":"#FF9E67","icon_mask_base_uri":"https://maps.gstatic.com/mapfiles/place_api/icons/v2/restaurant_pinlet","name":"Jordan Tomas - Pizza Mamamia Lyon Gerland","opening_hours":{"open_now":false},"photos":[{"height":3480,"html_attributions":["<a href=\"https://maps.google.com/maps/contrib/114347123307033134386\">Tristan Morala</a>"],"photo_reference":"AeJbb3efMPxBXWILfNm6aFi-JGqgHy4ziiR69HMzg-GCy-fnfPf445l644KqzIMzuWTTahkOlph7wAFUuz_fglkVK4wYF4pvNvwHYJQU006Ud5b1PGAH_P4RtBOOAh7lIrbn_nOl23J7BRMLlazVI9vuaNoqpooNw7gDCzWf34cLj3FvdL5D","width":4640}],"place_id":"ChIJCdiWlzvq9EcRojgbuRH7oOQ","plus_code":{"compound_code":"PRQQ+9W Lyon","global_code":"8FQ6PRQQ+9W"},"price_level":2,"rating":4.6,"reference":"ChIJCdiWlzvq9EcRojgbuRH7oOQ","types":["restaurant","food","point_of_interest","establishment"],"user_ratings_total":1593},{"business_status":"OPERATIONAL","formatted_address":"196 Cr Emile Zola, 69100 Villeurbanne","geometry":{"location":{"lat":45.76875769999999,"lng":4.883170799999999},"viewport":{"northeast":{"lat":45.77015057989272,"lng":4.884483079892722},"southwest":{"lat":45.76745092010728,"lng":4.881783420107278}}},"icon":"https://maps.gstatic.com/mapfiles/place_api/icons/v1/png_71/restaurant-71.png","icon_background_color":"#FF9E67","icon_mask_base_uri":"https://maps.gstatic.com/mapfiles/place_api/icons/v2/restaurant_pinlet","name":"Pizza Cosy","opening_hours":{"open_now":false},"photos":[{"height":2976,"html_attributions":["<a href=\"https://maps.google.com/maps/contrib/109915570128279164270\">A Google User</a>"],"photo_reference":"AeJbb3cjF_BF7w_DI--CL7gxwI0cH3BF6VsAKxGs2lDZUvPTyiCDRRmJIXSNY_OVqWZkZV_k8w4cf2V7WkFRlH-dSfBbpBAMe0JScsgh7ynceGOY-zIKjBKbGOgCWHpWMgK7O-R14z3LSsctC1uLJLZz1MpbIfrMw7TFgl02VkrFQEFRZr9o","width":3968}],"place_id":"ChIJma7uEEzB9EcRKts_NC9LBM8","plus_code":{"compound_code":"QV9M+G7 Villeurbanne","global_code":"8FQ6QV9M+G7"},"price_level":2,"rating":4.6,"reference":"ChIJma7uEEzB9EcRKts_NC9LBM8","types":["meal_delivery","meal_takeaway","restaurant","food","point_of_interest","establishment"],"user_ratings_total":790},{"business_status":"OPERATIONAL","formatted_address":"16 Pl. de la Croix-Rousse, 69004 Lyon","geometry":{"location":{"lat":45.7758319,"lng":4.8330214},"viewport":{"northeast":{"lat":45.77720597989273,"lng":4.834270479892722},"southwest":{"lat":45.77450632010729,"lng":4.831570820107278}}},"icon":"https://maps.gstatic.com/mapfiles/place_api/icons/v1/png_71/restaurant-71.png","icon_background_color":"#FF9E67","icon_mask_base_uri":"https://maps.gstatic.com/mapfiles/place_api/icons/v2/restaurant_pinlet","name":"Pizza Cosy","opening_hours":{"open_now":false},"photos":[{"height":3648,"html_attributions":["<a href=\"https://maps.google.com/maps/contrib/109015974782086160353\">Michael B.</a>"],"photo_reference":"AeJbb3d_gHNggYK8CJMuqR8A2lHJHptqHbsslVVhyKdqC0TjCFZP7zkdTOUKleCL3T2hThFRKv0eZLO4059WJ3VTShXcKuP4OpJKlWq2ESTrHB0dC_SV6MvRMnBsftYQLlL8vQZj_RwLqIhPgorfNmjwbz2l8Rm7VkquXlHeHpOx30PyD421","width":2736}],"place_id":"ChIJ_0Mkggjr9EcRt3sEjKhLO6U","plus_code":{"compound_code":"QRGM+86 Lyon","global_code":"8FQ6QRGM+86"},"price_level":2,"rating":4.6,"reference":"ChIJ_0Mkggjr9EcRt3sEjKhLO6U","types":["meal_delivery","meal_takeaway","restaurant","food","point_of_interest","establishment"],"user_ratings_total":743},{"business_status":"OPERATIONAL","formatted_address":"13 Rue de la Fraternité, 69150 Décines-Charpieu","geometry":{"location":{"lat":45.77172729999999,"lng":4.9572959},"viewport":{"northeast":{"lat":45.77312127989273,"lng":4.958686529892721},"southwest":{"lat":45.77042162010729,"lng":4.955986870107277}}},"icon":"https://maps.gstatic.com/mapfiles/place_api/icons/v1/png_71/restaurant-71.png","icon_background_color":"#FF9E67","icon_mask_base_uri":"https://maps.gstatic.com/mapfiles/place_api/icons/v2/restaurant_pinlet","name":"Pizza Cosy","opening_hours":{"open_now":false},"photos":[{"height":1063,"html_attributions":["<a href=\"https://maps.google.com/maps/contrib/105066888616282254788\">Florian L</a>"],"photo_reference":"AeJbb3deC8f-RbBUF8mXShezOCIh_mr78gb3-2iKHa75A17gwR5C-s6UpDg5PelU2C528iq9vcF6bCXcjwxlUItvbfv8cRDmPbL4ygvOMHWaN1JSQnaJ5n_JzClm9tMbdH69MVknP4omYlnPlr9a2-5qEvp6Kp3KhMbZzKy6sog2VOd-lVNN","width":1063}],"place_id":"ChIJnVs6uTTB9EcRsRg0_p1PUpw","plus_code":{"compound_code":"QXC4+MW Décines-Charpieu","global_code":"8FQ6QXC4+MW"},"price_level":2,"rating":4.6,"reference":"ChIJnVs6uTTB9EcRsRg0_p1PUpw","types":["meal_delivery","meal_takeaway","restaurant","food","point_of_interest","establishment"],"user_ratings_total":596},{"business_status":"OPERATIONAL","formatted_address":"79 Rue Garibaldi, 69006 Lyon","geometry":{"location":{"lat":45.7676857,"lng":4.8509607},"viewport":{"northeast":{"lat":45.76903157989273,"lng":4.852259679892722},"southwest":{"lat":45.76633192010728,"lng":4.849560020107278}}},"icon":"https://maps.gstatic.com/mapfiles/place_api/icons/v1/png_71/restaurant-71.png","icon_background_color":"#FF9E67","icon_mask_base_uri":"https://maps.gstatic.com/mapfiles/place_api/icons/v2/restaurant_pinlet","name":"Pizza Cosy","opening_hours":{"open_now":false},"photos":[{"height":1450,"html_attributions":["<a href=\"https://maps.google.com/maps/contrib/111717795274646778017\">A Google User</a>"],"photo_reference":"AeJbb3edFk1EwXXb5BATWsIscDL6uqFunI7iCmVkIXEqtLReENnuksrgv8ZXZAt-vk8td-s6FM1N6EUZ3xwuMOqzmsdfAzEyZX76QuyJaV7pBYIObsgFIGe7wWAZIIpCCNZ5Rv5_HolEx7OUa31rXhP7Y7WVhaE05Ebzuy3nmaAzLs3uwyH1","width":2186}],"place_id":"ChIJedalEmDr9EcRSmPqmfHlOgM","plus_code":{"compound_code":"QV92+39 Lyon","global_code":"8FQ6QV92+39"},"price_level":2,"rating":4.6,"reference":"ChIJedalEmDr9EcRSmPqmfHlOgM","types":["meal_delivery","meal_takeaway","restaurant","food","point_of_interest","establishment"],"user_ratings_total":521},{"business_status":"OPERATIONAL","formatted_address":"53 Rue de Bourgogne, 69009 Lyon","geometry":{"location":{"lat":45.7795369,"lng":4.8014926},"viewport":{"northeast":{"lat":45.78090637989272,"lng":4.802882479892722},"southwest":{"lat":45.77820672010728,"lng":4.800182820107278}}},"icon":"https://maps.gstatic.com/mapfiles/place_api/icons/v1/png_71/restaurant-71.png","icon_background_color":"#FF9E67","icon_mask_base_uri":"https://maps.gstatic.com/mapfiles/place_api/icons/v2/restaurant_pinlet","name":"Mont D'Or Pizza","opening_hours":{"open_now":false},"photos":[{"height":1520,"html_attributions":["<a href=\"https://maps.google.com/maps/contrib/117922684297083439222\">Danae JG</a>"],"photo_reference":"AeJbb3eJHyB5QegCWRM7NB9qzC9tgjwd2b9tz34WiiN7NtwLgIEz8KJJD8sDdSfub-2KUIVx92-zXevJbqxIjPpkvHfvHkIamEdMYW1LASnPOJOWem3lcWWHrS8d-k38ArflHMB0Td4jUEF7tXwlVIePZ0vgOLGNEPtLQxYAHaEtr4-Nmgpn","width":1520}],"place_id":"ChIJ9U4ty2jr9EcRobmISUvEQ8I","plus_code":{"compound_code":"QRH2+RH Lyon","global_code":"8FQ6QRH2+RH"},"price_level":1,"rating":4.6,"reference":"ChIJ9U4ty2jr9EcRobmISUvEQ8I","types":["restaurant","food","point_of_interest","establishment"],"user_ratings_total":431},{"business_status":"OPERATIONAL","formatted_address":"49 Rue de la Feyssine, 69100 Villeurbanne","geometry":{"location":{"lat":45.7839848,"lng":4.8900162},"viewport":{"northeast":{"lat":45.78531802989272,"lng":4.891305429892721},"southwest":{"lat":45.78261837010728,"lng":4.888605770107277}}},"icon":"https://maps.gstatic.com/mapfiles/place_api/icons/v1/png_71/restaurant-71.png","icon_background_color":"#FF9E67","icon_mask_base_uri":"https://maps.gstatic.com/mapfiles/place_api/icons/v2/restaurant_pinlet","name":"Pizza Carloni","opening_hours":{"open_now":false},"photos":[{"height":1824,"html_attributions":["<a href=\"https://maps.google.com/maps/contrib/114897030172438963837\">A Google User</a>"],"photo_reference":"AeJbb3fmdi9KC4wzH8JBSBBYNkv_InL5Gjs6X756EfOTM1-Xx0Y7haeadIpB9RFGjjV1jc8-n7O33xH9SoQA8sSEZa4MLFF8A-ppPRovIEWt9HwO6yWnSSCW9SFzrdPAwebNdZRK59cHUzHStpEOcoqOXsY1UXZLauojx-1uWaC6gv-X2AlP","width":2736}],"place_id":"ChIJDWGd6RbA9EcRCUqQl3HqI-Q","plus_code":{"compound_code":"QVMR+H2 Villeurbanne","global_code":"8FQ6QVMR+H2"},"price_level":1,"rating":4.6,"reference":"ChIJDWGd6RbA9EcRCUqQl3HqI-Q","types":["restaurant","food","point_of_interest","establishment"],"user_ratings_total":340},{"business_status":"OPERATIONAL","formatted_address":"2 Rue Duhamel, 69002 Lyon","geometry":{"location":{"lat":45.7503817,"lng":4.828949499999999},"viewport":{"northeast":{"lat":45.75177752989271,"lng":4.830153329892721},"southwest":{"lat":45.74907787010727,"lng":4.827453670107277}}},"icon":"https://maps.gstatic.com/mapfiles/place_api/icons/v1/png_71/restaurant-71.png","icon_background_color":"#FF9E67","icon_mask_base_uri":"https://maps.gstatic.com/mapfiles/place_api/icons/v2/restaurant_pinlet","name":"Il Palio","opening_hours":{"open_now":false},"photos":[{"height":3024,"html_attributions":["<a href=\"https://maps.google.com/maps/contrib/117914527646402425316\">paul scott-griffiths</a>"],"photo_reference":"AeJbb3fbZ67J7Smekudwks4nc0Epscp6C5t4gHf-Tqb4J0Bk9tTg66I9o8I5SnwhY1C63jyxV3JfHqgrdOpzS91LVeMWQ3SvO5YOojW9ADNc2ER0Cgu0Wp3lhjJBqWExxkUK-Jl7TkJdZse4EKCD6CqGVKq7jPBd1UUMpqUxz-X5G4oLUk4F","width":3024}],"place_id":"ChIJU8n5mUzq9EcRYM2aLNID1JU","plus_code":{"compound_code":"QR2H+5H Lyon","global_code":"8FQ6QR2H+5H"},"price_level":2,"rating":4.6,"reference":"ChIJU8n5mUzq9EcRYM2aLNID1JU","types":["restaurant","liquor_store","bakery","food","point_of_interest","store","establishment"],"user_ratings_total":301},{"business_status":"OPERATIONAL","formatted_address":"83 – 85 Cr de la République, 69100 Villeurbanne","geometry":{"location":{"lat":45.763989,"lng":4.8744341},"viewport":{"northeast":{"lat":45.76535472989272,"lng":4.875678879892722},"southwest":{"lat":45.76265507010727,"lng":4.872979220107278}}},"icon":"https://maps.gstatic.com/mapfiles/place_api/icons/v1/png_71/restaurant-71.png","icon_background_color":"#FF9E67","icon_mask_base_uri":"https://maps.gstatic.com/mapfiles/place_api/icons/v2/restaurant_pinlet","name":"JET PIZZA","opening_hours":{"open_now":false},"photos":[{"height":3024,"html_attributions":["<a href=\"https://maps.google.com/maps/contrib/117914527646402425316\">paul scott-griffiths</a>"],"photo_reference":"AeJbb3d_Q4Z-XAJ5A4N2pwq36a-azOxu86d_yjMRxbbrORmBKvQrLcK-Bh2sR4SEHudi9QuH6p85DQDKHsGz4kg8h9VRaeeNxhOMFml0x0k9oUAhNhgA3w5w_T3BCK_UFAYgHxwcFc59Z4WOtyobrvesWgBGQ8-WzVfoAe4eMun2w81psUKq","width":3024}],"place_id":"ChIJg3AX8CrA9EcRb1cD8NjTF-A","plus_code":{"compound_code":"QV7F+HQ Villeurbanne","global_code":"8FQ6QV7F+HQ"},"price_level":1,"rating":4.6,"reference":"ChIJg3AX8CrA9EcRb1cD8NjTF-A","types":["meal_delivery","restaurant","food","point_of_interest","establishment"],"user_ratings_total":192},{"business_status":"OPERATIONAL","formatted_address":"9 Grande Rue, 69800 Saint-Priest","geometry":{"location":{"lat":45.6984946,"lng":4.943235800000001},"viewport":{"northeast":{"lat":45.69983147989273,"lng":4.944606229892722},"southwest":{"lat":45.69713182010728,"lng":4.941906570107278}}},"icon":"https://maps.gstatic.com/mapfiles/place_api/icons/v1/png_71/restaurant-71.png","icon_background_color":"#FF9E67","icon_mask_base_uri":"https://maps.gstatic.com/mapfiles/place_api/icons/v2/restaurant_pinlet","name":"Entre 2 Pizza","opening_hours":{"open_now":false},"photos":[{"height":1920,"html_attributions":["<a href=\"https://maps.google.com/maps/contrib/114088792898514288627\">Hakim Belghazi</a>"],"photo_reference":"AeJbb3eIaGaOFlUL4KajWVm407nkhQ8oiIR-BvPuw1kdEWOAg07rwagzbFEw5nSp1y4y0lvr7wT6MpXIPEqe8C93Zr0Yf_G4Wei8xURwz5QnKzK1x5TfJb-DMwTSgVaITwIOf67J9d9jHQ_F0B4MWTsb2folThTQ7lM8Y1uVta9ZtNqQGhT9","width":1080}],"place_id":"ChIJaYrZw4vD9EcR4KGpuxWHRRw","plus_code":{"compound_code":"MWXV+97 Saint-Priest","global_code":"8FQ6MWXV+97"},"rating":4.6,"reference":"ChIJaYrZw4vD9EcR4KGpuxWHRRw","types":["restaurant","food","point_of_interest","establishment"],"user_ratings_total":82},{"business_status":"OPERATIONAL","formatted_address":"10 Rue des Marronniers, 69002 Lyon","geometry":{"location":{"lat":45.756691,"lng":4.8343706},"viewport":{"northeast":{"lat":45.75776567989272,"lng":4.835692329892722},"southwest":{"lat":45.75506602010728,"lng":4.832992670107278}}},"icon":"https://maps.gstatic.com/mapfiles/place_api/icons/v1/png_71/restaurant-71.png","icon_background_color":"#FF9E67","icon_mask_base_uri":"https://maps.gstatic.com/mapfiles/place_api/icons/v2/restaurant_pinlet","name":"Pizza Cosy","opening_hours":{"open_now":false},"photos":[{"height":1450,"html_attributions":["<a href=\"https://maps.google.com/maps/contrib/118018710266121988638\">A Google User</a>"],"photo_reference":"AeJbb3cSjbxpkBxonthoc8IxRs5T32mBAJgMGlueuq9faKDRUuB_uhqntwigLuLUTUHcE0QFatpqMdGmQ2KS6FwGSo2KWBQQ2wRHbW5QUQzwqU-7yS1s6nd08pU4dbdO9DIDEHlTkh6JFY7VcwzyGDwZ00IePj3VzLq_D92yaYfS2Wxtsnvn","width":2186}],"place_id":"ChIJfYfG-Err9EcRIjX91N5JrdU","plus_code":{"compound_code":"QR4M+MP Lyon","global_code":"8FQ6QR4M+MP"},"price_level":2,"rating":4.5,"reference":"ChIJfYfG-Err9EcRIjX91N5JrdU","types":["meal_delivery","meal_takeaway","restaurant","food","point_of_interest","establishment"],"user_ratings_total":1654},{"business_status":"OPERATIONAL","formatted_address":"13 Cr Suchet, 69002 Lyon","geometry":{"location":{"lat":45.7472202,"lng":4.8234498},"viewport":{"northeast":{"lat":45.74853067989272,"lng":4.824767529892722},"southwest":{"lat":45.74583102010727,"lng":4.822067870107278}}},"icon":"https://maps.gstatic.com/mapfiles/place_api/icons/v1/png_71/restaurant-71.png","icon_background_color":"#FF9E67","icon_mask_base_uri":"https://maps.gstatic.com/mapfiles/place_api/icons/v2/restaurant_pinlet","name":"Pizzeria Avarello","opening_hours":{"open_now":false},"photos":[{"height":4032,"html_attributions":["<a href=\"https://maps.google.com/maps/contrib/118416045023395112206\">Chafik Mouram</a>"],"photo_reference":"AeJbb3evHdC3lLMy5fGB6u4mNx9MwDrzO3CyJEd1VSJpS1x_6zwC91JOz0TR7ADcNssq-3PR_sMGbp4duj1A8thLi_MZVHTkK8OYT5mrnO56xcJ_azF8C6CbmGt2a16DZkHxUjKxgshadAc-7yBx9n6OW4J3lSabGjk0D5A2gxE7VzobOcYd","width":3024}],"place_id":"ChIJWfK8pbXr9EcRNmJfUHJQ5gE","plus_code":{"compound_code":"PRWF+W9 Lyon","global_code":"8FQ6PRWF+W9"},"price_level":2,"rating":4.5,"reference":"ChIJWfK8pbXr9EcRNmJfUHJQ5gE","types":["restaurant","food","point_of_interest","establishment"],"user_ratings_total":478},{"business_status":"OPERATIONAL","formatted_address":"5 Pl. du Commandant Arnaud, 69004 Lyon","geometry":{"location":{"lat":45.7798544,"lng":4.8352059},"viewport":{"northeast":{"lat":45.78117012989272,"lng":4.836560129892721},"southwest":{"lat":45.77847047010728,"lng":4.833860470107277}}},"icon":"https://maps.gstatic.com/mapfiles/place_api/icons/v1/png_71/restaurant-71.png","icon_background_color":"#FF9E67","icon_mask_base_uri":"https://maps.gstatic.com/mapfiles/place_api/icons/v2/restaurant_pinlet","name":"Pizzeria chez Puce Lyon Croix rousse Caluire","opening_hours":{"open_now":false},"photos":[{"height":4032,"html_attributions":["<a href=\"https://maps.google.com/maps/contrib/111315605789563057856\">Clement Nicolas</a>"],"photo_reference":"AeJbb3cqz31xYTRzTRMXbBcFFdNwVBRr0mMF7MTc5I2P3n_IpsuGVph98myFP2SBj9StCgaXlgtJrJXIdcnhBu8zbW2CBVI9br9EuJyAax3xk-xrEEnXQx7tTAL8drbl-E0D6hTy73o5Cah2Eqikx8Zo7NlBmN_Ts18-W87cZLUFdozGXaHX","width":3024}],"place_id":"ChIJIyO6COHq9EcRZoQX5n_5GDs","plus_code":{"compound_code":"QRHP+W3 Lyon","global_code":"8FQ6QRHP+W3"},"price_level":2,"rating":4.5,"reference":"ChIJIyO6COHq9EcRZoQX5n_5GDs","types":["meal_takeaway","meal_delivery","restaurant","food","point_of_interest","establishment"],"user_ratings_total":437},{"business_status":"OPERATIONAL","formatted_address":"43 Rue du Puits Vieux, 69800 Saint-Priest","geometry":{"location":{"lat":45.6992419,"lng":4.950142899999999},"viewport":{"northeast":{"lat":45.70051422989272,"lng":4.951488229892721},"southwest":{"lat":45.69781457010727,"lng":4.948788570107277}}},"icon":"https://maps.gstatic.com/mapfiles/place_api/icons/v1/png_71/restaurant-71.png","icon_background_color":"#FF9E67","icon_mask_base_uri":"https://maps.gstatic.com/mapfiles/place_api/icons/v2/restaurant_pinlet","name":"Les Pizzas du Puits Vieux","opening_hours":{"open_now":false},"photos":[{"height":1067,"html_attributions":["<a href=\"https://maps.google.com/maps/contrib/108678859233649147849\">Les Pizzas du Puits Vieux</a>"],"photo_reference":"AeJbb3c33pPZq4bMK4cKDCvgqD3x-aCZvGCiI_XOR3G3tpu4zgbi9XGrjps_G55oEsgb2oZPZtipYH431S13QcunTuKYHFho5Rpbu8oMKDrAxsw8P8msmd4NyHskr71VeYAgW2IxeoB1517BvWA74YlA_Rj8CIhelc3zLbG9up_rSHR3tA9q","width":1600}],"place_id":"ChIJNRfKU3TE9EcRPQC7gA-ssH0","plus_code":{"compound_code":"MXX2+M3 Saint-Priest","global_code":"8FQ6MXX2+M3"},"rating":4.5,"reference":"ChIJNRfKU3TE9EcRPQC7gA-ssH0","types":["meal_takeaway","restaurant","food","point_of_interest","establishment"],"user_ratings_total":375},{"business_status":"OPERATIONAL","formatted_address":"111 Rte de Strasbourg, 69300 Caluire-et-Cuire","geometry":{"location":{"lat":45.8000075,"lng":4.8767231},"viewport":{"northeast":{"lat":45.80136292989273,"lng":4.878173979892722},"southwest":{"lat":45.79866327010728,"lng":4.875474320107278}}},"icon":"https://maps.gstatic.com/mapfiles/place_api/icons/v1/png_71/restaurant-71.png","icon_background_color":"#FF9E67","icon_mask_base_uri":"https://maps.gstatic.com/mapfiles/place_api/icons/v2/restaurant_pinlet","name":"Pizza Cosy","opening_hours":{"open_now":false},"photos":[{"height":4024,"html_attributions":["<a href=\"https://maps.google.com/maps/contrib/103008056902915231336\">A Google User</a>"],"photo_reference":"AeJbb3fkD21gC52rQFJ-xTBrANXfqx_cW_nvrfIi9rBQwj7dYCmQNn49FSa12Ojp52f7Vbqv-aF-53nY6rApZKTXS-rCGov3SzJ93V_hLHUZdEloB5G7zGLwaCBer2G5sJWonS6EQ3KmlWaAdnDR4Ic5xRg394KS9KHSvKbdQSTjriel8XVF","width":6048}],"place_id":"ChIJfS8K5f7r9EcRFQYWVwkuxDA","plus_code":{"compound_code":"RV2G+2M Caluire-et-Cuire","global_code":"8FQ6RV2G+2M"},"price_level":2,"rating":4.5,"reference":"ChIJfS8K5f7r9EcRFQYWVwkuxDA","types":["meal_takeaway","meal_delivery","restaurant","food","point_of_interest","establishment"],"user_ratings_total":267},{"business_status":"OPERATIONAL","formatted_address":"3 Grande Rue, 69600 Oullins","geometry":{"location":{"lat":45.720633,"lng":4.811274399999999},"viewport":{"northeast":{"lat":45.72201702989272,"lng":4.812520179892721},"southwest":{"lat":45.71931737010728,"lng":4.809820520107277}}},"icon":"https://maps.gstatic.com/mapfiles/place_api/icons/v1/png_71/restaurant-71.png","icon_background_color":"#FF9E67","icon_mask_base_uri":"https://maps.gstatic.com/mapfiles/place_api/icons/v2/restaurant_pinlet","name":"Pizzeria Capobianco","opening_hours":{"open_now":false},"photos":[{"height":960,"html_attributions":["<a href=\"https://maps.google.com/maps/contrib/105349588180042974235\">Leon Florian</a>"],"photo_reference":"AeJbb3fk1JOgusD7QQVt4ByjZCNYiGC_byVpvT4vCndWB3VFlioLoQzIb3a3GLe1SdXVdgAShy0HOGUFg_kxYnz8BQv3XzGO6Eig8nJyuk_AAChfwx7mO8t26l_i7X8k7LceMMJzSXAMzuAiRzdj9AhMeSUrmGBZEVUuY3jxWBdbiOWK-9Te","width":540}],"place_id":"ChIJW7IHJmXp9EcR-K-c9Gi2ECc","plus_code":{"compound_code":"PRC6+7G Oullins","global_code":"8FQ6PRC6+7G"},"price_level":1,"rating":4.5,"reference":"ChIJW7IHJmXp9EcR-K-c9Gi2ECc","types":["meal_takeaway","bar","restaurant","food","point_of_interest","establishment"],"user_ratings_total":230},{"business_status":"OPERATIONAL","formatted_address":"104 Rte d'Heyrieux, 69800 Saint-Priest","geometry":{"location":{"lat":45.6844443,"lng":4.9495377},"viewport":{"northeast":{"lat":45.68587262989272,"lng":4.950960479892722},"southwest":{"lat":45.68317297010727,"lng":4.948260820107278}}},"icon":"https://maps.gstatic.com/mapfiles/place_api/icons/v1/png_71/restaurant-71.png","icon_background_color":"#FF9E67","icon_mask_base_uri":"https://maps.gstatic.com/mapfiles/place_api/icons/v2/restaurant_pinlet","name":"La Pizzell ' Restaurant","opening_hours":{"open_now":false},"photos":[{"height":1920,"html_attributions":["<a href=\"https://maps.google.com/maps/contrib/113636911766378739253\">Bidzounette</a>"],"photo_reference":"AeJbb3dsB4wsrSH8iLehyhGzVQRmtl69XM-y3wlkcjWLH6wXQE4zIBBeDTQEICLaUsiaQ6nXEi3EZY9unojJ1Yt2OSrt7wynZbQa5yX-R16AafS0LyVw3aoslAey91caboDOKM9fNp1UOVEZfg-geDWmuX-7ax_ZrXNEzkAugM19sinCuX0p","width":990}],"place_id":"ChIJw8gR333E9EcR4DCR53-uxJA","plus_code":{"compound_code":"MWMX+QR Saint-Priest","global_code":"8FQ6MWMX+QR"},"rating":4.5,"reference":"ChIJw8gR333E9EcR4DCR53-uxJA","types":["meal_takeaway","restaurant","food","point_of_interest","establishment"],"user_ratings_total":163},{"business_status":"OPERATIONAL","formatted_address":"130 Av. Jean Jaurès, 69150 Décines-Charpieu","geometry":{"location":{"lat":45.7694875,"lng":4.948231499999999},"viewport":{"northeast":{"lat":45.77086697989272,"lng":4.949572479892723},"southwest":{"lat":45.76816732010728,"lng":4.946872820107279}}},"icon":"https://maps.gstatic.com/mapfiles/place_api/icons/v1/png_71/restaurant-71.png","icon_background_color":"#FF9E67","icon_mask_base_uri":"https://maps.gstatic.com/mapfiles/place_api/icons/v2/restaurant_pinlet","name":"Pronto Pizzas Décines ( Rhône)","opening_hours":{"open_now":false},"photos":[{"height":809,"html_attributions":["<a href=\"https://maps.google.com/maps/contrib/109472270578204362126\">A Google User</a>"],"photo_reference":"AeJbb3d19EDvJj8QdZisZDeLt4_vEevOV6Oxw1jaFGd9GHYH2_-csbBK3ZlO5yV5-13AdAXd1WsJf8IZfJgkNZm6bZjFNqKNPXmWIEVOcNS1XOhODp4ONtnDvSX_j--duGkyBNXDLkBa10-1WPGdPVuacA855U7iN1JNuRJ0sCB_CjipgBgV","width":1440}],"place_id":"ChIJmSoVXMXA9EcRWGTJHHem8yE","plus_code":{"compound_code":"QW9X+Q7 Décines-Charpieu","global_code":"8FQ6QW9X+Q7"},"price_level":1,"rating":4.5,"reference":"ChIJmSoVXMXA9EcRWGTJHHem8yE","types":["restaurant","food","point_of_interest","establishment"],"user_ratings_total":112},{"business_status":"OPERATIONAL","formatted_address":"5 Rue Bertrange Imeldange, 69390 Vourles","geometry":{"location":{"lat":45.6589335,"lng":4.7739712},"viewport":{"northeast":{"lat":45.66030382989273,"lng":4.775311579892721},"southwest":{"lat":45.65760417010728,"lng":4.772611920107277}}},"icon":"https://maps.gstatic.com/mapfiles/place_api/icons/v1/png_71/restaurant-71.png","icon_background_color":"#FF9E67","icon_mask_base_uri":"https://maps.gstatic.com/mapfiles/place_api/icons/v2/restaurant_pinlet","name":"Pizza De La Traverse","opening_hours":{"open_now":false},"photos":[{"height":420,"html_attributions":["<a href=\"https://maps.google.com/maps/contrib/110648873313998347403\">A Google User</a>"],"photo_reference":"AeJbb3eu_icEsat5oQ8Tjpo5Kj0bVW1lvYtB1L3Zh3GC9beGMwXoZB1GqIvdxThcvPbwqR4bgsqnc_4x2ahQA9UX4iurP3AI88Sle0CHoqPCZvtLVRTsHDuodyY3VJlaWtU9CxjcO-5z9lpK68PP4azVYBhoACIHu8SyF00o8iCKi1puRiCN","width":700}],"place_id":"ChIJBQmTL6zo9EcRaEjy1T-NMEo","plus_code":{"compound_code":"MQ5F+HH Vourles","global_code":"8FQ6MQ5F+HH"},"price_level":1,"rating":4.5,"reference":"ChIJBQmTL6zo9EcRaEjy1T-NMEo","types":["meal_takeaway","restaurant","food","point_of_interest","establishment"],"user_ratings_total":54},{"business_status":"OPERATIONAL","formatted_address":"202 Rue Général de Gaulle, 69530 Brignais","geometry":{"location":{"lat":45.667653,"lng":4.7525498},"viewport":{"northeast":{"lat":45.66899522989272,"lng":4.754005079892721},"southwest":{"lat":45.66629557010727,"lng":4.751305420107277}}},"icon":"https://maps.gstatic.com/mapfiles/place_api/icons/v1/png_71/restaurant-71.png","icon_background_color":"#FF9E67","icon_mask_base_uri":"https://maps.gstatic.com/mapfiles/place_api/icons/v2/restaurant_pinlet","name":"Pizza et Cie","opening_hours":{"open_now":false},"photos":[{"height":2015,"html_attributions":["<a href=\"https://maps.google.com/maps/contrib/103408024959377754684\">A Google User</a>"],"photo_reference":"AeJbb3du15M8Ni9cKf3MzO-xXDVHdGWB4ges7iuk_4u3Wx1u_nygohNVq7tQkP8naPdLgAQrnNlWkIDgFUyw425uT9HcqusBk4FuVHlWSije04ibEVO6Opj0ia7rNb8-3wkihJ9nhQgdcVNWmVyIQpSxPoDGP0uhaEQzyneLWr29Jox3sPrS","width":1511}],"place_id":"ChIJf7uva5zv9EcRfTkprDHZVOo","plus_code":{"compound_code":"MQ93+32 Brignais","global_code":"8FQ6MQ93+32"},"rating":4.5,"reference":"ChIJf7uva5zv9EcRfTkprDHZVOo","types":["restaurant","food","point_of_interest","establishment"],"user_ratings_total":32},{"business_status":"OPERATIONAL","formatted_address":"8 Rue Saint-Maurice, 69008 Lyon","geometry":{"location":{"lat":45.7440308,"lng":4.8679194},"viewport":{"northeast":{"lat":45.74537042989272,"lng":4.869311329892722},"southwest":{"lat":45.74267077010727,"lng":4.866611670107278}}},"icon":"https://maps.gstatic.com/mapfiles/place_api/icons/v1/png_71/restaurant-71.png","icon_background_color":"#FF9E67","icon_mask_base_uri":"https://maps.gstatic.com/mapfiles/place_api/icons/v2/restaurant_pinlet","name":"Pizza Lina","opening_hours":{"open_now":false},"photos":[{"height":3024,"html_attributions":["<a href=\"https://maps.google.com/maps/contrib/106229352584592576019\">A Google User</a>"],"photo_reference":"AeJbb3dLDPP9THDJD79HIdYY-dFj8PxclH4BT9q-F0lQZxgk2-tqdnG8wxxLpTXeSXv0XEWZhWLCk-O5g6bIJZpGzPXFyKEb6Sv5ILPsTsEmX0t6YdcnV6mk7TOAAXDV388dOXnKUyEwF6tridkmL0dMHwJD28o0vQnrVfbd_hRLpGrg0GkR","width":4032}],"place_id":"ChIJpU6GSHXq9EcRm0yGO3oYhqU","plus_code":{"compound_code":"PVV9+J5 Lyon","global_code":"8FQ6PVV9+J5"},"price_level":1,"rating":4.4,"reference":"ChIJpU6GSHXq9EcRm0yGO3oYhqU","types":["meal_takeaway","restaurant","food","point_of_interest","establishment"],"user_ratings_total":289},{"business_status":"OPERATIONAL","formatted_address":"5 Quai Antoine Riboud, 69002 Lyon","geometry":{"location":{"lat":45.742843,"lng":4.8166617},"viewport":{"northeast":{"lat":45.74431367989273,"lng":4.817466129892722},"southwest":{"lat":45.74161402010728,"lng":4.814766470107278}}},"icon":"https://maps.gstatic.com/mapfiles/place_api/icons/v1/png_71/restaurant-71.png","icon_background_color":"#FF9E67","icon_mask_base_uri":"https://maps.gstatic.com/mapfiles/place_api/icons/v2/restaurant_pinlet","name":"L'atelier du Pizzaiolo","opening_hours":{"open_now":false},"photos":[{"height":1530,"html_attributions":["<a href=\"https://maps.google.com/maps/contrib/105255924751288709522\">L&#39;atelier du Pizzaiolo</a>"],"photo_reference":"AeJbb3epyMVLWCpGMnp7JSvc9g3G9CiF3IzGb6E2Pzf-bB0-919jvAqszysSQLa3QXbCJ-euzUfK51lZMLdIL0DTVVfyzq4qct0FTrH9qxfZpKuCBhklVJsYuUa35XrlZza0X-gUGByoCJMVTg-eShCWQE4AwvlXq15rArHu-dtTQnSGTNgz","width":2048}],"place_id":"ChIJFQjp8sjr9EcRnm0KMF868hk","plus_code":{"compound_code":"PRV8+4M Lyon","global_code":"8FQ6PRV8+4M"},"price_level":2,"rating":4.4,"reference":"ChIJFQjp8sjr9EcRnm0KMF868hk","types":["meal_takeaway","restaurant","food","point_of_interest","establishment"],"user_ratings_total":285},{"business_status":"OPERATIONAL","formatted_address":"269 Bis Rte de Genas, 69100 Villeurbanne","geometry":{"location":{"lat":45.7504634,"lng":4.9110507},"viewport":{"northeast":{"lat":45.75175897989272,"lng":4.912378579892722},"southwest":{"lat":45.74905932010727,"lng":4.909678920107278}}},"icon":"https://maps.gstatic.com/mapfiles/place_api/icons/v1/png_71/restaurant-71.png","icon_background_color":"#FF9E67","icon_mask_base_uri":"https://maps.gstatic.com/mapfiles/place_api/icons/v2/restaurant_pinlet","name":"Station pizza Route de Genas","opening_hours":{"open_now":false},"photos":[{"height":4032,"html_attributions":["<a href=\"https://maps.google.com/maps/contrib/105195098534322924838\">A Google User</a>"],"photo_reference":"AeJbb3f9frwCKcbRj-C-lTpfGPbS-bv5OOotkTX517ecdWFwtfmPhjzPUjR4KiG-U_NXBjpURNR9-BqL7lE605qKfU6--qofqwUbZLkzQZhEDR7nY_sgbNhJ8oT64_dbN6h03rlpSethITzwRWH7Gn_6htiuFLFFatLJkCAyxyeZ0-Ax5Slh","width":3024}],"place_id":"ChIJmf7vcUzB9EcRpNiF0Oizaro","plus_code":{"compound_code":"QW26+5C Villeurbanne","global_code":"8FQ6QW26+5C"},"price_level":2,"rating":4.4,"reference":"ChIJmf7vcUzB9EcRpNiF0Oizaro","types":["restaurant","food","point_of_interest","establishment"],"user_ratings_total":231},{"business_status":"OPERATIONAL","formatted_address":"35 Rue Léon Jouhaux, 69003 Lyon","geometry":{"location":{"lat":45.7566196,"lng":4.8539769},"viewport":{"northeast":{"lat":45.75796557989272,"lng":4.855290479892721},"southwest":{"lat":45.75526592010728,"lng":4.852590820107277}}},"icon":"https://maps.gstatic.com/mapfiles/place_api/icons/v1/png_71/restaurant-71.png","icon_background_color":"#FF9E67","icon_mask_base_uri":"https://maps.gstatic.com/mapfiles/place_api/icons/v2/restaurant_pinlet","name":"Uno Pizza Lyon","opening_hours":{"open_now":false},"photos":[{"height":1080,"html_attributions":["<a href=\"https://maps.google.com/maps/contrib/115932045906907412696\">A Google User</a>"],"photo_reference":"AeJbb3fuLdQPQa54v-7uP_rY-B-ARbCTqaIMlRuQ-NiGjDcO4U1U5Y1gVrlMSRABeSRXzJ-3hKxNn1VYtC3r2JyzaEBJ8sNk6zhnBTC_UgG4mV1qIfJIJLouBzzqblgcLeSgYHttigBrOleJYESidNETuhD0PpOkGYkmGa1MYzibHkCbWQIg","width":1620}],"place_id":"ChIJ8WFqkmbq9EcR_z1pFRvM7cs","plus_code":{"compound_code":"QV43+JH Lyon","global_code":"8FQ6QV43+JH"},"price_level":2,"rating":4.4,"reference":"ChIJ8WFqkmbq9EcR_z1pFRvM7cs","types":["meal_takeaway","meal_delivery","restaurant","food","point_of_interest","establishment"],"user_ratings_total":223},{"business_status":"OPERATIONAL","formatted_address":"1 Rue du 8 Mai 1945, 69330 Meyzieu","geometry":{"location":{"lat":45.76684849999999,"lng":5.001910899999999},"viewport":{"northeast":{"lat":45.76815832989272,"lng":5.003271329892723},"southwest":{"lat":45.76545867010728,"lng":5.000571670107279}}},"icon":"https://maps.gstatic.com/mapfiles/place_api/icons/v1/png_71/restaurant-71.png","icon_background_color":"#FF9E67","icon_mask_base_uri":"https://maps.gstatic.com/mapfiles/place_api/icons/v2/restaurant_pinlet","name":"Urban Pizza","opening_hours":{"open_now":false},"photos":[{"height":4032,"html_attributions":["<a href=\"https://maps.google.com/maps/contrib/106652200601968471406\">Urban Pizza</a>"],"photo_reference":"AeJbb3cStidm7sgEq8zfDIezMbJekXhn76RJMDVdEUNOnJvKwvFgatzlO_OpNfBHqpUa_pYmgdSDkB1GnvO2VxrqgeOaB9MhnMTHS5EXe6ujGEnQJzU2FrbkV9t2A5-Yz-VBGihuUxJm7HAGQt1doQKJvsEplRzznopNA5OF17JBbUvoUpAl","width":3024}],"place_id":"ChIJtZ4_HgjH9EcR15N7GPyGiRQ","plus_code":{"compound_code":"Q282+PQ Meyzieu","global_code":"8FQ7Q282+PQ"},"price_level":1,"rating":4.4,"reference":"ChIJtZ4_HgjH9EcR15N7GPyGiRQ","types":["meal_takeaway","restaurant","food","point_of_interest","establishment"],"user_ratings_total":209},{"business_status":"OPERATIONAL","formatted_address":"27 Cr Tolstoï, 69100 Villeurbanne","geometry":{"location":{"lat":45.7639313,"lng":4.8729986},"viewport":{"northeast":{"lat":45.76519922989272,"lng":4.874347079892722},"southwest":{"lat":45.76249957010727,"lng":4.871647420107277}}},"icon":"https://maps.gstatic.com/mapfiles/place_api/icons/v1/png_71/restaurant-71.png","icon_background_color":"#FF9E67","icon_mask_base_uri":"https://maps.gstatic.com/mapfiles/place_api/icons/v2/restaurant_pinlet","name":"Pizza 51 - Villeurbanne","opening_hours":{"open_now":false},"photos":[{"height":750,"html_attributions":["<a href=\"https://maps.google.com/maps/contrib/115253110168474390286\">A Google User</a>"],"photo_reference":"AeJbb3dkFhLXdT8hVsnpM4JPwdw8Niz59GXLULdDnS3E2LUukX5k8tNaosIzqpqfEgYEI2-FuveamfU8o0DAKWrmM8kcsI8BwXgqsvjRjC3TuXtfBqNhORHJZKUkGVe-YzpKvO3mkLpQjt3XgL_75JNKBp_3jZZkFEh9grwE_anmKDy4Ww3W","width":1056}],"place_id":"ChIJ30OktkHB9EcRBtrcYkuP6TI","plus_code":{"compound_code":"QV7F+H5 Villeurbanne","global_code":"8FQ6QV7F+H5"},"rating":4.4,"reference":"ChIJ30OktkHB9EcRBtrcYkuP6TI","types":["restaurant","food","point_of_interest","establishment"],"user_ratings_total":114},{"business_status":"OPERATIONAL","formatted_address":"71 Rue du Dauphiné, 69003 Lyon","geometry":{"location":{"lat":45.7529937,"lng":4.869909199999999},"viewport":{"northeast":{"lat":45.75431382989272,"lng":4.871227479892722},"southwest":{"lat":45.75161417010728,"lng":4.868527820107278}}},"icon":"https://maps.gstatic.com/mapfiles/place_api/icons/v1/png_71/restaurant-71.png","icon_background_color":"#FF9E67","icon_mask_base_uri":"https://maps.gstatic.com/mapfiles/place_api/icons/v2/restaurant_pinlet","name":"Pizzeria Number One Lyon","opening_hours":{"open_now":false},"photos":[{"height":1350,"html_attributions":["<a href=\"https://maps.google.com/maps/contrib/101964331884542531689\">A Google User</a>"],"photo_reference":"AeJbb3cmwlizEyE3Dhaevg4DVHlSmtmCQzxjOMC-ONIn_8LIDqln1Pq6TrG7j5dQGIkh26PojUtBbnXC7j6R055rcDSUGH6570dJQB8jV578ByRyzXWSRFDEUZZoOjXYuaNWz3Yj8NILaPWrg0QQNwsN8ojRkbfjGNID1xXIisipUIunLs2B","width":1080}],"place_id":"ChIJdXKdAd3r9EcRnTpTEGQrjyc","plus_code":{"compound_code":"QV39+5X Lyon","global_code":"8FQ6QV39+5X"},"price_level":1,"rating":4.4,"reference":"ChIJdXKdAd3r9EcRnTpTEGQrjyc","types":["meal_delivery","restaurant","food","point_of_interest","establishment"],"user_ratings_total":105},{"business_status":"OPERATIONAL","formatted_address":"24 Rue de Bourgogne, 69009 Lyon","geometry":{"location":{"lat":45.77686200000001,"lng":4.80413},"viewport":{"northeast":{"lat":45.77825127989273,"lng":4.805395579892722},"southwest":{"lat":45.77555162010728,"lng":4.802695920107278}}},"icon":"https://maps.gstatic.com/mapfiles/place_api/icons/v1/png_71/restaurant-71.png","icon_background_color":"#FF9E67","icon_mask_base_uri":"https://maps.gstatic.com/mapfiles/place_api/icons/v2/restaurant_pinlet","name":"Domeva Restaurant Et Pizzeria","opening_hours":{"open_now":false},"photos":[{"height":3024,"html_attributions":["<a href=\"https://maps.google.com/maps/contrib/107354071899189728712\">Restaurant italien Domeva Caffé Lyon Vaise</a>"],"photo_reference":"AeJbb3eW7BqnBg-mee_BwelWRSJm1DHEMf0J_GZBN4Jx_LPWe4seMND3-frKLxzxHz45-B79_2ZRZpTkToT-6Kx8fjtDf2oBZ8YME-RR4ye418phfKBu7lWzOK88w_1XOvFMa5-1msofDzn5w3OrutAev1vg1PmriVYxKqsmuF4j0QNHhWvw","width":4032}],"place_id":"ChIJWV09Y27r9EcR30eI_ku7R8g","plus_code":{"compound_code":"QRG3+PM Lyon","global_code":"8FQ6QRG3+PM"},"price_level":2,"rating":4.3,"reference":"ChIJWV09Y27r9EcR30eI_ku7R8g","types":["bar","meal_takeaway","cafe","meal_delivery","restaurant","food","point_of_interest","establishment"],"user_ratings_total":857},{"business_status":"OPERATIONAL","formatted_address":"87 Grande Rue, 69600 Oullins","geometry":{"location":{"lat":45.7156703,"lng":4.809303799999999},"viewport":{"northeast":{"lat":45.71705577989272,"lng":4.810579679892721},"southwest":{"lat":45.71435612010728,"lng":4.807880020107278}}},"icon":"https://maps.gstatic.com/mapfiles/place_api/icons/v1/png_71/restaurant-71.png","icon_background_color":"#FF9E67","icon_mask_base_uri":"https://maps.gstatic.com/mapfiles/place_api/icons/v2/restaurant_pinlet","name":"Pizza Cosy","opening_hours":{"open_now":false},"photos":[{"height":4160,"html_attributions":["<a href=\"https://maps.google.com/maps/contrib/101682927897748887693\">Karim B.</a>"],"photo_reference":"AeJbb3c-L36bGo7o3fsxs0ViVicm0BTzjO1Nncl0ID9UxqRGBKWuS21OFreZ1c-IbiIFDkXycvHhBxxmuOg94pm4SwdLUjOvNDrlfxv8d2AbRUSaozUVadrcfbckcfJkhC9VFIEkJzAKnet-Ucj_FJ31Qk9741_sSyuD2cCCTedGQjR6mgGO","width":3120}],"place_id":"ChIJQeFHljfp9EcRqb-PsyXemvU","plus_code":{"compound_code":"PR85+7P Oullins","global_code":"8FQ6PR85+7P"},"price_level":2,"rating":4.3,"reference":"ChIJQeFHljfp9EcRqb-PsyXemvU","types":["meal_takeaway","meal_delivery","restaurant","food","point_of_interest","establishment"],"user_ratings_total":530},{"business_status":"OPERATIONAL","formatted_address":"3 Rue Jacques Stella, 69002 Lyon","geometry":{"location":{"lat":45.7607323,"lng":4.836419999999999},"viewport":{"northeast":{"lat":45.76205437989272,"lng":4.837752679892724},"southwest":{"lat":45.75935472010728,"lng":4.83505302010728}}},"icon":"https://maps.gstatic.com/mapfiles/place_api/icons/v1/png_71/restaurant-71.png","icon_background_color":"#FF9E67","icon_mask_base_uri":"https://maps.gstatic.com/mapfiles/place_api/icons/v2/restaurant_pinlet","name":"Pizzéria La Stella d'Oro","opening_hours":{"open_now":false},"photos":[{"height":2620,"html_attributions":["<a href=\"https://maps.google.com/maps/contrib/111268053743481755986\">Insoola</a>"],"photo_reference":"AeJbb3fXgI3bMMpdcPtRALntnGegaCyfq41qS185VVlGvhBd11pCklmCujCj5d06iq_JQxJutnpOKNc9l6DkCPb7RTJbG3scMl3BB6Ir30ztC9iqpLYUu8rLJD00rR5U74EZDpDJ_drZ_gnUQIh2nxgUFFtDMpsE6-k056ermqOAGQX297jj","width":4656}],"place_id":"ChIJ5XxT5Fbq9EcRugnVEjrxo4Q","plus_code":{"compound_code":"QR6P+7H Lyon","global_code":"8FQ6QR6P+7H"},"price_level":2,"rating":4.3,"reference":"ChIJ5XxT5Fbq9EcRugnVEjrxo4Q","types":["meal_takeaway","restaurant","food","point_of_interest","establishment"],"user_ratings_total":409},{"business_status":"OPERATIONAL","formatted_address":"134 Av. Gabriel Péri, 69120 Vaulx-en-Velin","geometry":{"location":{"lat":45.7739664,"lng":4.9131164},"viewport":{"northeast":{"lat":45.77529342989273,"lng":4.914535729892721},"southwest":{"lat":45.77259377010728,"lng":4.911836070107277}}},"icon":"https://maps.gstatic.com/mapfiles/place_api/icons/v1/png_71/restaurant-71.png","icon_background_color":"#FF9E67","icon_mask_base_uri":"https://maps.gstatic.com/mapfiles/place_api/icons/v2/restaurant_pinlet","name":"Family Pizza Vaulx","opening_hours":{"open_now":false},"photos":[{"height":4608,"html_attributions":["<a href=\"https://maps.google.com/maps/contrib/103903367676083471301\">Marle Peet</a>"],"photo_reference":"AeJbb3dVd91KmXonzpR0zbQOvd7a44259v2mBfqDyTQCfe3v84wq07KAn75kWimiYyROTX2N0IGGe3c0LxKO-O40lkwWacT_25CWcT7fWfjXbwmcQ4V3a_grsH2hLD4-w1qi2qYqTaq1fXGkFkYOJg_U7JnBUWIZIxz39vT8siFcBwEEu7yK","width":3456}],"place_id":"ChIJt46hOFnA9EcR7xrR_79uQGE","plus_code":{"compound_code":"QWF7+H6 Vaulx-en-Velin","global_code":"8FQ6QWF7+H6"},"price_level":1,"rating":4.3,"reference":"ChIJt46hOFnA9EcR7xrR_79uQGE","types":["meal_takeaway","meal_delivery","restaurant","food","point_of_interest","establishment"],"user_ratings_total":254},{"business_status":"OPERATIONAL","formatted_address":"77 Rue Pierre Corneille, 69003 Lyon","geometry":{"location":{"lat":45.7633836,"lng":4.8439759},"viewport":{"northeast":{"lat":45.76472347989272,"lng":4.845353279892722},"southwest":{"lat":45.76202382010728,"lng":4.842653620107278}}},"icon":"https://maps.gstatic.com/mapfiles/place_api/icons/v1/png_71/restaurant-71.png","icon_background_color":"#FF9E67","icon_mask_base_uri":"https://maps.gstatic.com/mapfiles/place_api/icons/v2/restaurant_pinlet","name":"Pizzeria la Caselina","opening_hours":{"open_now":false},"photos":[{"height":2310,"html_attributions":["<a href=\"https://maps.google.com/maps/contrib/108767855984413475335\">Rickey Mandraque</a>"],"photo_reference":"AeJbb3eNq1i7GYYcWk0v_wiSM_X2bWIkQ6qiM5a1EqecsLsp2I9JRs1hIXjn6-amzb7t0ceCMunTQTWi2VhTo0M7nVInlQEn8rgiQ01UxOWGB2FkCrhK5ocx_nUdcNCm_yviBKvX25YCZQq2BrOxQzJiLhf8K1kUeWFU3KIqWTbpD0lgP50d","width":3770}],"place_id":"ChIJlRQfMFnq9EcRA61IQK1jok8","plus_code":{"compound_code":"QR7V+9J Lyon","global_code":"8FQ6QR7V+9J"},"rating":4.3,"reference":"ChIJlRQfMFnq9EcRA61IQK1jok8","types":["restaurant","food","point_of_interest","establishment"],"user_ratings_total":176},{"business_status":"OPERATIONAL","formatted_address":"19 Av. Jean Jaurès, 69007 Lyon","geometry":{"location":{"lat":45.7523183,"lng":4.8464756},"viewport":{"northeast":{"lat":45.75373297989272,"lng":4.847659129892722},"southwest":{"lat":45.75103332010728,"lng":4.844959470107278}}},"icon":"https://maps.gstatic.com/mapfiles/place_api/icons/v1/png_71/restaurant-71.png","icon_background_color":"#FF9E67","icon_mask_base_uri":"https://maps.gstatic.com/mapfiles/place_api/icons/v2/restaurant_pinlet","name":"Lyon Pizza","opening_hours":{"open_now":false},"photos":[{"height":1846,"html_attributions":["<a href=\"https://maps.google.com/maps/contrib/114626468906804582371\">A Google User</a>"],"photo_reference":"AeJbb3ctnLeRJtISB5ewRZhngsrzMdnEAxQJ8RS28JngdV8RWrTnsoVo3vjNiJCDNxVC29j_c7FBzv8nLrKwv9uCguo1i96zryIBlUbhhihDiLDsJz7K9OGftoaC7OZKQG_eq2WnXQeivxURcd2C7pcYSK2KD4UAHf_-sr-WeV0b6eqyt-Pe","width":4000}],"place_id":"ChIJzwV-HkPq9EcR8AjeCdH-Pi8","plus_code":{"compound_code":"QR2W+WH Lyon","global_code":"8FQ6QR2W+WH"},"price_level":1,"rating":4.3,"reference":"ChIJzwV-HkPq9EcR8AjeCdH-Pi8","types":["meal_delivery","meal_takeaway","bar","restaurant","food","point_of_interest","establishment"],"user_ratings_total":158},{"business_status":"OPERATIONAL","formatted_address":"302 Av. Jean Jaurès, 69150 Décines-Charpieu","geometry":{"location":{"lat":45.7713001,"lng":4.9666256},"viewport":{"northeast":{"lat":45.77266937989272,"lng":4.967963379892723},"southwest":{"lat":45.76996972010728,"lng":4.965263720107279}}},"icon":"https://maps.gstatic.com/mapfiles/place_api/icons/v1/png_71/restaurant-71.png","icon_background_color":"#FF9E67","icon_mask_base_uri":"https://maps.gstatic.com/mapfiles/place_api/icons/v2/restaurant_pinlet","name":"Restaurant Et Pizza Au Feu De Bois","place_id":"ChIJv3XaQTHH9EcRl-PWR74GGqg","plus_code":{"compound_code":"QXC8+GM Décines-Charpieu","global_code":"8FQ6QXC8+GM"},"rating":4.3,"reference":"ChIJv3XaQTHH9EcRl-PWR74GGqg","types":["restaurant","food","point_of_interest","establishment"],"user_ratings_total":10},{"business_status":"OPERATIONAL","formatted_address":"14bis Rue Marietton, 69009 Lyon","geometry":{"location":{"lat":45.7752497,"lng":4.806300999999999},"viewport":{"northeast":{"lat":45.77658407989272,"lng":4.807645229892722},"southwest":{"lat":45.77388442010728,"lng":4.804945570107278}}},"icon":"https://maps.gstatic.com/mapfiles/place_api/icons/v1/png_71/restaurant-71.png","icon_background_color":"#FF9E67","icon_mask_base_uri":"https://maps.gstatic.com/mapfiles/place_api/icons/v2/restaurant_pinlet","name":"Pizza Pasta","opening_hours":{"open_now":false},"photos":[{"height":6944,"html_attributions":["<a href=\"https://maps.google.com/maps/contrib/116879518522385561528\">Mafia Street</a>"],"photo_reference":"AeJbb3dWAi0zUWnPyNGncUUkj5ltCLyoU9Y0a-jl3dBCOTmRJPh0aA0SGHlbgJYMWINfHNRJdVS8Y_N13GhwAdoMhA1LaoKC6pu8gfWWPLBX4ykThbQcj0ZHS180KHie6LJ6uCiiMj13qQApO-5Z8DkmzEfORAIZr13SVdArMoxH5eftCxFI","width":9248}],"place_id":"ChIJU9IYjm3r9EcRHyTwTpNmPNA","plus_code":{"compound_code":"QRG4+4G Lyon","global_code":"8FQ6QRG4+4G"},"rating":4.2,"reference":"ChIJU9IYjm3r9EcRHyTwTpNmPNA","types":["meal_takeaway","restaurant","food","point_of_interest","establishment"],"user_ratings_total":285},{"business_status":"OPERATIONAL","formatted_address":"21 Quai Romain Rolland, 69005 Lyon","geometry":{"location":{"lat":45.7624057,"lng":4.8287454},"viewport":{"northeast":{"lat":45.76376627989272,"lng":4.830168729892723},"southwest":{"lat":45.76106662010728,"lng":4.827469070107279}}},"icon":"https://maps.gstatic.com/mapfiles/place_api/icons/v1/png_71/restaurant-71.png","icon_background_color":"#FF9E67","icon_mask_base_uri":"https://maps.gstatic.com/mapfiles/place_api/icons/v2/restaurant_pinlet","name":"L’AS de PIZZ - Pizzeria du Vieux-Lyon","opening_hours":{"open_now":false},"photos":[{"height":3024,"html_attributions":["<a href=\"https://maps.google.com/maps/contrib/117846492294045415756\">Joannick Azama</a>"],"photo_reference":"AeJbb3cLftgW-daxgePxcDwiVdvJJ4tjxM90XU4IhDEC6VEUM7CdAYwi1BepV58PkxIHZJ5MHHK3LEFXKbeRTlWCHZy8Lztxqdi0EfLWr8tud4ox284RCRzoSNtsY0DbtQZuw68FfL2IMpzL_lC9flN0W7Cmm1UZKbtfw0r1ntbFB-9XP-M","width":4032}],"place_id":"ChIJob7xxKrr9EcR31aIgDQvv9s","plus_code":{"compound_code":"QR6H+XF Lyon","global_code":"8FQ6QR6H+XF"},"price_level":1,"rating":4.2,"reference":"ChIJob7xxKrr9EcR31aIgDQvv9s","types":["meal_delivery","meal_takeaway","restaurant","food","point_of_interest","establishment"],"user_ratings_total":72},{"business_status":"OPERATIONAL","formatted_address":"35 Grande Rue, 69110 Sainte-Foy-lès-Lyon","geometry":{"location":{"lat":45.7341676,"lng":4.8039201},"viewport":{"northeast":{"lat":45.73550282989272,"lng":4.805250629892721},"southwest":{"lat":45.73280317010727,"lng":4.802550970107277}}},"icon":"https://maps.gstatic.com/mapfiles/place_api/icons/v1/png_71/restaurant-71.png","icon_background_color":"#FF9E67","icon_mask_base_uri":"https://maps.gstatic.com/mapfiles/place_api/icons/v2/restaurant_pinlet","name":"Pizza Baron","opening_hours":{"open_now":true},"photos":[{"height":814,"html_attributions":["<a href=\"https://maps.google.com/maps/contrib/107095544034138716146\">A Google User</a>"],"photo_reference":"AeJbb3cHfH_cbzf0PGJIap12DtwORqrqZfJPXm1Ue6koEikGGQKFHb95VqB5V1nru1Wv9gikJoARoxA9PoFdiXV2JHcO3IqnVO_A9HuzIvkrtNZBa4yrBcJCyv6zT8ybl7O9BbR9DUD5iM-WWQOaosP6aplmgtFMoiqWW4qSgGPqG8Z2KrRG","width":828}],"place_id":"ChIJvTx2XFPr9EcRht5-ilAfgLE","plus_code":{"compound_code":"PRM3+MH Sainte-Foy-lès-Lyon","global_code":"8FQ6PRM3+MH"},"rating":4.2,"reference":"ChIJvTx2XFPr9EcRht5-ilAfgLE","types":["restaurant","food","point_of_interest","establishment"],"user_ratings_total":45},{"business_status":"OPERATIONAL","formatted_address":"6 All. Claude Bachelard, 69110 Sainte-Foy-lès-Lyon","geometry":{"location":{"lat":45.7348842,"lng":4.7865472},"viewport":{"northeast":{"lat":45.73621142989272,"lng":4.787883129892721},"southwest":{"lat":45.73351177010727,"lng":4.785183470107278}}},"icon":"https://maps.gstatic.com/mapfiles/place_api/icons/v1/png_71/restaurant-71.png","icon_background_color":"#FF9E67","icon_mask_base_uri":"https://maps.gstatic.com/mapfiles/place_api/icons/v2/restaurant_pinlet","name":"Robino Pizza Café","opening_hours":{"open_now":false},"photos":[{"height":3024,"html_attributions":["<a href=\"https://maps.google.com/maps/contrib/103400735881625995278\">Amir Schulz</a>"],"photo_reference":"AeJbb3cEfrGZ3MeTnjI8k6zF2MKgZbeuhJNh-fDs9-DG4-DO1sL1rIlJqoPTGWc7qkPkChhT5JS8pcn06S_wKDDmX214Q1uLOL9Zp4td8rSM_wuOmCwTcNBvWuvGw7vjUR-2CqPYCJBgSvuJgD3qKz8sxKJ4uK27PiFAr9I5XLKz_THUttdr","width":4032}],"place_id":"ChIJaRIVe_nr9EcRjTVw-K2fYKs","plus_code":{"compound_code":"PQMP+WH Sainte-Foy-lès-Lyon","global_code":"8FQ6PQMP+WH"},"rating":4.1,"reference":"ChIJaRIVe_nr9EcRjTVw-K2fYKs","types":["meal_takeaway","restaurant","food","point_of_interest","establishment"],"user_ratings_total":141},{"business_status":"OPERATIONAL","formatted_address":"6 Rue Désirée, 69001 Lyon","geometry":{"location":{"lat":45.7684124,"lng":4.835088799999999},"viewport":{"northeast":{"lat":45.76978742989273,"lng":4.836145179892723},"southwest":{"lat":45.76708777010728,"lng":4.833445520107278}}},"icon":"https://maps.gstatic.com/mapfiles/place_api/icons/v1/png_71/restaurant-71.png","icon_background_color":"#FF9E67","icon_mask_base_uri":"https://maps.gstatic.com/mapfiles/place_api/icons/v2/restaurant_pinlet","name":"Pizzeria La Focaccia","opening_hours":{"open_now":false},"photos":[{"height":4032,"html_attributions":["<a href=\"https://maps.google.com/maps/contrib/114740526093004067010\">Bilal El Hachmioui</a>"],"photo_reference":"AeJbb3eXar3gn13ogSHHnVG5ddVC9Z4PIzqmpS32eaWTke0zk-_pYucxzcRZVEzjGq2XPV_9rRO_LAShs0J2HwqPE1vg_XBOUqwCfIOZSQdpHv4gs5DmRHodh0CIudRp3sceElJcMtUMonfHG5runGPSxe1xhEMq_N_ZSNa6UuTkjlNw_OZk","width":3024}],"place_id":"ChIJydqlq_7q9EcRm52kdjaf7Ro","plus_code":{"compound_code":"QR9P+92 Lyon","global_code":"8FQ6QR9P+92"},"price_level":2,"rating":3.9,"reference":"ChIJydqlq_7q9EcRm52kdjaf7Ro","types":["meal_takeaway","restaurant","food","point_of_interest","establishment"],"user_ratings_total":333},{"business_status":"OPERATIONAL","formatted_address":"RN 86 D386, Les Sept Chemins, 69390 Vourles","geometry":{"location":{"lat":45.654374,"lng":4.750738},"viewport":{"northeast":{"lat":45.65574472989272,"lng":4.752024929892723},"southwest":{"lat":45.65304507010728,"lng":4.749325270107279}}},"icon":"https://maps.gstatic.com/mapfiles/place_api/icons/v1/png_71/restaurant-71.png","icon_background_color":"#FF9E67","icon_mask_base_uri":"https://maps.gstatic.com/mapfiles/place_api/icons/v2/restaurant_pinlet","name":"Pizzamore Pizzeria Trattoria","opening_hours":{"open_now":true},"photos":[{"height":460,"html_attributions":["<a href=\"https://maps.google.com/maps/contrib/118003622646916169099\">PizzaMore</a>"],"photo_reference":"AeJbb3fqPns51VeWR5mgFhGRPaCpjMdA1SOCkJ883UH6WpxGw6y6Ju6yDkWX9xjY7WzRbqZWrZvQorTWDZaKx_wvlQbJLLWhA3Hgud3TEkKIXiaWicLovHsb0TJIOzj-Lu6pRvadW2yFru6hDMs4cYR2RGa44ZQOHlfIhzmfNtj9XEb2elup","width":840}],"place_id":"ChIJRZRuaV_v9EcRxWfo8VzraaU","plus_code":{"compound_code":"MQ32+P7 Vourles","global_code":"8FQ6MQ32+P7"},"rating":3.9,"reference":"ChIJRZRuaV_v9EcRxWfo8VzraaU","types":["meal_takeaway","lodging","restaurant","food","point_of_interest","establishment"],"user_ratings_total":237},{"business_status":"OPERATIONAL","formatted_address":"34 Rue Tupin, 69002 Lyon","geometry":{"location":{"lat":45.762865,"lng":4.8352409},"viewport":{"northeast":{"lat":45.76419442989273,"lng":4.836597429892721},"southwest":{"lat":45.76149477010728,"lng":4.833897770107277}}},"icon":"https://maps.gstatic.com/mapfiles/place_api/icons/v1/png_71/restaurant-71.png","icon_background_color":"#FF9E67","icon_mask_base_uri":"https://maps.gstatic.com/mapfiles/place_api/icons/v2/restaurant_pinlet","name":"Pizza Papa","opening_hours":{"open_now":false},"photos":[{"height":2268,"html_attributions":["<a href=\"https://maps.google.com/maps/contrib/116045817185804470813\">עפרי</a>"],"photo_reference":"AeJbb3dnFryfw1xtt0OZkOITnu3d2GsL9EYoStaKjgG8Vfzg9FCaVZ6Frr2jhnQscg3mVk8sIHu6c794sYNlAavDLKDEU_93GnChjzJ1qsIu5BPVhCXLqyZjo-MoOUHMIW3T9rMZeuoIAjtTR0wHWKOkVJMc9CJx6DhAXsceug8LHLZbkMdX","width":4032}],"place_id":"ChIJC2clDFbq9EcRLNEh4B3fXoc","plus_code":{"compound_code":"QR7P+44 Lyon","global_code":"8FQ6QR7P+44"},"price_level":2,"rating":3.8,"reference":"ChIJC2clDFbq9EcRLNEh4B3fXoc","types":["meal_takeaway","restaurant","food","point_of_interest","establishment"],"user_ratings_total":1003},{"business_status":"OPERATIONAL","formatted_address":"20 Pl. des Maisons Neuves, 69100 Villeurbanne","geometry":{"location":{"lat":45.7554311,"lng":4.8765546},"viewport":{"northeast":{"lat":45.75679007989272,"lng":4.877974129892721},"southwest":{"lat":45.75409042010727,"lng":4.875274470107278}}},"icon":"https://maps.gstatic.com/mapfiles/place_api/icons/v1/png_71/restaurant-71.png","icon_background_color":"#FF9E67","icon_mask_base_uri":"https://maps.gstatic.com/mapfiles/place_api/icons/v2/restaurant_pinlet","name":"Marinelo Pizza","opening_hours":{"open_now":false},"photos":[{"height":2884,"html_attributions":["<a href=\"https://maps.google.com/maps/contrib/103486633977453720085\">Marine Prost</a>"],"photo_reference":"AeJbb3dXCORVuNfHZeg0Cgr-LsVB5onBb5Ne1R5PZsbemZC7kwQO7uhoeRYDUABt5m_kce1sJfa4QtsGaaPbHKPAA_5L7PFgOKjBby_is4z7Bq8wtr4NiaXUL-eqZrOAnI9Tl4r8mCBpXnXB_h592N7q0Es1oYflU2EK0NPOLl-_Wi1rXnZN","width":2831}],"place_id":"ChIJyXtSHtHB9EcRfB4UkVL0kSg","plus_code":{"compound_code":"QV4G+5J Villeurbanne","global_code":"8FQ6QV4G+5J"},"rating":3.8,"reference":"ChIJyXtSHtHB9EcRfB4UkVL0kSg","types":["meal_takeaway","restaurant","food","point_of_interest","establishment"],"user_ratings_total":71},{"business_status":"OPERATIONAL","formatted_address":"106 Rue du Président Édouard Herriot, 69002 Lyon","geometry":{"location":{"lat":45.7581375,"lng":4.833671},"viewport":{"northeast":{"lat":45.75946897989272,"lng":4.835047179892722},"southwest":{"lat":45.75676932010727,"lng":4.832347520107279}}},"icon":"https://maps.gstatic.com/mapfiles/place_api/icons/v1/png_71/restaurant-71.png","icon_background_color":"#FF9E67","icon_mask_base_uri":"https://maps.gstatic.com/mapfiles/place_api/icons/v2/restaurant_pinlet","name":"Pizza Pino","opening_hours":{"open_now":false},"photos":[{"height":2896,"html_attributions":["<a href=\"https://maps.google.com/maps/contrib/107393917201564556530\">Alok Soni</a>"],"photo_reference":"AeJbb3fstlPcdLD1ApLpbkF2ZBa21nwgDh9K69xgTMmIP8n43Ve9QCE1cz0S_rzHPN76QakL_9VcG4Zn2WsnJnUtjMzJXRkoVlgCtiCil54BjVrbqh_EPeiBzj18ubd6b-oIkKX74HBQX6GmSyA5ReWJ7BGe5DWQkHI_XuMCgYFCMm00C_wV","width":5152}],"place_id":"ChIJPxtQ4FPq9EcRE2rVPqDecCQ","plus_code":{"compound_code":"QR5M+7F Lyon","global_code":"8FQ6QR5M+7F"},"price_level":2,"rating":3.6,"reference":"ChIJPxtQ4FPq9EcRE2rVPqDecCQ","types":["meal_takeaway","restaurant","food","point_of_interest","establishment"],"user_ratings_total":3892}]