[{"business_status":"OPERATIONAL","formatted_address":"Jahnallee 4, 04109 Leipzig","geometry":{"location":{"lat":51.3431619,"lng":12.3641471},"viewport":{"northeast":{"lat":51.34445537989271,"lng":12.36553152989272},"southwest":{"lat":51.34175572010727,"lng":12.36283187010728}}},"icon":"https://maps.gstatic.com/mapfiles/place_api/icons/v1/png_71/restaurant-71.png","icon_background_color":"#FF9E67","icon_mask_base_uri":"https://maps.gstatic.com/mapfiles/place_api/icons/v2/restaurant_pinlet","name":"Kamun","opening_hours":{"open_now":true},"photos":[{"height":810,"html_attributions":["<a href=\"https://maps.google.com/maps/contrib/107368902707496072135\">A Google User</a>"],"photo_reference":"AeJbb3csSzNDc0RXxTYn-iJe6eRzK3ZmG5UEnvMVj103WLLYh2VV-N42opb0DrESH5zde5eSQP8wF4MwRe_EvvyaEbJLhlQn2tnRlAO_BdYM-dY2hBlFFPHmI-L3XPmjC0RkNmNtwXdXWzuxydbesVB6SiDEtlwFU8iymP8lnA7BkflYMylA","width":1440}],"place_id":"ChIJH-pMuHf3pkcRaKRZCTgyhcE","plus_code":{"compound_code":"89V7+7M Leipzig","global_code":"9F3J89V7+7M"},"rating":5,"reference":"ChIJH-pMuHf3pkcRaKRZCTgyhcE","types":["cafe","restaurant","point_of_interest","store","food","establishment"],"user_ratings_total":27},{"business_status":"OPERATIONAL","formatted_address":"Petersstraße 41, 04109 Leipzig","geometry":{"location":{"lat":51.3372602,"lng":12.3753548},"viewport":{"northeast":{"lat":51.33857242989272,"lng":12.37675877989272},"southwest":{"lat":51.33587277010728,"lng":12.37405912010728}}},"icon":"https://maps.gstatic.com/mapfiles/place_api/icons/v1/png_71/restaurant-71.png","icon_background_color":"#FF9E67","icon_mask_base_uri":"https://maps.gstatic.com/mapfiles/place_api/icons/v2/restaurant_pinlet","name":"Swing Kitchen","place_id":"ChIJCV1SRQL5pkcRG1-9pSWPNF0","plus_code":{"compound_code":"89PG+W4 Leipzig","global_code":"9F3J89PG+W4"},"rating":5,"reference":"ChIJCV1SRQL5pkcRG1-9pSWPNF0","types":["restaurant","food","point_of_interest","establishment"],"user_ratings_total":1},{"business_status":"OPERATIONAL","formatted_address":"Karl-Heine-Straße 87, 04229 Leipzig","geometry":{"location":{"lat":51.3305467,"lng":12.3315653},"viewport":{"northeast":{"lat":51.33197692989273,"lng":12.33273092989272},"southwest":{"lat":51.32927727010728,"lng":12.33003127010728}}},"icon":"https://maps.gstatic.com/mapfiles/place_api/icons/v1/png_71/restaurant-71.png","icon_background_color":"#FF9E67","icon_mask_base_uri":"https://maps.gstatic.com/mapfiles/place_api/icons/v2/restaurant_pinlet","name":"Bamboo's Streetfood","opening_hours":{"open_now":true},"photos":[{"height":3024,"html_attributions":["<a href=\"https://maps.google.com/maps/contrib/103758571673411768579\">A Google User</a>"],"photo_reference":"AeJbb3fO4FGYhlY_5ORMzas2zrKv3GKKMcdjQ2vUA4hiNCsekmYRS2o5TG5CVekjjEsMIoJBRzxFpe4GxWwfQAvzmLXC59j-r3yPhrN8O435qRputGoPN1y1xtgOfeiw8IBr4SELUYHDZo9gkryKJHl7afWUldNtMBRP7xHCEXrkBQtyB5iL","width":4032}],"place_id":"ChIJbxbEq5X3pkcRCb4EseB1cm8","plus_code":{"compound_code":"88JJ+6J Leipzig","global_code":"9F3J88JJ+6J"},"rating":4.9,"reference":"ChIJbxbEq5X3pkcRCb4EseB1cm8","types":["restaurant","food","point_of_interest","establishment"],"user_ratings_total":111},{"business_status":"OPERATIONAL","formatted_address":"Karl-Liebknecht-Straße 72, 04275 Leipzig","geometry":{"location":{"lat":51.32221149999999,"lng":12.373224},"viewport":{"northeast":{"lat":51.32351127989271,"lng":12.37454722989272},"southwest":{"lat":51.32081162010727,"lng":12.37184757010728}}},"icon":"https://maps.gstatic.com/mapfiles/place_api/icons/v1/png_71/restaurant-71.png","icon_background_color":"#FF9E67","icon_mask_base_uri":"https://maps.gstatic.com/mapfiles/place_api/icons/v2/restaurant_pinlet","name":"Aardappel Kumpir Leipzig","opening_hours":{"open_now":true},"photos":[{"height":1434,"html_attributions":["<a href=\"https://maps.google.com/maps/contrib/113114819775874312256\">A Google User</a>"],"photo_reference":"AeJbb3fIW8x7cKS1Zn6Sh9YL8k9dmYCQ4RoMOZptwV8Q9Q7NPv_5nqGT6PjHBu2z6tAVnHO1YCaW_7nDm1nTIeWxSj3u2syQC2TCFHbz1PfsOEvTVw2GLHTxL6Rw3VXjFVedMcJafE1pDYcf2TJQBFnjN2wn-v6fMDbQ_dtoB8fWlZh7rH0U","width":2160}],"place_id":"ChIJtUrq08r5pkcRxfJL_asOpzc","plus_code":{"compound_code":"89CF+V7 Leipzig","global_code":"9F3J89CF+V7"},"rating":4.9,"reference":"ChIJtUrq08r5pkcRxfJL_asOpzc","types":["restaurant","food","point_of_interest","establishment"],"user_ratings_total":95},{"business_status":"OPERATIONAL","formatted_address":"Beuchaer Str. 2, 04318 Leipzig","geometry":{"location":{"lat":51.3359342,"lng":12.4084411},"viewport":{"northeast":{"lat":51.33730767989272,"lng":12.40979442989272},"southwest":{"lat":51.33460802010728,"lng":12.40709477010728}}},"icon":"https://maps.gstatic.com/mapfiles/place_api/icons/v1/png_71/cafe-71.png","icon_background_color":"#FF9E67","icon_mask_base_uri":"https://maps.gstatic.com/mapfiles/place_api/icons/v2/cafe_pinlet","name":"Café Ubuntu","opening_hours":{"open_now":true},"photos":[{"height":1920,"html_attributions":["<a href=\"https://maps.google.com/maps/contrib/116122342624599309394\">yanniquita</a>"],"photo_reference":"AeJbb3ckNuUZp05diO9PnLPngnmjafZuaCGPd2DHfpdrGQKxHIDs2sX1-d6bS-_YfSIODuQXt0blqWrT5VmCbyxsDOZFK8a_WL6TJSmRS5Q1GSJVsnbOxkBab3pnHSmlAR4dZ3H3Q9JRehU9ZKwzmMqk9IvZA82z_G-yr_yfYU_cbN0lEkb-","width":1080}],"place_id":"ChIJjZBUnj_5pkcR3B_A6XFMtMU","plus_code":{"compound_code":"8CP5+99 Leipzig","global_code":"9F3J8CP5+99"},"rating":4.9,"reference":"ChIJjZBUnj_5pkcR3B_A6XFMtMU","types":["cafe","restaurant","food","point_of_interest","establishment"],"user_ratings_total":67},{"business_status":"OPERATIONAL","formatted_address":"Gießerstraße 32A, 04229 Leipzig","geometry":{"location":{"lat":51.3259387,"lng":12.3272394},"viewport":{"northeast":{"lat":51.32727692989272,"lng":12.32867747989272},"southwest":{"lat":51.32457727010728,"lng":12.32597782010728}}},"icon":"https://maps.gstatic.com/mapfiles/place_api/icons/v1/png_71/restaurant-71.png","icon_background_color":"#FF9E67","icon_mask_base_uri":"https://maps.gstatic.com/mapfiles/place_api/icons/v2/restaurant_pinlet","name":"VLEISCHEREI konieczny","opening_hours":{"open_now":true},"photos":[{"height":2447,"html_attributions":["<a href=\"https://maps.google.com/maps/contrib/112303354271557008978\">A Google User</a>"],"photo_reference":"AeJbb3cXoPsd_HNlhXXOyMZhx8uL9n_cBmP68o2O0IUBX9Fg_R-insbSuRTqmvUX-Oxo1HY_ivfrySe2U9_vMd0agsF33pCsf7sdZxsBggTHX7tQWYd88awUott5qY51xpWdpkeNFkcRo8HvsaMC27TmD5tRkyENA-Tn84FuUUc3zbwOKGrG","width":2447}],"place_id":"ChIJsaQhxe33pkcRTYHQDBSSUQk","plus_code":{"compound_code":"88GG+9V Leipzig","global_code":"9F3J88GG+9V"},"rating":4.9,"reference":"ChIJsaQhxe33pkcRTYHQDBSSUQk","types":["restaurant","point_of_interest","food","establishment"],"user_ratings_total":28},{"business_status":"OPERATIONAL","formatted_address":"Zentralstraße 1 ( Ecke, Gottschedstraße, 04109 Leipzig","geometry":{"location":{"lat":51.33983869999999,"lng":12.3701389},"viewport":{"northeast":{"lat":51.34122672989272,"lng":12.37141417989272},"southwest":{"lat":51.33852707010728,"lng":12.36871452010728}}},"icon":"https://maps.gstatic.com/mapfiles/place_api/icons/v1/png_71/restaurant-71.png","icon_background_color":"#FF9E67","icon_mask_base_uri":"https://maps.gstatic.com/mapfiles/place_api/icons/v2/restaurant_pinlet","name":"GAO Vegan Restaurant","opening_hours":{"open_now":true},"photos":[{"height":4608,"html_attributions":["<a href=\"https://maps.google.com/maps/contrib/109767430419475658148\">.MaH. Splash</a>"],"photo_reference":"AeJbb3dVO6syppngnYd2X9Xac7bXwN9YIB9LTtV4BKrb2tf1vFuTvjnovjmzKDR3B8MPfVB5bmZ0dKx5nOyxDcnfaTgZSlYOoyMJscO3eP3W9MexZLMIT6i6u8XM47m9nXBqGE3Zyp4_YTYIA5MzJn6hNNRBFmYVPWJcJoNrn3x93w6-J3Bn","width":3456}],"place_id":"ChIJSTOlnVb5pkcRucwHox031rc","plus_code":{"compound_code":"89QC+W3 Leipzig","global_code":"9F3J89QC+W3"},"price_level":2,"rating":4.8,"reference":"ChIJSTOlnVb5pkcRucwHox031rc","types":["restaurant","point_of_interest","food","establishment"],"user_ratings_total":414},{"business_status":"OPERATIONAL","formatted_address":"Brühl 6, 04109 Leipzig","geometry":{"location":{"lat":51.3430358,"lng":12.3735929},"viewport":{"northeast":{"lat":51.34443617989272,"lng":12.37453277989272},"southwest":{"lat":51.34173652010728,"lng":12.37183312010728}}},"icon":"https://maps.gstatic.com/mapfiles/place_api/icons/v1/png_71/restaurant-71.png","icon_background_color":"#FF9E67","icon_mask_base_uri":"https://maps.gstatic.com/mapfiles/place_api/icons/v2/restaurant_pinlet","name":"BROTGEFUEHLE - glutenfreie, vegane BIO-Backmanufaktur","opening_hours":{"open_now":true},"photos":[{"height":525,"html_attributions":["<a href=\"https://maps.google.com/maps/contrib/108748828587768964365\">A Google User</a>"],"photo_reference":"AeJbb3edA8T_7arWDKQZhJ4kwdqP9fVeup3gNc51KniUq2gVSbEsIk4MTQrWcJGRCzi8-O7icAv1QREBoWykm16q1KWbAoUD8hnrmCfOseGASlSihkXQwxDk-33aUwgJ7CJ0nPsMqpTN9jSWL9ol6L-mlZpwhgnJTHqT4To3lhRaIaHD5rjg","width":700}],"place_id":"ChIJhWwXQSL4pkcRSnuao8_i5dw","plus_code":{"compound_code":"89VF+6C Leipzig","global_code":"9F3J89VF+6C"},"rating":4.8,"reference":"ChIJhWwXQSL4pkcRSnuao8_i5dw","types":["cafe","bakery","restaurant","food","store","point_of_interest","establishment"],"user_ratings_total":86},{"business_status":"OPERATIONAL","formatted_address":"Wintergartenstraße 13, 04103 Leipzig","geometry":{"location":{"lat":51.3437095,"lng":12.3851322},"viewport":{"northeast":{"lat":51.34497922989272,"lng":12.38649337989272},"southwest":{"lat":51.34227957010728,"lng":12.38379372010728}}},"icon":"https://maps.gstatic.com/mapfiles/place_api/icons/v1/png_71/restaurant-71.png","icon_background_color":"#FF9E67","icon_mask_base_uri":"https://maps.gstatic.com/mapfiles/place_api/icons/v2/restaurant_pinlet","name":"Takumi Leipzig Chicken & Vegan","opening_hours":{"open_now":true},"photos":[{"height":1055,"html_attributions":["<a href=\"https://maps.google.com/maps/contrib/117939262980767812035\">A Google User</a>"],"photo_reference":"AeJbb3e2jUr_2pPpYZ3USTAsEzhYXMex0WuxGw2lvTgcQwZkXqvbAnf-j290CqPhE7v4GSsY2v2uzAMGJs7Hc6jOPtfSQG4-O-WW52LYpCVOmUIdg2HjvUbSNyuadBJrV1jtV0Ks8oauHvyrhB47xaObHJ6fqfYbwCRmrEdOFnPv4Iw_Uqpd","width":1594}],"place_id":"ChIJ5ebG3ET5pkcRfn2hyOJe6sk","plus_code":{"compound_code":"89VP+F3 Leipzig","global_code":"9F3J89VP+F3"},"rating":4.8,"reference":"ChIJ5ebG3ET5pkcRfn2hyOJe6sk","types":["restaurant","food","point_of_interest","establishment"],"user_ratings_total":71},{"business_status":"OPERATIONAL","formatted_address":"Zschochersche Str. 25, 04229 Leipzig","geometry":{"location":{"lat":51.3320493,"lng":12.3387558},"viewport":{"northeast":{"lat":51.33340257989272,"lng":12.34002652989272},"southwest":{"lat":51.33070292010728,"lng":12.33732687010728}}},"icon":"https://maps.gstatic.com/mapfiles/place_api/icons/v1/png_71/restaurant-71.png","icon_background_color":"#FF9E67","icon_mask_base_uri":"https://maps.gstatic.com/mapfiles/place_api/icons/v2/restaurant_pinlet","name":"Mam Mam","opening_hours":{"open_now":true},"photos":[{"height":2243,"html_attributions":["<a href=\"https://maps.google.com/maps/contrib/107680181248069873402\">Jens Schaadt</a>"],"photo_reference":"AeJbb3ekrrNeqDsDsPM199tgq07QIm1on8A0ev7l7nsrWu3munVQktOgMFG1PqhdMEeugcJvjN1t2RnlQL4Sb6ZKCIJ9lOGx0Pi7-7y0zCvNcpka4SjWOpQ3weMoAHGORvY7fRk8x2WBV5MG1oUer9S9DncA_4aYfj2ZCU8-HjKlnUNfiEP2","width":2992}],"place_id":"ChIJB4vF2J73pkcRy6_NtpO3Tf4","plus_code":{"compound_code":"88JQ+RG Leipzig","global_code":"9F3J88JQ+RG"},"rating":4.8,"reference":"ChIJB4vF2J73pkcRy6_NtpO3Tf4","types":["restaurant","food","point_of_interest","establishment"],"user_ratings_total":62},{"business_status":"OPERATIONAL","formatted_address":"Georg-Schwarz-Straße 9, 04177 Leipzig","geometry":{"location":{"lat":51.3385282,"lng":12.3271199},"viewport":{"northeast":{"lat":51.33988262989272,"lng":12.32856027989272},"southwest":{"lat":51.33718297010728,"lng":12.32586062010728}}},"icon":"https://maps.gstatic.com/mapfiles/place_api/icons/v1/png_71/restaurant-71.png","icon_background_color":"#FF9E67","icon_mask_base_uri":"https://maps.gstatic.com/mapfiles/place_api/icons/v2/restaurant_pinlet","name":"Baba Handmade Cafe","opening_hours":{"open_now":true},"photos":[{"height":900,"html_attributions":["<a href=\"https://maps.google.com/maps/contrib/110921882756589219481\">A Google User</a>"],"photo_reference":"AeJbb3fAxIe_f3zWnJaoD84y2Hg1kGZFpBnK3GCdDyjwaWHbXy2mM7FlQrCCKXJoV4M7WnXaadrOrNmuqIck6WJ2fyvZjA6wa85q1v6Vq7WmSDx1FIu96i0j3xfYv_SgthhwMVWv_rdIG0X4fLzQjVz2UxUXhiXT4DqVJROin2t3SXrYnXxJ","width":1600}],"place_id":"ChIJWdqGnRb3pkcRpC9PAGso0s8","plus_code":{"compound_code":"88QG+CR Leipzig","global_code":"9F3J88QG+CR"},"rating":4.8,"reference":"ChIJWdqGnRb3pkcRpC9PAGso0s8","types":["restaurant","point_of_interest","food","establishment"],"user_ratings_total":25},{"business_status":"OPERATIONAL","formatted_address":"Könneritzstraße 49, 04229 Leipzig","geometry":{"location":{"lat":51.3242284,"lng":12.3441373},"viewport":{"northeast":{"lat":51.32558617989272,"lng":12.34541417989272},"southwest":{"lat":51.32288652010728,"lng":12.34271452010728}}},"icon":"https://maps.gstatic.com/mapfiles/place_api/icons/v1/png_71/restaurant-71.png","icon_background_color":"#FF9E67","icon_mask_base_uri":"https://maps.gstatic.com/mapfiles/place_api/icons/v2/restaurant_pinlet","name":"maza pita - syrian specialties","opening_hours":{"open_now":true},"photos":[{"height":4032,"html_attributions":["<a href=\"https://maps.google.com/maps/contrib/108485525142741311534\">Quzzi O</a>"],"photo_reference":"AeJbb3dDnFSThcGCWZKY5tqZwdtEcvjIGECTB2OP7b_svo7nj3j3tSUL4IaVcCAtd0M6k8XThJkXV1bx3YyvhQAl4EuudtrQDt9bFxZcxEOIP08BhssQb-05lBD7PayLPmN0KG7CZpQTsz8z1uJ7kz3X6eTu1oGE2UdpeCscwgvW_UB7XudR","width":3024}],"place_id":"ChIJn5i1dHf3pkcROrQmI2SkuI0","plus_code":{"compound_code":"88FV+MM Leipzig","global_code":"9F3J88FV+MM"},"price_level":1,"rating":4.7,"reference":"ChIJn5i1dHf3pkcROrQmI2SkuI0","types":["restaurant","food","point_of_interest","establishment"],"user_ratings_total":679},{"business_status":"OPERATIONAL","formatted_address":"Karl-Liebknecht-Straße 1, 04107 Leipzig","geometry":{"location":{"lat":51.3314367,"lng":12.3740467},"viewport":{"northeast":{"lat":51.33278587989272,"lng":12.37522632989272},"southwest":{"lat":51.33008622010728,"lng":12.37252667010728}}},"icon":"https://maps.gstatic.com/mapfiles/place_api/icons/v1/png_71/restaurant-71.png","icon_background_color":"#FF9E67","icon_mask_base_uri":"https://maps.gstatic.com/mapfiles/place_api/icons/v2/restaurant_pinlet","name":"An Chay - Vegan Diner","opening_hours":{"open_now":true},"photos":[{"height":1536,"html_attributions":["<a href=\"https://maps.google.com/maps/contrib/105573640434031159808\">Duc Nguyen</a>"],"photo_reference":"AeJbb3cip_0RKN2doEEXb8FVdORQkd9Yv6TEnZDcib-3DZXHLDKj8iDqVQ21X4AAgZLbhWkNRcCoGhDM34AxUo5VB7fw95r48AvoDWZopGT-G3jcz3DAzE0DenzaCJpbnNwgUtFDHjcASnPQjRfNsQzOO83yIOdz1m7USy5x7UT-hnOVhdbC","width":2048}],"place_id":"ChIJg20y0pH5pkcRL34XYWxzlyc","plus_code":{"compound_code":"89JF+HJ Leipzig","global_code":"9F3J89JF+HJ"},"price_level":2,"rating":4.7,"reference":"ChIJg20y0pH5pkcRL34XYWxzlyc","types":["restaurant","point_of_interest","food","establishment"],"user_ratings_total":484},{"business_status":"OPERATIONAL","formatted_address":"Wolfgang-Heinze-Straße 12, A, 04277 Leipzig","geometry":{"location":{"lat":51.3088674,"lng":12.3728452},"viewport":{"northeast":{"lat":51.31021477989272,"lng":12.37435272989272},"southwest":{"lat":51.30751512010727,"lng":12.37165307010728}}},"icon":"https://maps.gstatic.com/mapfiles/place_api/icons/v1/png_71/restaurant-71.png","icon_background_color":"#FF9E67","icon_mask_base_uri":"https://maps.gstatic.com/mapfiles/place_api/icons/v2/restaurant_pinlet","name":"Deli","opening_hours":{"open_now":true},"photos":[{"height":3024,"html_attributions":["<a href=\"https://maps.google.com/maps/contrib/103904243760761813573\">Claudia</a>"],"photo_reference":"AeJbb3c25Mwi_JaDaCoq83TG8EE7E6NOr1oQLLLVeOCMp9C1leTNA3jUHuO-u-bLeaKcBD9xIqy1jsAPWJcUAWCrUltjoGdEdPgBCws2dTpacuaZJl7CgZLdvXm_1xw6AdxalcN6UZkfI9E7p4BfQDE5wt9WTSSienYjzg27XUbk2xhvr00X","width":4032}],"place_id":"ChIJyzAdZcT5pkcR9fAgkyowBQU","plus_code":{"compound_code":"895F+G4 Leipzig","global_code":"9F3J895F+G4"},"rating":4.7,"reference":"ChIJyzAdZcT5pkcR9fAgkyowBQU","types":["restaurant","point_of_interest","food","establishment"],"user_ratings_total":397},{"business_status":"OPERATIONAL","formatted_address":"Zschochersche Str. 48, 04229 Leipzig","geometry":{"location":{"lat":51.329316,"lng":12.3366687},"viewport":{"northeast":{"lat":51.33069407989272,"lng":12.33813872989272},"southwest":{"lat":51.32799442010728,"lng":12.33543907010728}}},"icon":"https://maps.gstatic.com/mapfiles/place_api/icons/v1/png_71/restaurant-71.png","icon_background_color":"#FF9E67","icon_mask_base_uri":"https://maps.gstatic.com/mapfiles/place_api/icons/v2/restaurant_pinlet","name":"Quan Xanh Veganes Restaurant Leipzig","opening_hours":{"open_now":true},"photos":[{"height":4032,"html_attributions":["<a href=\"https://maps.google.com/maps/contrib/116712769042367298597\">Mena R. Youssef</a>"],"photo_reference":"AeJbb3c3uloF6qrz56SARZVMA0F-z5QbkoIRsOrc7T7_FoxhWsmP6vUQUMyV1p-fO4TuInEca_VALENYX307wdzk8XcKTvCA2BLVgbvnVy9MzVDH7m2bi_a1Uje9ZfUHsgmrntFBJ0vu6JQgI7lfOY23I27sDkRo7-6MaxBROLg8GN3CeycF","width":3024}],"place_id":"ChIJ4dgPBlX3pkcRcy5QOdTuUWc","plus_code":{"compound_code":"88HP+PM Leipzig","global_code":"9F3J88HP+PM"},"rating":4.7,"reference":"ChIJ4dgPBlX3pkcRcy5QOdTuUWc","types":["restaurant","point_of_interest","food","establishment"],"user_ratings_total":305},{"business_status":"OPERATIONAL","formatted_address":"Karl-Heine-Straße 68, 04229 Leipzig","geometry":{"location":{"lat":51.3309991,"lng":12.3316843},"viewport":{"northeast":{"lat":51.33228067989273,"lng":12.33308842989272},"southwest":{"lat":51.32958102010728,"lng":12.33038877010728}}},"icon":"https://maps.gstatic.com/mapfiles/place_api/icons/v1/png_71/restaurant-71.png","icon_background_color":"#FF9E67","icon_mask_base_uri":"https://maps.gstatic.com/mapfiles/place_api/icons/v2/restaurant_pinlet","name":"Kartoffelfräulein","opening_hours":{"open_now":true},"photos":[{"height":3024,"html_attributions":["<a href=\"https://maps.google.com/maps/contrib/108529368357043662068\">Julian Meyer</a>"],"photo_reference":"AeJbb3fWRNeDJlgHTjjnyDM4jayoKTA0skSbYj5BiHOKcA_QM3PS1qhWPmuiQGbBO34CLOWzJ9MboeXcPs-ZiZUmPF1NR7rszOA7g7sBpfAqT1Q_BdeEajUICCCHQ4d-Aehp9FkWrfTTF1zc-DCq-BbU6k6_ZbyudUIhPG_3TIPxXfLmWRPd","width":4032}],"place_id":"ChIJLS6kUqD3pkcR1mmheuVAQOc","plus_code":{"compound_code":"88JJ+9M Leipzig","global_code":"9F3J88JJ+9M"},"rating":4.7,"reference":"ChIJLS6kUqD3pkcR1mmheuVAQOc","types":["meal_takeaway","restaurant","food","point_of_interest","establishment"],"user_ratings_total":275},{"business_status":"OPERATIONAL","formatted_address":"Münzgasse 18-20, 04107 Leipzig","geometry":{"location":{"lat":51.33229859999999,"lng":12.3726903},"viewport":{"northeast":{"lat":51.33355112989273,"lng":12.37404177989272},"southwest":{"lat":51.33085147010728,"lng":12.37134212010728}}},"icon":"https://maps.gstatic.com/mapfiles/place_api/icons/v1/png_71/restaurant-71.png","icon_background_color":"#FF9E67","icon_mask_base_uri":"https://maps.gstatic.com/mapfiles/place_api/icons/v2/restaurant_pinlet","name":"OUAI - Simply Vegan","opening_hours":{"open_now":true},"photos":[{"height":1200,"html_attributions":["<a href=\"https://maps.google.com/maps/contrib/105715788152095359478\">A Google User</a>"],"photo_reference":"AeJbb3dG_CvWDR5H4Uv6NWyZ70nT_x1w8ARo48JQ0VoAeKB4_T_SL8tWc4WhNFekPetf5BbcFruhzRJa6T0RzeZ2sUYAKojiSxKzoCwrDsYjs2iiAg1FuFMo5h6V6UcTpA-uA-CKqrdNj42osqLI5XZx37Qo_ahhZMvfOWopSs8KN1FGoDvl","width":1800}],"place_id":"ChIJEy5XuLv5pkcRZbA8wDR5fB0","plus_code":{"compound_code":"89JF+W3 Leipzig","global_code":"9F3J89JF+W3"},"rating":4.7,"reference":"ChIJEy5XuLv5pkcRZbA8wDR5fB0","types":["restaurant","point_of_interest","food","establishment"],"user_ratings_total":267},{"business_status":"OPERATIONAL","formatted_address":"Georg-Schwarz-Straße 10, 04177 Leipzig","geometry":{"location":{"lat":51.3385146,"lng":12.327481},"viewport":{"northeast":{"lat":51.33985177989272,"lng":12.32874397989272},"southwest":{"lat":51.33715212010728,"lng":12.32604432010728}}},"icon":"https://maps.gstatic.com/mapfiles/place_api/icons/v1/png_71/restaurant-71.png","icon_background_color":"#FF9E67","icon_mask_base_uri":"https://maps.gstatic.com/mapfiles/place_api/icons/v2/restaurant_pinlet","name":"Pizza LAB","opening_hours":{"open_now":false},"photos":[{"height":3456,"html_attributions":["<a href=\"https://maps.google.com/maps/contrib/109233351357268311287\">Julien Hartl</a>"],"photo_reference":"AeJbb3eyIyV3KIzY_ctJswwAFno1T-rb1-naiz7DZsTGA4CMGvIi1oO2DGZq1SPpfsG2wo8XI3jcD-K50BGCk6_Ply4gLe7B7WWHq_tD1y1Qw4rLYJvrNYTdyhGaxGtv0SLpb-8Xt_jaQEe1j3vx2FOSAObsRn_oWhp7fdactytdxzfsiNdd","width":4608}],"place_id":"ChIJKZmP26T3pkcR7vSGgBh2-VA","plus_code":{"compound_code":"88QG+CX Leipzig","global_code":"9F3J88QG+CX"},"price_level":1,"rating":4.7,"reference":"ChIJKZmP26T3pkcR7vSGgBh2-VA","types":["restaurant","food","point_of_interest","establishment"],"user_ratings_total":220},{"business_status":"OPERATIONAL","formatted_address":"Dresdner Str. 45, 04317 Leipzig","geometry":{"location":{"lat":51.3394384,"lng":12.3997318},"viewport":{"northeast":{"lat":51.34076407989272,"lng":12.40108292989272},"southwest":{"lat":51.33806442010728,"lng":12.39838327010728}}},"icon":"https://maps.gstatic.com/mapfiles/place_api/icons/v1/png_71/restaurant-71.png","icon_background_color":"#FF9E67","icon_mask_base_uri":"https://maps.gstatic.com/mapfiles/place_api/icons/v2/restaurant_pinlet","name":"Asian House","opening_hours":{"open_now":true},"photos":[{"height":2478,"html_attributions":["<a href=\"https://maps.google.com/maps/contrib/114849163715734418864\">Asian House Leipzig</a>"],"photo_reference":"AeJbb3eg5_MxVSs4PcAD0MLF6tyINVWpQrALgBEPfJ13ef6YpRB2zVdeHp3VIgqj5jtBIArsKVHp03i9TR9bnQXzQyieoxq_tGB7DC8n-8KeA0Rf69Ll64sZkecGnc2Hno63gpZO4XZwp8ALgD5RWj6klpjaiRhDC3UnZF-qVw3DNT31JdVg","width":4032}],"place_id":"ChIJ08NY90D4pkcRqKkTVt0veAg","plus_code":{"compound_code":"89QX+RW Leipzig","global_code":"9F3J89QX+RW"},"rating":4.7,"reference":"ChIJ08NY90D4pkcRqKkTVt0veAg","types":["restaurant","food","point_of_interest","establishment"],"user_ratings_total":188},{"business_status":"OPERATIONAL","formatted_address":"Willy-Brandt-Platz 5, 04109 Leipzig","geometry":{"location":{"lat":51.3451001,"lng":12.3809509},"viewport":{"northeast":{"lat":51.34610587989272,"lng":12.38199472989272},"southwest":{"lat":51.34340622010727,"lng":12.37929507010728}}},"icon":"https://maps.gstatic.com/mapfiles/place_api/icons/v1/png_71/restaurant-71.png","icon_background_color":"#FF9E67","icon_mask_base_uri":"https://maps.gstatic.com/mapfiles/place_api/icons/v2/restaurant_pinlet","name":"Damas Falafel vegetarisch & vegan","opening_hours":{"open_now":true},"photos":[{"height":3024,"html_attributions":["<a href=\"https://maps.google.com/maps/contrib/100795200736264265655\">Thomas</a>"],"photo_reference":"AeJbb3dUUcW7O52vLN-XB28wRYsplxzrJ19tBDNXKnvE8smFOP1WaFB7qA_p3rOQMahnzpINaWFk5Ub49qi-k4kvkcA73hMQiBOghNwDeaPpKD2OryrzNE9yye-xJ9lLHwpcZsi1wZ6hlz-SKUF0SOqtaoai0rABg5UZNEf6owjxTkK9ENBr","width":4032}],"place_id":"ChIJWQQ4fRj4pkcR_DEz81O5ZBk","plus_code":{"compound_code":"89WJ+29 Leipzig","global_code":"9F3J89WJ+29"},"rating":4.7,"reference":"ChIJWQQ4fRj4pkcR_DEz81O5ZBk","types":["meal_takeaway","restaurant","point_of_interest","food","establishment"],"user_ratings_total":48},{"business_status":"OPERATIONAL","formatted_address":"Delitzscher Str. 46, 04129 Leipzig","geometry":{"location":{"lat":51.3632603,"lng":12.3831149},"viewport":{"northeast":{"lat":51.36463127989271,"lng":12.38434592989272},"southwest":{"lat":51.36193162010727,"lng":12.38164627010728}}},"icon":"https://maps.gstatic.com/mapfiles/place_api/icons/v1/png_71/restaurant-71.png","icon_background_color":"#FF9E67","icon_mask_base_uri":"https://maps.gstatic.com/mapfiles/place_api/icons/v2/restaurant_pinlet","name":"Punjabi Dhaba","opening_hours":{"open_now":true},"photos":[{"height":1500,"html_attributions":["<a href=\"https://maps.google.com/maps/contrib/114140753231233358198\">A Google User</a>"],"photo_reference":"AeJbb3eFfjoSAJ7iud4h6fkTVmLWKw7aCM6ZqAqvO4Km_LEGomKTT7zVAcKm8KoC15czchHerEJepWuLtsrB8fdw9-tf-mKac-zo3mG6qgvusg-m-46Gj2DVz7NGYtWWfrjM1kRcr8K1jtHnvXJnjvZjzYjTAQWhQ3rWDy2aUv2jPH26PQ-X","width":1999}],"place_id":"ChIJq5iqwKn5pkcRQDMB4aKspuA","plus_code":{"compound_code":"997M+86 Leipzig","global_code":"9F3J997M+86"},"rating":4.7,"reference":"ChIJq5iqwKn5pkcRQDMB4aKspuA","types":["meal_takeaway","restaurant","food","point_of_interest","establishment"],"user_ratings_total":11},{"business_status":"OPERATIONAL","formatted_address":"Paunsdorfer Allee 1, 04329 Leipzig","geometry":{"location":{"lat":51.34845019999999,"lng":12.4782362},"viewport":{"northeast":{"lat":51.34985972989273,"lng":12.47991547989272},"southwest":{"lat":51.34716007010729,"lng":12.47721582010728}}},"icon":"https://maps.gstatic.com/mapfiles/place_api/icons/v1/png_71/restaurant-71.png","icon_background_color":"#FF9E67","icon_mask_base_uri":"https://maps.gstatic.com/mapfiles/place_api/icons/v2/restaurant_pinlet","name":"Indian Food","opening_hours":{"open_now":true},"photos":[{"height":1599,"html_attributions":["<a href=\"https://maps.google.com/maps/contrib/107793491702054067936\">Oliver Zschage</a>"],"photo_reference":"AeJbb3cWUhDvYTTYH099oGYF6JSZ_RtspWbUhuNZW69jT-rIveQ6SK-KuCvD0ZSzBQO87_IoSWH97Kjm5bL0PpjE025cfBwadDbMAOgVL3_LFLpBM0brl6TGRR5BCJ7Xs8NbNAoZwyjZTMNn9KdUyGHyyGIGeQrq3Nsa8-JZj1uaCSxvTP79","width":899}],"place_id":"ChIJAVHQ4a74pkcRP_xzNlSLqR8","plus_code":{"compound_code":"8FXH+97 Leipzig","global_code":"9F3J8FXH+97"},"rating":4.7,"reference":"ChIJAVHQ4a74pkcRP_xzNlSLqR8","types":["restaurant","food","point_of_interest","establishment"],"user_ratings_total":3},{"business_status":"OPERATIONAL","formatted_address":"Nürnberger Str. 1, 04103 Leipzig","geometry":{"location":{"lat":51.3378476,"lng":12.385111},"viewport":{"northeast":{"lat":51.33921732989272,"lng":12.38649347989272},"southwest":{"lat":51.33651767010728,"lng":12.38379382010728}}},"icon":"https://maps.gstatic.com/mapfiles/place_api/icons/v1/png_71/restaurant-71.png","icon_background_color":"#FF9E67","icon_mask_base_uri":"https://maps.gstatic.com/mapfiles/place_api/icons/v2/restaurant_pinlet","name":"Katzentempel Leipzig Ost","opening_hours":{"open_now":true},"photos":[{"height":4032,"html_attributions":["<a href=\"https://maps.google.com/maps/contrib/110059908412140447309\">Nicole Schwarz</a>"],"photo_reference":"AeJbb3ciVeAfLsOJsNbnKQGAHjKmd6hYyfYhDsS6c8iafQJ66rQiQ_IvqnY9-ZEd9-Y8GeiIm-8ofACsxeaawII4WyGgqnhWpZ4cEwx1WCvl1ob55kulEpf2ac5C2PVULgAkk7S8KzjacBZkw1NrKdjswLHgY6-q8rYSuOhKwf1gN9G6p8QH","width":3024}],"place_id":"ChIJxfYhYBv5pkcRyxnRYOpmIl8","plus_code":{"compound_code":"89QP+42 Leipzig","global_code":"9F3J89QP+42"},"price_level":2,"rating":4.6,"reference":"ChIJxfYhYBv5pkcRyxnRYOpmIl8","types":["restaurant","point_of_interest","food","establishment"],"user_ratings_total":1468},{"business_status":"OPERATIONAL","formatted_address":"Willy-Brandt-Platz 7, 04109 Leipzig","geometry":{"location":{"lat":51.34510909999999,"lng":12.3809203},"viewport":{"northeast":{"lat":51.34615997989273,"lng":12.38174587989272},"southwest":{"lat":51.34346032010728,"lng":12.37904622010728}}},"icon":"https://maps.gstatic.com/mapfiles/place_api/icons/v1/png_71/restaurant-71.png","icon_background_color":"#FF9E67","icon_mask_base_uri":"https://maps.gstatic.com/mapfiles/place_api/icons/v2/restaurant_pinlet","name":"Masala Indian Food","opening_hours":{"open_now":true},"photos":[{"height":4160,"html_attributions":["<a href=\"https://maps.google.com/maps/contrib/110878775079778202627\">GravityBeard.de</a>"],"photo_reference":"AeJbb3cbmCKOZp5y710Iz50EcpJ2bs74B1YkInu1S3jNa8bs3DzBRKJhYj56trpj1M6YUTsha-CeSQHNYksfSf6ix2ywiVVRgVooVOeKpWmKLcVZbkn9udW0r0ioCfvIjL5aJBHWbhRHo8GqheCm0p2NtPHBXhj75Ra09P2L92BKtBQgAbxL","width":2336}],"place_id":"ChIJ80kVhhj4pkcR0UXXUp4cZK4","plus_code":{"compound_code":"89WJ+29 Leipzig","global_code":"9F3J89WJ+29"},"rating":4.6,"reference":"ChIJ80kVhhj4pkcR0UXXUp4cZK4","types":["restaurant","food","point_of_interest","establishment"],"user_ratings_total":1118},{"business_status":"OPERATIONAL","formatted_address":"Peterssteinweg 10, 04107 Leipzig","geometry":{"location":{"lat":51.33256710000001,"lng":12.373361},"viewport":{"northeast":{"lat":51.33394392989273,"lng":12.37483967989273},"southwest":{"lat":51.33124427010728,"lng":12.37214002010728}}},"icon":"https://maps.gstatic.com/mapfiles/place_api/icons/v1/png_71/restaurant-71.png","icon_background_color":"#FF9E67","icon_mask_base_uri":"https://maps.gstatic.com/mapfiles/place_api/icons/v2/restaurant_pinlet","name":"Pholosophy - vietnamese eatery","opening_hours":{"open_now":true},"photos":[{"height":2000,"html_attributions":["<a href=\"https://maps.google.com/maps/contrib/107291170418294714954\">Mona Albrecht</a>"],"photo_reference":"AeJbb3c4YvnR3M-sCld3nTEAg1mywd7BTdA-Q9E34VLEUyL2c54vhE0aah3raLcCpoStq_Wxi91-aAb3ix4iBy0CpCGp_BCGVP2fbXlixTlQiPyqjBS9PxIW7gwlLvzf2tJexgHbFJMH5W894A4VN1OqsNY25nstQxcGHkLO1jzifXoTXt6P","width":4000}],"place_id":"ChIJizEEVpb5pkcR6kB28HYoHNM","plus_code":{"compound_code":"89MF+28 Leipzig","global_code":"9F3J89MF+28"},"price_level":2,"rating":4.6,"reference":"ChIJizEEVpb5pkcR6kB28HYoHNM","types":["restaurant","food","point_of_interest","establishment"],"user_ratings_total":926},{"business_status":"OPERATIONAL","formatted_address":"Karl-Heine-Straße 55, 04229 Leipzig","geometry":{"location":{"lat":51.331615,"lng":12.3351904},"viewport":{"northeast":{"lat":51.33300372989272,"lng":12.33650302989272},"southwest":{"lat":51.33030407010727,"lng":12.33380337010728}}},"icon":"https://maps.gstatic.com/mapfiles/place_api/icons/v1/png_71/restaurant-71.png","icon_background_color":"#FF9E67","icon_mask_base_uri":"https://maps.gstatic.com/mapfiles/place_api/icons/v2/restaurant_pinlet","name":"Don Kichot","opening_hours":{"open_now":true},"photos":[{"height":3024,"html_attributions":["<a href=\"https://maps.google.com/maps/contrib/102852937287442844123\">Marie Gauger</a>"],"photo_reference":"AeJbb3cQBIdszu6fxrxfHPbTAeU1np8EriuOPk96Mk755r1aUGneWJ6dZJijEkllQcLh9lP82tH2G7Y1_ysoRdKCspOAKMDMmFCJkh7k1kCO2dxlJkACbTgeDLRNDEfXiKEC8_afniq3j1Sk4AtgqugHcIzQYmAc34WeDNdSX4uPWYxQY0BT","width":4032}],"place_id":"ChIJFddkZJ_3pkcR-knAJZp91RI","plus_code":{"compound_code":"88JP+J3 Leipzig","global_code":"9F3J88JP+J3"},"price_level":2,"rating":4.6,"reference":"ChIJFddkZJ_3pkcR-knAJZp91RI","types":["restaurant","food","point_of_interest","establishment"],"user_ratings_total":605},{"business_status":"OPERATIONAL","formatted_address":"Bornaische Str. 54, 04277 Leipzig","geometry":{"location":{"lat":51.3069257,"lng":12.3800251},"viewport":{"northeast":{"lat":51.30828797989272,"lng":12.38146637989272},"southwest":{"lat":51.30558832010728,"lng":12.37876672010728}}},"icon":"https://maps.gstatic.com/mapfiles/place_api/icons/v1/png_71/restaurant-71.png","icon_background_color":"#FF9E67","icon_mask_base_uri":"https://maps.gstatic.com/mapfiles/place_api/icons/v2/restaurant_pinlet","name":"Zest","opening_hours":{"open_now":false},"photos":[{"height":3024,"html_attributions":["<a href=\"https://maps.google.com/maps/contrib/117400403030747452342\">André Bogatz</a>"],"photo_reference":"AeJbb3fAbpQEJv1dv7RSRk7gOoC5qdPN-BZ-iI05L8bqKZtavzdR6wlCpLqJ6CkqKf_whM_xdLhNOQ7nApEsBfxRcoeonlL7aZLU_Vyr2CyMUg-VBF2C_FWx6MiOyWUbdXGHDZgYoRKIDDmN9kAye70siZHxyB_7zlna_h0_1VH85CYWs1Rp","width":4032}],"place_id":"ChIJFyECzMD5pkcRJp1-Wr8xKis","plus_code":{"compound_code":"894H+QX Leipzig","global_code":"9F3J894H+QX"},"price_level":3,"rating":4.6,"reference":"ChIJFyECzMD5pkcRJp1-Wr8xKis","types":["restaurant","point_of_interest","food","establishment"],"user_ratings_total":474},{"business_status":"OPERATIONAL","formatted_address":"Eisenbahnstraße 128, 04315 Leipzig","geometry":{"location":{"lat":51.3450824,"lng":12.412413},"viewport":{"northeast":{"lat":51.34648257989272,"lng":12.41385027989272},"southwest":{"lat":51.34378292010728,"lng":12.41115062010728}}},"icon":"https://maps.gstatic.com/mapfiles/place_api/icons/v1/png_71/restaurant-71.png","icon_background_color":"#FF9E67","icon_mask_base_uri":"https://maps.gstatic.com/mapfiles/place_api/icons/v2/restaurant_pinlet","name":"Vleischerei Haschke","opening_hours":{"open_now":false},"photos":[{"height":3024,"html_attributions":["<a href=\"https://maps.google.com/maps/contrib/110139462470546205679\">A Google User</a>"],"photo_reference":"AeJbb3etOB7uvSIeofSs5tal5rLLGocOKLESf28DZ_MWj2wVP9P2hg_W7hPfLV6d1bYBNXcCEruJW-z-LguB_iFtC-arxGc1hSvTPYA-KEThCVppM41d-wZwYFoRZ9dyv_52whADP4Tfps7IorpaOe0WVzxYfQjpZRsIOBZHhIdCsbj4YIOJ","width":3024}],"place_id":"ChIJSYcn_g_5pkcRc87U0OPbiwI","plus_code":{"compound_code":"8CW6+2X Leipzig","global_code":"9F3J8CW6+2X"},"rating":4.6,"reference":"ChIJSYcn_g_5pkcRc87U0OPbiwI","types":["restaurant","point_of_interest","food","establishment"],"user_ratings_total":275},{"business_status":"OPERATIONAL","formatted_address":"Nikolaistraße 40, 04109 Leipzig","geometry":{"location":{"lat":51.34261129999999,"lng":12.3782879},"viewport":{"northeast":{"lat":51.34401262989273,"lng":12.37967267989272},"southwest":{"lat":51.34131297010728,"lng":12.37697302010728}}},"icon":"https://maps.gstatic.com/mapfiles/place_api/icons/v1/png_71/restaurant-71.png","icon_background_color":"#FF9E67","icon_mask_base_uri":"https://maps.gstatic.com/mapfiles/place_api/icons/v2/restaurant_pinlet","name":"Niiko - Sushi x Vegan","opening_hours":{"open_now":true},"photos":[{"height":6240,"html_attributions":["<a href=\"https://maps.google.com/maps/contrib/110397186739928756936\">A Google User</a>"],"photo_reference":"AeJbb3fDmx_W0SnwJlBL-kIRr5Yx5EanMsrVW_Fm-hH96VhTbB-EEuESxhmwNNipppDU-j-PPXqNMFOqi5xRr2qKZa5_ujFw9WMSgyarsHjyqoTkgZbv0srRKdmq7P3CuZa7TX9_vmOHYDGfhQ5AYr4rPavpeX3MOJ4-sn30g7LO7nbXDJZv","width":4160}],"place_id":"ChIJi6d1IxX5pkcRR9hVRgZTxjQ","plus_code":{"compound_code":"89VH+28 Leipzig","global_code":"9F3J89VH+28"},"rating":4.6,"reference":"ChIJi6d1IxX5pkcRR9hVRgZTxjQ","types":["restaurant","point_of_interest","food","establishment"],"user_ratings_total":190},{"business_status":"OPERATIONAL","formatted_address":"Lützowstraße 52, 04157 Leipzig","geometry":{"location":{"lat":51.3651671,"lng":12.3768104},"viewport":{"northeast":{"lat":51.36653212989272,"lng":12.37813512989272},"southwest":{"lat":51.36383247010728,"lng":12.37543547010728}}},"icon":"https://maps.gstatic.com/mapfiles/place_api/icons/v1/png_71/restaurant-71.png","icon_background_color":"#FF9E67","icon_mask_base_uri":"https://maps.gstatic.com/mapfiles/place_api/icons/v2/restaurant_pinlet","name":"Arepas.World Leipzig | Glutenfrei, Vegan","opening_hours":{"open_now":false},"photos":[{"height":1200,"html_attributions":["<a href=\"https://maps.google.com/maps/contrib/110140418226382217876\">A Google User</a>"],"photo_reference":"AeJbb3dvFA8qgn47CBFaI2yzuXg0eSUp4Bl6fIGcfKp5FcYjb0cxS_hnwctAhOqSSousOw7pDvMoJL42XRVKlfWIMZOVBay2by8grf2ko_L54xVFL4mIlLdUnuKnQek1GVhS7NzRr8WO1srW-q56NmaHRaNOfVXJRUbzApeKMC-DL9ztzWCW","width":1600}],"place_id":"ChIJM74uv2z5pkcR-4AuKa5Klt0","plus_code":{"compound_code":"998G+3P Leipzig","global_code":"9F3J998G+3P"},"rating":4.6,"reference":"ChIJM74uv2z5pkcR-4AuKa5Klt0","types":["restaurant","food","point_of_interest","establishment"],"user_ratings_total":117},{"business_status":"OPERATIONAL","formatted_address":"Höfe am Brühl, Brühl 1, 04109 Leipzig","geometry":{"location":{"lat":51.343419,"lng":12.3759558},"viewport":{"northeast":{"lat":51.34473312989272,"lng":12.37771772989272},"southwest":{"lat":51.34203347010727,"lng":12.37501807010728}}},"icon":"https://maps.gstatic.com/mapfiles/place_api/icons/v1/png_71/restaurant-71.png","icon_background_color":"#FF9E67","icon_mask_base_uri":"https://maps.gstatic.com/mapfiles/place_api/icons/v2/restaurant_pinlet","name":"Emma's Feinfood","opening_hours":{"open_now":true},"photos":[{"height":1280,"html_attributions":["<a href=\"https://maps.google.com/maps/contrib/113920081804540736026\">A Google User</a>"],"photo_reference":"AeJbb3emOmnfvujW-s8VcSHYH8mKXfla1yzDRwCb2vGB64kbizu3HKTij2MOMISVsjyjZ5Xtc8kSCV66JyNwyYT0TZhoiAgrbygiPXC7pdkAYfaP6ldYRA0g74r41UWS2ZoOJfyq9Cdt7sbTZC484jLBRDSOKzR3_OEyDQ3SKtZoWrzeovZP","width":960}],"place_id":"ChIJ24yPviH4pkcRppZd8uEYMMs","plus_code":{"compound_code":"89VG+99 Leipzig","global_code":"9F3J89VG+99"},"rating":4.6,"reference":"ChIJ24yPviH4pkcRppZd8uEYMMs","types":["cafe","store","restaurant","food","point_of_interest","establishment"],"user_ratings_total":79},{"business_status":"OPERATIONAL","formatted_address":"Grassistraße 12, 04107 Leipzig","geometry":{"location":{"lat":51.3317177,"lng":12.3672923},"viewport":{"northeast":{"lat":51.33318922989272,"lng":12.36856417989272},"southwest":{"lat":51.33048957010728,"lng":12.36586452010728}}},"icon":"https://maps.gstatic.com/mapfiles/place_api/icons/v1/png_71/restaurant-71.png","icon_background_color":"#FF9E67","icon_mask_base_uri":"https://maps.gstatic.com/mapfiles/place_api/icons/v2/restaurant_pinlet","name":"Viet Village","opening_hours":{"open_now":true},"photos":[{"height":2268,"html_attributions":["<a href=\"https://maps.google.com/maps/contrib/110780914688053189242\">Mario Peter</a>"],"photo_reference":"AeJbb3fVr-G6owkB49_oSDWVA6csHwglUx3mPo8Rs2H-2OcUwMgYYN40WlovzS5URAqPdDLf4pSB7LZeWDbibDOvqNgpYR2vRqq_-E5H5qiR7WgCqGtBZsVmXdPQYxFG72Q0Hh7DONWPHUwOCQ4ATvqBq_mfPE-QH8PI8mHES0HDlVJsIu_7","width":4032}],"place_id":"ChIJJcBvV-z5pkcRjSQ8loUiK4M","plus_code":{"compound_code":"89J8+MW Leipzig","global_code":"9F3J89J8+MW"},"price_level":2,"rating":4.5,"reference":"ChIJJcBvV-z5pkcRjSQ8loUiK4M","types":["restaurant","food","point_of_interest","establishment"],"user_ratings_total":1027},{"business_status":"OPERATIONAL","formatted_address":"Johannisallee 7, 04317 Leipzig","geometry":{"location":{"lat":51.333278,"lng":12.396754},"viewport":{"northeast":{"lat":51.33457712989272,"lng":12.39794207989272},"southwest":{"lat":51.33187747010728,"lng":12.39524242010728}}},"icon":"https://maps.gstatic.com/mapfiles/place_api/icons/v1/png_71/restaurant-71.png","icon_background_color":"#FF9E67","icon_mask_base_uri":"https://maps.gstatic.com/mapfiles/place_api/icons/v2/restaurant_pinlet","name":"Green Soul","opening_hours":{"open_now":false},"photos":[{"height":3968,"html_attributions":["<a href=\"https://maps.google.com/maps/contrib/111722885153808205736\">Sarrie7</a>"],"photo_reference":"AeJbb3d-GQXdPooenYP8YNhjvyw-p5mJ22tbKeLX06ZIHkbN1lLONaN2D24QzOoUO5PKAEjCtsfBn_ELLYanulN_o-OzLUxATJpeZ1a7l6oOz83nK1m7CFzQK208VfebRd6AL6xylx-VR4ljaQPIGX8gjd9U5InVsgMXSvWRe9Ena-HHPhuy","width":2976}],"place_id":"ChIJw_rlxkf4pkcRobc6A8z6mUc","plus_code":{"compound_code":"89MW+8P Leipzig","global_code":"9F3J89MW+8P"},"price_level":2,"rating":4.5,"reference":"ChIJw_rlxkf4pkcRobc6A8z6mUc","types":["cafe","bar","restaurant","point_of_interest","food","establishment"],"user_ratings_total":483},{"business_status":"OPERATIONAL","formatted_address":"Bornaische Str. 7, 04277 Leipzig","geometry":{"location":{"lat":51.3091792,"lng":12.3754023},"viewport":{"northeast":{"lat":51.31048617989271,"lng":12.37680252989272},"southwest":{"lat":51.30778652010727,"lng":12.37410287010728}}},"icon":"https://maps.gstatic.com/mapfiles/place_api/icons/v1/png_71/restaurant-71.png","icon_background_color":"#FF9E67","icon_mask_base_uri":"https://maps.gstatic.com/mapfiles/place_api/icons/v2/restaurant_pinlet","name":"Vegan Express","opening_hours":{"open_now":false},"photos":[{"height":3024,"html_attributions":["<a href=\"https://maps.google.com/maps/contrib/100519806282593001843\">Nils Bote</a>"],"photo_reference":"AeJbb3eF2jf9o-eXG_J1ax6SnAZeP1vrX0qXQOd4RF5KsHkBLxcSUdHL97OpVH4tsgHxRPm32YZGcDNavE8ntH3x2S_O7qRzGZZU6xiVgNxeFt3RI_qYgzqZb2t_huUim8eRHc4pSy4431kC3m5hmonKJxyU_Vn0LtkOM-Kw0quECabBBH8v","width":3024}],"place_id":"ChIJodEXIsT5pkcRwCCbBlXllLE","plus_code":{"compound_code":"895G+M6 Leipzig","global_code":"9F3J895G+M6"},"price_level":1,"rating":4.5,"reference":"ChIJodEXIsT5pkcRwCCbBlXllLE","types":["restaurant","food","point_of_interest","establishment"],"user_ratings_total":346},{"business_status":"OPERATIONAL","formatted_address":"Walter-Heinze-Straße 3, 04229 Leipzig","geometry":{"location":{"lat":51.33172099999999,"lng":12.336539},"viewport":{"northeast":{"lat":51.33305797989271,"lng":12.33783832989272},"southwest":{"lat":51.33035832010727,"lng":12.33513867010728}}},"icon":"https://maps.gstatic.com/mapfiles/place_api/icons/v1/png_71/bar-71.png","icon_background_color":"#FF9E67","icon_mask_base_uri":"https://maps.gstatic.com/mapfiles/place_api/icons/v2/bar_pinlet","name":"AKKO Hummus Bar","opening_hours":{"open_now":true},"photos":[{"height":667,"html_attributions":["<a href=\"https://maps.google.com/maps/contrib/114008257708218712151\">Akko</a>"],"photo_reference":"AeJbb3eQmLREkyms2mZLM0RqeqXOdAHksCQZf8uYwsVriBIMXxfeH2k3wWrxnnP4qXBFdTtElJGDMNUHnYOrd0n7LCYw36qpa_Z_zw40ZDeaNQ8Xw3ovGOSJPTLIUiIuDJxus1PkQdvz9zOoab8gPuFbuFmVsi28gS0gb6uk2p6WVn0qZvnr","width":1000}],"place_id":"ChIJBW_cFJ_3pkcRk3ODCQ-BFdU","plus_code":{"compound_code":"88JP+MJ Leipzig","global_code":"9F3J88JP+MJ"},"price_level":1,"rating":4.5,"reference":"ChIJBW_cFJ_3pkcRk3ODCQ-BFdU","types":["bar","restaurant","food","point_of_interest","establishment"],"user_ratings_total":313},{"business_status":"OPERATIONAL","formatted_address":"Arno-Nitzsche-Straße 2, 04277 Leipzig","geometry":{"location":{"lat":51.3103933,"lng":12.3739324},"viewport":{"northeast":{"lat":51.31186967989272,"lng":12.37524737989272},"southwest":{"lat":51.30917002010728,"lng":12.37254772010728}}},"icon":"https://maps.gstatic.com/mapfiles/place_api/icons/v1/png_71/restaurant-71.png","icon_background_color":"#FF9E67","icon_mask_base_uri":"https://maps.gstatic.com/mapfiles/place_api/icons/v2/restaurant_pinlet","name":"Dina","opening_hours":{"open_now":true},"photos":[{"height":3024,"html_attributions":["<a href=\"https://maps.google.com/maps/contrib/102286784650391643007\">David Krystof</a>"],"photo_reference":"AeJbb3e5w7cfoptPgKcY4VF-f-ungQPaqtGINwLpKqSMnaeO6eMe9mAdB2tjW3hnS2xsE5krRBLxcAC7tesEesON_AjS8RaSKSgqWdgaWcmb87uk4R3mmjj4SvIy_7Vv9ttL1Eyfk7CJch5qzd2zp20qapdrPDFMPERhaUx0S5SqjgDH3NIw","width":4032}],"place_id":"ChIJgfX3oKP5pkcRI1W8j23SQis","plus_code":{"compound_code":"896F+5H Leipzig","global_code":"9F3J896F+5H"},"rating":4.5,"reference":"ChIJgfX3oKP5pkcRI1W8j23SQis","types":["liquor_store","restaurant","food","store","point_of_interest","establishment"],"user_ratings_total":249},{"business_status":"OPERATIONAL","formatted_address":"Karl-Liebknecht-Straße 85, 04275 Leipzig","geometry":{"location":{"lat":51.32258539999999,"lng":12.3738251},"viewport":{"northeast":{"lat":51.32393682989272,"lng":12.37508422989272},"southwest":{"lat":51.32123717010727,"lng":12.37238457010728}}},"icon":"https://maps.gstatic.com/mapfiles/place_api/icons/v1/png_71/restaurant-71.png","icon_background_color":"#FF9E67","icon_mask_base_uri":"https://maps.gstatic.com/mapfiles/place_api/icons/v2/restaurant_pinlet","name":"Sen Asia Food","opening_hours":{"open_now":true},"photos":[{"height":3648,"html_attributions":["<a href=\"https://maps.google.com/maps/contrib/109878007866972174554\">C. O.</a>"],"photo_reference":"AeJbb3cRGYfsQJ3dnkYGfOKNsh9K_cQdoljyWwKADH48_vtPQ-ig1YEH0bRuQaNh0O3YuONyeP2Ed5tb7MAfwrghyjasC369nQbZKnYWxDGQZJ8e-T_c5_4FtqxL1T-Waj9XzMH6Xl2Ok1VLqS2Jaa1Wd61Zy4y9Y4NG7a0ezKYvThbs01OR","width":2736}],"place_id":"ChIJG68GmNL5pkcRs8E3os8XQs0","plus_code":{"compound_code":"89FF+2G Leipzig","global_code":"9F3J89FF+2G"},"rating":4.5,"reference":"ChIJG68GmNL5pkcRs8E3os8XQs0","types":["restaurant","food","point_of_interest","establishment"],"user_ratings_total":100},{"business_status":"OPERATIONAL","formatted_address":"Karl-Liebknecht-Straße 70, 04275 Leipzig","geometry":{"location":{"lat":51.3223865,"lng":12.3732249},"viewport":{"northeast":{"lat":51.32376367989272,"lng":12.37469032989272},"southwest":{"lat":51.32106402010728,"lng":12.37199067010728}}},"icon":"https://maps.gstatic.com/mapfiles/place_api/icons/v1/png_71/restaurant-71.png","icon_background_color":"#FF9E67","icon_mask_base_uri":"https://maps.gstatic.com/mapfiles/place_api/icons/v2/restaurant_pinlet","name":"La Familia","opening_hours":{"open_now":true},"photos":[{"height":4000,"html_attributions":["<a href=\"https://maps.google.com/maps/contrib/106216697917910339455\">Jaqueline</a>"],"photo_reference":"AeJbb3fzS-qDR6zBHk_gCGeFqwyGZzkDVItQusw1lZuhRTp_EMwAfTkvWyv8ttQzWcPg68YzX11gAubNH5v3F65lWkX0eBvlsTKjyYZJZVmMm8fCZjgsTnrVRLf2B7XSmxHuBDKQJq0g6shoiPzP8qIF0ztiCYe4dsP44sayOFn4vtoKv0A-","width":3000}],"place_id":"ChIJdX_IS0L5pkcRx9k1muEnlzk","plus_code":{"compound_code":"89CF+X7 Leipzig","global_code":"9F3J89CF+X7"},"rating":4.5,"reference":"ChIJdX_IS0L5pkcRx9k1muEnlzk","types":["restaurant","point_of_interest","food","establishment"],"user_ratings_total":83},{"business_status":"OPERATIONAL","formatted_address":"Zschochersche Str. 23, 04229 Leipzig","geometry":{"location":{"lat":51.3322178,"lng":12.3390152},"viewport":{"northeast":{"lat":51.33360157989272,"lng":12.34022487989272},"southwest":{"lat":51.33090192010727,"lng":12.33752522010728}}},"icon":"https://maps.gstatic.com/mapfiles/place_api/icons/v1/png_71/restaurant-71.png","icon_background_color":"#FF9E67","icon_mask_base_uri":"https://maps.gstatic.com/mapfiles/place_api/icons/v2/restaurant_pinlet","name":"Fed Up!","opening_hours":{"open_now":false},"photos":[{"height":3072,"html_attributions":["<a href=\"https://maps.google.com/maps/contrib/100275414739018828411\">Patrick Zimmer</a>"],"photo_reference":"AeJbb3fXNRTONeowM3J_Vxg5P-ij1IdaPOcxMZ2qenEmjeK4wm5bwQ2HDjiz36DktFAR2SW6i42DR7ckVujGEoaoSClzvGyJr1FdVTAolFnIWud-ZGBT1nDoVl-19MxUKvaDXiSVDOuRxdex-iGdutwFxgpqzhRy8UPGv4PpdO2JIINiJRSZ","width":4080}],"place_id":"ChIJzVtWjTD3pkcR6MKX5VOfrpE","plus_code":{"compound_code":"88JQ+VJ Leipzig","global_code":"9F3J88JQ+VJ"},"rating":4.5,"reference":"ChIJzVtWjTD3pkcR6MKX5VOfrpE","types":["restaurant","food","point_of_interest","establishment"],"user_ratings_total":8},{"business_status":"OPERATIONAL","formatted_address":"Brühl 1, 04109 Leipzig","geometry":{"location":{"lat":51.3432829,"lng":12.3730527},"viewport":{"northeast":{"lat":51.34453352989271,"lng":12.37424637989272},"southwest":{"lat":51.34183387010727,"lng":12.37154672010728}}},"icon":"https://maps.gstatic.com/mapfiles/place_api/icons/v1/png_71/restaurant-71.png","icon_background_color":"#FF9E67","icon_mask_base_uri":"https://maps.gstatic.com/mapfiles/place_api/icons/v2/restaurant_pinlet","name":"dean & david","opening_hours":{"open_now":true},"photos":[{"height":2048,"html_attributions":["<a href=\"https://maps.google.com/maps/contrib/115505312117498914238\">A Google User</a>"],"photo_reference":"AeJbb3fDBFA-MT0JljepodsWqz24-czymH55749NE5QT3mMEoypRz6GXTzS2YEAKBOeWQyGkmkcfsYVPOZ6XM3h38l0ntUdtbOxOVhw4MvLEu1Zm-r6SEdpXuCHzU_0L16EcJgppQik7uppApGFUQQYBBQt5XAgstq5lLV7DjGFJRTYgULfO","width":1536}],"place_id":"ChIJ7f1QrSH4pkcRO2SkYy63lB4","plus_code":{"compound_code":"89VF+86 Leipzig","global_code":"9F3J89VF+86"},"price_level":2,"rating":4.4,"reference":"ChIJ7f1QrSH4pkcRO2SkYy63lB4","types":["restaurant","meal_delivery","meal_takeaway","food","point_of_interest","establishment"],"user_ratings_total":417},{"business_status":"OPERATIONAL","formatted_address":"Markgrafenstraße 10, 04109 Leipzig","geometry":{"location":{"lat":51.337549,"lng":12.372141},"viewport":{"northeast":{"lat":51.33886032989272,"lng":12.37348622989272},"southwest":{"lat":51.33616067010728,"lng":12.37078657010728}}},"icon":"https://maps.gstatic.com/mapfiles/place_api/icons/v1/png_71/restaurant-71.png","icon_background_color":"#FF9E67","icon_mask_base_uri":"https://maps.gstatic.com/mapfiles/place_api/icons/v2/restaurant_pinlet","name":"Macis Leipzig - Restaurant","opening_hours":{"open_now":true},"photos":[{"height":2268,"html_attributions":["<a href=\"https://maps.google.com/maps/contrib/100168494342883543567\">ADK Medienagentur Alexander Kölling</a>"],"photo_reference":"AeJbb3cU2-9ClPFXG46bcgJQfhCmV1Jkf0EEnSVAwbBXXTSwutaQL7t07SD-VEJrEsD2lUd7OFe-4pmFTXT1ItHvQccG5SfTm5z0aM031kgEqau6-xJK5qEFeT40cNYFOKvsJpKmDTMRFSdDc9KQ1M5rFatkFP7D_0b9UNQt5vnGU6vyFHIY","width":4032}],"place_id":"ChIJ7deGgyP4pkcR_WyAh4CYZvA","plus_code":{"compound_code":"89QC+2V Leipzig","global_code":"9F3J89QC+2V"},"price_level":2,"rating":4.4,"reference":"ChIJ7deGgyP4pkcR_WyAh4CYZvA","types":["restaurant","food","point_of_interest","establishment"],"user_ratings_total":336},{"business_status":"OPERATIONAL","formatted_address":"Zschochersche Str. 33a, 04229 Leipzig","geometry":{"location":{"lat":51.3308416,"lng":12.3380154},"viewport":{"northeast":{"lat":51.33221332989272,"lng":12.33929727989272},"southwest":{"lat":51.32951367010727,"lng":12.33659762010728}}},"icon":"https://maps.gstatic.com/mapfiles/place_api/icons/v1/png_71/restaurant-71.png","icon_background_color":"#FF9E67","icon_mask_base_uri":"https://maps.gstatic.com/mapfiles/place_api/icons/v2/restaurant_pinlet","name":"S2 Bistro Syrien","opening_hours":{"open_now":true},"photos":[{"height":750,"html_attributions":["<a href=\"https://maps.google.com/maps/contrib/115583616661282411958\">Marcela Rivera-Melara</a>"],"photo_reference":"AeJbb3dUWbkrrueU1K0DZzxRGCiVsU0uRhZnbByorTs46MGlOGUNiBgOvNEmYuXbQ-navgwraGSISHBUk9AapfQIhNtQFMcQJexcKfUAZ258T1pujOS4YOvGm37qUAAe_njxzk12yg1TOe2Q48jrmxRN_H7u-LzfWAQTnVV72qtM7rhnOa4P","width":1000}],"place_id":"ChIJczVBAp_3pkcRZLO0KrfpwFg","plus_code":{"compound_code":"88JQ+85 Leipzig","global_code":"9F3J88JQ+85"},"rating":4.4,"reference":"ChIJczVBAp_3pkcRZLO0KrfpwFg","types":["restaurant","food","point_of_interest","establishment"],"user_ratings_total":131},{"business_status":"OPERATIONAL","formatted_address":"Zschochersche Str. 24, 04229 Leipzig","geometry":{"location":{"lat":51.331612,"lng":12.3381622},"viewport":{"northeast":{"lat":51.33294732989273,"lng":12.33957302989272},"southwest":{"lat":51.33024767010728,"lng":12.33687337010728}}},"icon":"https://maps.gstatic.com/mapfiles/place_api/icons/v1/png_71/restaurant-71.png","icon_background_color":"#FF9E67","icon_mask_base_uri":"https://maps.gstatic.com/mapfiles/place_api/icons/v2/restaurant_pinlet","name":"GiMyLi","opening_hours":{"open_now":true},"photos":[{"height":3024,"html_attributions":["<a href=\"https://maps.google.com/maps/contrib/118052882838736978677\">Thomas Fleck</a>"],"photo_reference":"AeJbb3dNNZ1C5_XwITulnWqlm0gdQ9Tc-_9aBV5vmNT3ApqdFDRGeeyPnq0A60ghSobaf28JWP2FWgtZwLP4iIUYTg0B-pTrrF5MvWs2nmul-l6rrA5ca24_s_TNvrArW2-fgSABA4pPdmoV-ufX1bbb0HPq52l4y8_mX2VEkjPnsu9jILy0","width":4032}],"place_id":"ChIJiwEdBv_3pkcRduW4mibq4XI","plus_code":{"compound_code":"88JQ+J7 Leipzig","global_code":"9F3J88JQ+J7"},"rating":4.4,"reference":"ChIJiwEdBv_3pkcRduW4mibq4XI","types":["restaurant","food","point_of_interest","establishment"],"user_ratings_total":80},{"business_status":"OPERATIONAL","formatted_address":"Zschochersche Str. 38, 04229 Leipzig","geometry":{"location":{"lat":51.330319,"lng":12.3372813},"viewport":{"northeast":{"lat":51.33164147989272,"lng":12.33873787989272},"southwest":{"lat":51.32894182010727,"lng":12.33603822010728}}},"icon":"https://maps.gstatic.com/mapfiles/place_api/icons/v1/png_71/restaurant-71.png","icon_background_color":"#FF9E67","icon_mask_base_uri":"https://maps.gstatic.com/mapfiles/place_api/icons/v2/restaurant_pinlet","name":"Soup Temple","opening_hours":{"open_now":true},"photos":[{"height":573,"html_attributions":["<a href=\"https://maps.google.com/maps/contrib/109952832981307034023\">Suppentempel-Vegetarisch / Veganes Restaurant</a>"],"photo_reference":"AeJbb3ek7oKPkPNJmrmRxMiS3ozzvD6J-vhW2cLe6E7UxkUrLtHoSIg82_Yhi52V7xZqWDD8zd_GdxZ9aYePGhnd9Sww7Mx_RiW4IYJdB_Bzcgt9cfMd-F9whFhYSQ0lCOEmD03QJLLcbZoJlp0ZACMmhO5UracntbbFJDWDN73yOH2xO_Gx","width":1020}],"place_id":"ChIJTX9uqZ_3pkcRUhMVchTMV_0","plus_code":{"compound_code":"88JP+4W Leipzig","global_code":"9F3J88JP+4W"},"rating":4.4,"reference":"ChIJTX9uqZ_3pkcRUhMVchTMV_0","types":["meal_takeaway","restaurant","food","point_of_interest","establishment"],"user_ratings_total":52},{"business_status":"OPERATIONAL","formatted_address":"Reichsstraße 15, 04109 Leipzig","geometry":{"location":{"lat":51.3420018,"lng":12.3764752},"viewport":{"northeast":{"lat":51.34320362989272,"lng":12.37769222989272},"southwest":{"lat":51.34050397010728,"lng":12.37499257010728}}},"icon":"https://maps.gstatic.com/mapfiles/place_api/icons/v1/png_71/restaurant-71.png","icon_background_color":"#FF9E67","icon_mask_base_uri":"https://maps.gstatic.com/mapfiles/place_api/icons/v2/restaurant_pinlet","name":"Indian Crown","opening_hours":{"open_now":true},"photos":[{"height":3184,"html_attributions":["<a href=\"https://maps.google.com/maps/contrib/103836128507047909592\">A Google User</a>"],"photo_reference":"AeJbb3evo00hNK53zDs3SPXrbourkGNs1XwPDZG9SHN2UZ38RoRXYLH0n6FJXJz5s7jxO8mqBabT8irfl3WhsrAfTOgYoh4DJYH27Sy2d9IlSa9j0M_nUsfs-SRRCstuBoFIidt3J2puXVr8YMsmFwZw2wzwtXa5J2n5VOTnnb3MOIS9B3RZ","width":5664}],"place_id":"ChIJ99bq2iP4pkcRp9lO8J8M8ok","plus_code":{"compound_code":"89RG+RH Leipzig","global_code":"9F3J89RG+RH"},"price_level":2,"rating":4.3,"reference":"ChIJ99bq2iP4pkcRp9lO8J8M8ok","types":["restaurant","food","point_of_interest","establishment"],"user_ratings_total":1124},{"business_status":"OPERATIONAL","formatted_address":"Karl-Liebknecht-Straße 112, 04275 Leipzig","geometry":{"location":{"lat":51.3164336,"lng":12.3731507},"viewport":{"northeast":{"lat":51.31779977989272,"lng":12.37457702989272},"southwest":{"lat":51.31510012010727,"lng":12.37187737010728}}},"icon":"https://maps.gstatic.com/mapfiles/place_api/icons/v1/png_71/restaurant-71.png","icon_background_color":"#FF9E67","icon_mask_base_uri":"https://maps.gstatic.com/mapfiles/place_api/icons/v2/restaurant_pinlet","name":"Symbiose - Café Restaurant // plantbased * organic * local","opening_hours":{"open_now":false},"photos":[{"height":3104,"html_attributions":["<a href=\"https://maps.google.com/maps/contrib/110118288441349222525\">Symbiose - Vegan Vegetarisches Bio Restaurant</a>"],"photo_reference":"AeJbb3d1_lyHeAK4Vise8Ah6fFfWrepyVk47DABJcpjy6CHsLiG0LaXhJ0n6AXPoZYL42FCccu5hUexzLwYhHh-li7dUsAcB9Nv80v9waXO2tJl6hUlnRZ3JoBOd6y2iU8FYFhI9RbSj28WLSZ7Q2egN7BDZSBEwUKSe0fRq7apvbVLf8mCy","width":4656}],"place_id":"ChIJ3_VYMM75pkcRzo9Dn4fMrc8","plus_code":{"compound_code":"898F+H7 Leipzig","global_code":"9F3J898F+H7"},"price_level":2,"rating":4.3,"reference":"ChIJ3_VYMM75pkcRzo9Dn4fMrc8","types":["cafe","restaurant","point_of_interest","food","establishment"],"user_ratings_total":455},{"business_status":"OPERATIONAL","formatted_address":"Hedwigstraße 6, 04315 Leipzig","geometry":{"location":{"lat":51.3461562,"lng":12.4033177},"viewport":{"northeast":{"lat":51.34751187989272,"lng":12.40459832989272},"southwest":{"lat":51.34481222010728,"lng":12.40189867010728}}},"icon":"https://maps.gstatic.com/mapfiles/place_api/icons/v1/png_71/restaurant-71.png","icon_background_color":"#FF9E67","icon_mask_base_uri":"https://maps.gstatic.com/mapfiles/place_api/icons/v2/restaurant_pinlet","name":"Tito Pizzeria-Leipzig-Vegan","opening_hours":{"open_now":true},"photos":[{"height":1746,"html_attributions":["<a href=\"https://maps.google.com/maps/contrib/114372202445686824130\">A Google User</a>"],"photo_reference":"AeJbb3d7UUvPTFAJ7yLBiD2XiB9cpv42QVXLWBO5OmgXHqLkNYS7AMEFXeObzxSHBCkxJehdUSXI4hrYBI_iEDNzxMKaovswaILUz2k9QzP3ge2YMVI-Mf7HbR0tA6EjAvLYYn2ggrvAeQphyV8jTHTR8MQAmzwvagW7YQD9MBX-6KoDYI_s","width":3104}],"place_id":"ChIJYa4cdGv4pkcRlCBddrAGFcw","plus_code":{"compound_code":"8CW3+F8 Leipzig","global_code":"9F3J8CW3+F8"},"price_level":1,"rating":4.3,"reference":"ChIJYa4cdGv4pkcRlCBddrAGFcw","types":["meal_delivery","meal_takeaway","restaurant","food","point_of_interest","establishment"],"user_ratings_total":290},{"business_status":"OPERATIONAL","formatted_address":"Dimpfelstraße 01, 04347 Leipzig","geometry":{"location":{"lat":51.3520481,"lng":12.4083503},"viewport":{"northeast":{"lat":51.35341842989271,"lng":12.40978782989272},"southwest":{"lat":51.35071877010726,"lng":12.40708817010728}}},"icon":"https://maps.gstatic.com/mapfiles/place_api/icons/v1/png_71/restaurant-71.png","icon_background_color":"#FF9E67","icon_mask_base_uri":"https://maps.gstatic.com/mapfiles/place_api/icons/v2/restaurant_pinlet","name":"Madame Thanh","opening_hours":{"open_now":true},"photos":[{"height":1600,"html_attributions":["<a href=\"https://maps.google.com/maps/contrib/109397826509381051629\">Jakob Randow</a>"],"photo_reference":"AeJbb3fFK-t3lkKRznUEyr7TNLwgsZxajKrDLdx8I8Z0e5lag6zr3OQfwwOF7AGH5WcGR9001GA-6vBR6036TyJnuUXVLYJwxdKfXD7rkdnfy7IvrmxB83SFsZAHv7OI2VTFYiChJLzcFu21ZlVoSl-tXVThTLIb36ehDl6wjlt2t6MI7LAR","width":900}],"place_id":"ChIJ5W3QBWj5pkcRgDbDV28-cBc","plus_code":{"compound_code":"9C25+R8 Leipzig","global_code":"9F3J9C25+R8"},"rating":4.3,"reference":"ChIJ5W3QBWj5pkcRgDbDV28-cBc","types":["restaurant","food","point_of_interest","establishment"],"user_ratings_total":206},{"business_status":"OPERATIONAL","formatted_address":"Bornaische Str. 24, 04277 Leipzig","geometry":{"location":{"lat":51.308308,"lng":12.3766467},"viewport":{"northeast":{"lat":51.30971137989271,"lng":12.37800442989272},"southwest":{"lat":51.30701172010727,"lng":12.37530477010728}}},"icon":"https://maps.gstatic.com/mapfiles/place_api/icons/v1/png_71/restaurant-71.png","icon_background_color":"#FF9E67","icon_mask_base_uri":"https://maps.gstatic.com/mapfiles/place_api/icons/v2/restaurant_pinlet","name":"Al Basha Bistro","opening_hours":{"open_now":true},"photos":[{"height":2736,"html_attributions":["<a href=\"https://maps.google.com/maps/contrib/104789548255472202985\">Tom Aerian</a>"],"photo_reference":"AeJbb3e_ujDfJs2hSc3DncLG3Y8mSrQ5XNktgzr9rb-N9aEYulZy9LqulmO3ZLNaczJHCdcawDrfhO-e1DWMbD74ksqpiTL41D9C31B7WrUC54mOKEl0MraMZ9sjCpVbHH-ga4UKB-bJAHv7NnVVKzFMj_CcwE4NoHp1cbCO-uekltZaeNgj","width":3648}],"place_id":"ChIJTR8SsMb5pkcRbJG-vJ8w9Bw","plus_code":{"compound_code":"895G+8J Leipzig","global_code":"9F3J895G+8J"},"price_level":1,"rating":4.3,"reference":"ChIJTR8SsMb5pkcRbJG-vJ8w9Bw","types":["restaurant","point_of_interest","food","establishment"],"user_ratings_total":77},{"business_status":"OPERATIONAL","formatted_address":"Karl-Liebknecht-Straße 68, 04275 Leipzig","geometry":{"location":{"lat":51.3225117,"lng":12.3733118},"viewport":{"northeast":{"lat":51.32389792989272,"lng":12.37473427989272},"southwest":{"lat":51.32119827010727,"lng":12.37203462010728}}},"icon":"https://maps.gstatic.com/mapfiles/place_api/icons/v1/png_71/restaurant-71.png","icon_background_color":"#FF9E67","icon_mask_base_uri":"https://maps.gstatic.com/mapfiles/place_api/icons/v2/restaurant_pinlet","name":"Mother India Indisches Restaurant","opening_hours":{"open_now":true},"photos":[{"height":1200,"html_attributions":["<a href=\"https://maps.google.com/maps/contrib/101659477766328859190\">waqas karim</a>"],"photo_reference":"AeJbb3eq4TKTtjolkzUFBGB9N15_L8ulN3lhTChBNIU92n1kc19sMrYL5COs-VBhZX__nUjPHcN6wtND5C5As0HQnqUTv_xvsVUoTOfgAx8D0bY16444T_o5ku6FYl40zi2KapXTbKbmgotPZ1A1LK9pOH9y1IvY3KUJz0JpYDj2FeApXZwR","width":1600}],"place_id":"ChIJqVJrqAb5pkcRNhbqpsbztpk","plus_code":{"compound_code":"89FF+28 Leipzig","global_code":"9F3J89FF+28"},"rating":4.3,"reference":"ChIJqVJrqAb5pkcRNhbqpsbztpk","types":["restaurant","food","point_of_interest","establishment"],"user_ratings_total":57},{"business_status":"OPERATIONAL","formatted_address":"Dufourstraße 21, 04107 Leipzig","geometry":{"location":{"lat":51.3269661,"lng":12.3705926},"viewport":{"northeast":{"lat":51.32831552989272,"lng":12.37191732989272},"southwest":{"lat":51.32561587010728,"lng":12.36921767010728}}},"icon":"https://maps.gstatic.com/mapfiles/place_api/icons/v1/png_71/restaurant-71.png","icon_background_color":"#FF9E67","icon_mask_base_uri":"https://maps.gstatic.com/mapfiles/place_api/icons/v2/restaurant_pinlet","name":"dean&david - Pickup & Lieferdienst","opening_hours":{"open_now":true},"photos":[{"height":4032,"html_attributions":["<a href=\"https://maps.google.com/maps/contrib/115691959942168746485\">Elvis John</a>"],"photo_reference":"AeJbb3cvk8njI7kH710WCMBEMJLmZ2abagMDPVEuKwhcZHWbFWPotxKojMzcCO-aOFUtG1UUSCp8rSaGDGWpkKVhK5HvgVP4TS40vp2J7HPIlB0MvsAf_Fehw_ZMKVtjiw-bHKx6_sY8aokA8THzvDf3D2Q665pSonWMg5AX83-SEpUheYnw","width":3024}],"place_id":"ChIJuSpv7RD5pkcRXdi-QKwgyQs","plus_code":{"compound_code":"89GC+Q6 Leipzig","global_code":"9F3J89GC+Q6"},"rating":4.3,"reference":"ChIJuSpv7RD5pkcRXdi-QKwgyQs","types":["restaurant","food","point_of_interest","establishment"],"user_ratings_total":10},{"business_status":"OPERATIONAL","formatted_address":"Karl-Liebknecht-Straße 57, 04107 Leipzig","geometry":{"location":{"lat":51.32563099999999,"lng":12.373926},"viewport":{"northeast":{"lat":51.32697222989272,"lng":12.37516397989272},"southwest":{"lat":51.32427257010728,"lng":12.37246432010728}}},"icon":"https://maps.gstatic.com/mapfiles/place_api/icons/v1/png_71/restaurant-71.png","icon_background_color":"#FF9E67","icon_mask_base_uri":"https://maps.gstatic.com/mapfiles/place_api/icons/v2/restaurant_pinlet","name":"Safran","opening_hours":{"open_now":true},"photos":[{"height":3024,"html_attributions":["<a href=\"https://maps.google.com/maps/contrib/103470579140792339082\">Roland Spanier</a>"],"photo_reference":"AeJbb3e9hrY4lsXdRk8l8BmWFeMoRUQJt19ZuX8AdVEEKVSzuYhQHmkwGuAOi2nQgqkaxeRcrbpDTkdbLT8p4CN2QXJnficPnPFBaa6H2ewfffVCE1N9tgDe-Nr87tA3dzqV9YicGEhBzeWzz3IxsRIZQIQPJ5RaeFk8FjOcDn8Ycv7WGUoQ","width":4032}],"place_id":"ChIJodlDFC34pkcRnvRBjE7pVcM","plus_code":{"compound_code":"89GF+7H Leipzig","global_code":"9F3J89GF+7H"},"price_level":2,"rating":4.2,"reference":"ChIJodlDFC34pkcRnvRBjE7pVcM","types":["restaurant","food","point_of_interest","establishment"],"user_ratings_total":525},{"business_status":"OPERATIONAL","formatted_address":"Stauffenbergstraße 1, 04157 Leipzig","geometry":{"location":{"lat":51.3694949,"lng":12.3651499},"viewport":{"northeast":{"lat":51.37086797989272,"lng":12.36648327989272},"southwest":{"lat":51.36816832010727,"lng":12.36378362010728}}},"icon":"https://maps.gstatic.com/mapfiles/place_api/icons/v1/png_71/restaurant-71.png","icon_background_color":"#FF9E67","icon_mask_base_uri":"https://maps.gstatic.com/mapfiles/place_api/icons/v2/restaurant_pinlet","name":"Ginseng","opening_hours":{"open_now":false},"photos":[{"height":2592,"html_attributions":["<a href=\"https://maps.google.com/maps/contrib/114202950222162386305\">Pano 360</a>"],"photo_reference":"AeJbb3dQg81XDPCL4wrVdWYz_4x6DPqvKidUnHeodMvKHicdzDYG20d8YsqOxdREBkbcLsRgZErI6EOQ7GtKP-aUTDD1QF0hOjZ5g93jFhL1kFvyO9CrXo5DFRVH82HkC1mDBW6GnDfin8hlGBt_P_BKUq6Htt437GeT4q4NGGwurOEyV50m","width":3872}],"place_id":"ChIJESeKrVNZpkcRb5f2XfTDe30","plus_code":{"compound_code":"9998+Q3 Leipzig","global_code":"9F3J9998+Q3"},"rating":4.2,"reference":"ChIJESeKrVNZpkcRb5f2XfTDe30","types":["restaurant","liquor_store","bar","food","store","point_of_interest","establishment"],"user_ratings_total":249},{"business_status":"OPERATIONAL","formatted_address":"Karl-Liebknecht-Straße 98, 04275 Leipzig","geometry":{"location":{"lat":51.3180024,"lng":12.3731831},"viewport":{"northeast":{"lat":51.31937867989271,"lng":12.37463587989272},"southwest":{"lat":51.31667902010727,"lng":12.37193622010728}}},"icon":"https://maps.gstatic.com/mapfiles/place_api/icons/v1/png_71/restaurant-71.png","icon_background_color":"#FF9E67","icon_mask_base_uri":"https://maps.gstatic.com/mapfiles/place_api/icons/v2/restaurant_pinlet","name":"Bistro Shahia I","opening_hours":{"open_now":true},"photos":[{"height":3024,"html_attributions":["<a href=\"https://maps.google.com/maps/contrib/101158194561885126729\">Patrick zimbo</a>"],"photo_reference":"AeJbb3eXJvl1DJXjzXgFXAYxLW_0rLFfGTAGFxS6FRkq6gDOsT4cQbiWrIPFuXwpYWaet2GpCFkmLGiH0JvLDZ8d1gzR-ucykDwq6QDw5kfG7mh8z-dLZ05tESVDU5PsarhybXwH_aUDB0e5n6NRoj-hFq4cFMA_HutzYoDS_n74hyDhHoxl","width":5376}],"place_id":"ChIJK15MG875pkcRUIzmR5UoStA","plus_code":{"compound_code":"899F+67 Leipzig","global_code":"9F3J899F+67"},"price_level":1,"rating":4.1,"reference":"ChIJK15MG875pkcRUIzmR5UoStA","types":["restaurant","food","point_of_interest","establishment"],"user_ratings_total":343},{"business_status":"OPERATIONAL","formatted_address":"Brühl 1, 04109 Leipzig","geometry":{"location":{"lat":51.34348379999999,"lng":12.375713},"viewport":{"northeast":{"lat":51.34460667989272,"lng":12.37675567989272},"southwest":{"lat":51.34190702010728,"lng":12.37405602010728}}},"icon":"https://maps.gstatic.com/mapfiles/place_api/icons/v1/png_71/restaurant-71.png","icon_background_color":"#FF9E67","icon_mask_base_uri":"https://maps.gstatic.com/mapfiles/place_api/icons/v2/restaurant_pinlet","name":"Yasumi","opening_hours":{"open_now":true},"photos":[{"height":4128,"html_attributions":["<a href=\"https://maps.google.com/maps/contrib/110551398351458882568\">Frank Eritt</a>"],"photo_reference":"AeJbb3fxEYv1RNh7ewhCbOS8MzE3VtprCUxEJ_1hHOLaE5ZHrR4iogphvBsTTfld0oTH2Nhw9eQoLoZ7k8VkHPklAbwpgBGIid5NHmjqohB8cKwz1gw2s33aYFVkIZBIt4eOHKJrSBaJVYexDH_zfksyhwzBEK-wd6Ejb5XxFmh0WeKM1kMn","width":2322}],"place_id":"ChIJJZBbkiH4pkcR-VXhF9ucbng","plus_code":{"compound_code":"89VG+97 Leipzig","global_code":"9F3J89VG+97"},"price_level":2,"rating":4.1,"reference":"ChIJJZBbkiH4pkcR-VXhF9ucbng","types":["liquor_store","restaurant","food","store","point_of_interest","establishment"],"user_ratings_total":100},{"business_status":"OPERATIONAL","formatted_address":"Karl-Heine-Straße 38, 04229 Leipzig","geometry":{"location":{"lat":51.3323916,"lng":12.3367855},"viewport":{"northeast":{"lat":51.33366457989273,"lng":12.33820812989272},"southwest":{"lat":51.33096492010728,"lng":12.33550847010728}}},"icon":"https://maps.gstatic.com/mapfiles/place_api/icons/v1/png_71/restaurant-71.png","icon_background_color":"#FF9E67","icon_mask_base_uri":"https://maps.gstatic.com/mapfiles/place_api/icons/v2/restaurant_pinlet","name":"Fam Tran Phat Restaurant - Leipzig Plagwitz","opening_hours":{"open_now":true},"photos":[{"height":4032,"html_attributions":["<a href=\"https://maps.google.com/maps/contrib/116712769042367298597\">Mena R. Youssef</a>"],"photo_reference":"AeJbb3d28lxp6FTDx9pcl98oYli9DrjCjtXuOZ1dn-6U1uqKK-0Au0Y5cuDJeiKW7nZsuY-xIM33H28VgglN6u3ILy0EJJi7Xymch05hx74u19wm6hF3JT91pKX0mrZ_W0s7QbMTd-STwyDT7KYpPXT4IqYLK7pCNa6Taj5Q-LdfOZEbX5Gn","width":3024}],"place_id":"ChIJd92gR5_3pkcRkKQY-BtQoXQ","plus_code":{"compound_code":"88JP+XP Leipzig","global_code":"9F3J88JP+XP"},"price_level":1,"rating":4,"reference":"ChIJd92gR5_3pkcRkKQY-BtQoXQ","types":["meal_delivery","restaurant","food","point_of_interest","establishment"],"user_ratings_total":509},{"business_status":"OPERATIONAL","formatted_address":"Karl-Heine-Straße 51, 04229 Leipzig","geometry":{"location":{"lat":51.3317086,"lng":12.3356872},"viewport":{"northeast":{"lat":51.33314012989273,"lng":12.33698122989272},"southwest":{"lat":51.33044047010728,"lng":12.33428157010728}}},"icon":"https://maps.gstatic.com/mapfiles/place_api/icons/v1/png_71/restaurant-71.png","icon_background_color":"#FF9E67","icon_mask_base_uri":"https://maps.gstatic.com/mapfiles/place_api/icons/v2/restaurant_pinlet","name":"Veganese Quan Chay - Leipzig Plagwitz","opening_hours":{"open_now":true},"photos":[{"height":3024,"html_attributions":["<a href=\"https://maps.google.com/maps/contrib/110139462470546205679\">A Google User</a>"],"photo_reference":"AeJbb3fb7y8uBRWeUvymMNj0v1ifia9YXmHB6n2kSGIoZjct9I7dL1mqSWrv1ssI2Dtx8nn91iP3zz5f73a65k__3mkN01cPggy8tTzPrStjqkMVtMmKkgZa_twPvXO4DTfGZI5d9dD1Px90ibq4JorIw_ztClBAUdAmytiv21MigqpqlVo4","width":3024}],"place_id":"ChIJK_vKmjf3pkcR6SEmymrLqQk","plus_code":{"compound_code":"88JP+M7 Leipzig","global_code":"9F3J88JP+M7"},"rating":3.9,"reference":"ChIJK_vKmjf3pkcR6SEmymrLqQk","types":["restaurant","point_of_interest","food","establishment"],"user_ratings_total":98},{"business_status":"OPERATIONAL","formatted_address":"Wolfgang-Heinze-Straße 20, 04277 Leipzig","geometry":{"location":{"lat":51.308314,"lng":12.3730211},"viewport":{"northeast":{"lat":51.30966512989271,"lng":12.37447207989272},"southwest":{"lat":51.30696547010727,"lng":12.37177242010728}}},"icon":"https://maps.gstatic.com/mapfiles/place_api/icons/v1/png_71/restaurant-71.png","icon_background_color":"#FF9E67","icon_mask_base_uri":"https://maps.gstatic.com/mapfiles/place_api/icons/v2/restaurant_pinlet","name":"Shahia II","opening_hours":{"open_now":true},"photos":[{"height":1960,"html_attributions":["<a href=\"https://maps.google.com/maps/contrib/102781686438016193707\">mario hörholdt</a>"],"photo_reference":"AeJbb3dTjKRNFfYz1AtZmoJ-ZkiiWEd96x-8xde5X1s8IMwH5C6NBGF0NydUXSPzpP_DMBLJxfYGbzZzhW7R0z4hZqkd-YgNNehYjpkcYyxBBt9dYCDxrS-9ZvE90PfoDQIr8Mfz79j4WLuG4O7EB6gkuI84WDVLSWIGPOCVef_ldKCPcHi3","width":4032}],"place_id":"ChIJOcc_d8T5pkcRcRw6rJBnG-s","plus_code":{"compound_code":"895F+86 Leipzig","global_code":"9F3J895F+86"},"price_level":1,"rating":3.8,"reference":"ChIJOcc_d8T5pkcRcRw6rJBnG-s","types":["restaurant","point_of_interest","food","establishment"],"user_ratings_total":215},{"business_status":"OPERATIONAL","formatted_address":"Nikolaistraße 12-14, 04109 Leipzig","geometry":{"location":{"lat":51.3413264,"lng":12.3782952},"viewport":{"northeast":{"lat":51.34237852989272,"lng":12.37923222989272},"southwest":{"lat":51.33967887010728,"lng":12.37653257010728}}},"icon":"https://maps.gstatic.com/mapfiles/place_api/icons/v1/png_71/restaurant-71.png","icon_background_color":"#FF9E67","icon_mask_base_uri":"https://maps.gstatic.com/mapfiles/place_api/icons/v2/restaurant_pinlet","name":"Indian Palace","opening_hours":{"open_now":true},"photos":[{"height":3024,"html_attributions":["<a href=\"https://maps.google.com/maps/contrib/109993524998023921883\">Ashish Deshpande</a>"],"photo_reference":"AeJbb3f_ZdNX4wtut0iW_R1vopx2KuO9bslEArQPIMGycxmA4USu1Ixf6BhR-K1oraiZIrbSh73YuIfgmWBeLOxGL9CHgn9bWk22kvTYkOD6D0v_v2BWF8eOwu-sNgIMlA5vmWzh6VtczHKl0eD8VK-AVr70gy82mmPYyr1kqKl8GgERE-TZ","width":4032}],"place_id":"ChIJS2xMuiP4pkcRbH1hKkkDTG4","plus_code":{"compound_code":"89RH+G8 Leipzig","global_code":"9F3J89RH+G8"},"price_level":2,"rating":3.7,"reference":"ChIJS2xMuiP4pkcRbH1hKkkDTG4","types":["restaurant","food","point_of_interest","establishment"],"user_ratings_total":693},{"business_status":"OPERATIONAL","formatted_address":"Nikolaistraße 27, 04109 Leipzig","geometry":{"location":{"lat":51.34146,"lng":12.37797},"viewport":{"northeast":{"lat":51.34244437989272,"lng":12.37912532989272},"southwest":{"lat":51.33974472010727,"lng":12.37642567010728}}},"icon":"https://maps.gstatic.com/mapfiles/place_api/icons/v1/png_71/restaurant-71.png","icon_background_color":"#FF9E67","icon_mask_base_uri":"https://maps.gstatic.com/mapfiles/place_api/icons/v2/restaurant_pinlet","name":"Indian Curry House Vegane- & Indisches Spezialitäten","opening_hours":{"open_now":true},"photos":[{"height":3024,"html_attributions":["<a href=\"https://maps.google.com/maps/contrib/115026648691216645290\">palak28394</a>"],"photo_reference":"AeJbb3ct5EHkfe3xdp8iugBEIMqSF6SZS_53e4g1qT0oETwdCX_zbvJwguBmY0F1d-RwxScKuuIM7JILE45JJqwNn0_l316O4pT-Gt6V05C7DIN3YKjKH8pPMJy2un7QoH4oHhJK7omfhoL1fkGZoO7Ezf0CxRpdiG3In2-LlsKUyn0-wBu9","width":4032}],"place_id":"ChIJKb8r2b_5pkcR_fb1yYjsQcg","plus_code":{"compound_code":"89RH+H5 Leipzig","global_code":"9F3J89RH+H5"},"rating":3.6,"reference":"ChIJKb8r2b_5pkcR_fb1yYjsQcg","types":["restaurant","point_of_interest","food","establishment"],"user_ratings_total":315}]